#------------------------------------------------------------
~VERSION INFORMATION
VERS.               2.0  :CWLS LOG ASCII STANDARD-VERSION 2.0
WRAP.                NO  :ONE LINE PER DEPTH STEP
#------------------------------------------------------------
~WELL INFORMATION
STRT.M              0.0  :START DEPTH
STOP.M            185.2  :STOP DEPTH
STEP.M              0.1  :STEP
NULL.           -999.25  :NULL VALUE
COMP.               N/A  :COMPANY
WELL.               N/A  :WELL
 FLD.               N/A  :FIELD
 LOC.               N/A  :LOCATION
PROV.               N/A  :PROVINCE
SRVC.               N/A  :SERVICE COMPANY
DATE.               N/A  :DATE
 UWI.               N/A  :UNIQUE WELL ID
#------------------------------------------------------------
~CURVE INFORMATION
DEPT.M                   :DEPTH
MC2F.USFT                :MC2F
MC4F.MS/F                :MC4F
MC6F.MS/F                :MC6F
GRDE.API                 :GRDE
ADEN.GM/CC               :ADEN
DENL.G/CC                :DENL
CADE.MM                  :CADE
#------------------------------------------------------------
~OTHER
#------------------------------------------------------------
~A   DEPT[M]    MC2F[uSF    MC4F[MS/    MC6F[MS/    GRDE[API    ADEN[GM/    DENL[G/C    CADE[mm]
# ...
     132.800     105.500     102.000     101.800     128.954     2.29934     2.27400     119.456
     132.900     102.700     99.6999     101.500     146.731     2.29521     2.31901     118.491
     133.000     101.800     99.3000     101.900     148.663     2.39030     2.35700     117.018
     133.100     102.400     99.3999     100.700     148.855     2.32000     2.34199     114.223
     133.200     103.100     99.1000     99.4000     136.490     2.25341     2.28900     111.405
     133.300     100.600     98.2000     98.0000     121.095     2.28702     2.26200     109.499
     133.400     97.7402     96.0000     97.8998     123.735     2.25764     2.24801     110.059
     133.500     99.0000     95.5001     96.5999     117.810     2.26503     2.32300     112.242
     133.600     99.5997     94.1000     95.3399     112.400     2.35893     2.35000     115.469
     133.700     95.9999     93.8400     94.7999     118.969     2.38558     2.34799     118.694
     133.800     93.7000     92.8001     92.7000     104.541     2.35026     2.45500     122.301
     133.900     93.9992     88.8998     90.4997     109.823     2.58317     2.46501     124.994
     134.000     87.4000     87.4000     88.9000     103.253     2.52487     2.50800     126.187
     134.100     81.9009     86.3995     87.2997     109.629     2.50286     2.48699     124.739
     134.200     88.5001     83.6000     84.4999     104.992     2.43347     2.43400     121.590
     134.300     91.1998     82.8000     80.9001     103.446     2.37390     2.36300     118.339
     134.400     86.0988     80.2993     79.2000     99.3231     2.26928     2.33700     116.764
     134.500     78.5001     74.3001     78.8000     93.7202     2.26752     2.33300     117.323
     134.600     76.8994     72.6004     79.8999     76.4572     2.50909     2.39900     118.237
     134.700     72.7002     76.5001     79.2000     83.0274     2.37435     2.40100     118.262
     134.800     78.7986     79.5999     80.2000     100.805     2.44675     2.43600     117.754
     134.900     110.301     81.9010     82.5002     117.166     2.42339     2.49100     118.110
     135.000     115.001     87.2000     83.9000     114.590     2.46416     2.48900     120.269
     135.100     84.5097     86.2990     84.7994     94.2341     2.52689     2.47700     123.114
     135.200     81.8100     81.4001     80.0000     85.4109     2.52312     2.47600     125.298
     135.300     80.2001     76.8001     80.0100     86.2478     2.45090     2.48800     125.628
     135.400     77.9003     77.7104     80.5100     101.579     2.59299     2.53700     124.104
     135.500     79.7998     79.6101     80.7000     108.986     2.47958     2.54100     122.555
     135.600     84.7003     81.0000     80.0003     111.367     2.47775     2.46800     121.285
     135.700     86.6000     81.0000     81.6999     101.900     2.47243     2.44200     121.234
     135.800     84.3000     82.5000     83.4999     89.2110     2.44154     2.47100     121.768
     135.900     84.6007     83.5001     85.2000     89.5970     2.45940     2.40600     122.530
     136.000     88.7000     84.3000     85.5000     89.1472     2.39474     2.43100     122.580
     136.100     90.8199     86.1998     85.0999     98.4860     2.42226     2.46000     122.860
     136.200     89.6003     85.2002     84.3000     98.4859     2.48937     2.48200     123.292
     136.300     85.3003     81.7000     84.1100     96.8763     2.54947     2.52200     124.689
     136.400     80.6003     80.8097     83.0998     84.6377     2.50187     2.49800     125.324
     136.500     82.8999     79.5000     81.7001     83.1568     2.43944     2.52200     125.171
     136.600     85.5999     79.6999     79.6001     97.0723     2.59182     2.53199     123.596
     136.700     84.7002     79.1000     80.0000     112.850     2.58765     2.48200     121.996
     136.800     80.1000     78.3000     81.5000     113.237     2.42267     2.44900     120.929
     136.900     80.6206     79.2001     81.3000     104.991     2.38859     2.47900     120.472
     137.000     85.0001     79.6000     81.1000     92.9470     2.46178     2.45000     119.024
     137.100     83.9997     81.6003     82.5201     81.6753     2.50500     2.46999     116.408
     137.200     82.3998     83.3200     84.7000     83.2851     2.44942     2.43800     114.148
     137.300     88.0999     84.2000     85.0000     94.5570     2.38159     2.35900     113.944
     137.400     89.6996     85.4002     85.1001     93.7829     2.31262     2.34600     115.367
     137.500     87.8000     86.6001     85.5000     85.2812     2.29535     2.32200     117.678
     137.600     87.2997     84.1999     85.7997     71.3708     2.32369     2.32601     120.016
     137.700     85.3000     83.4999     84.1000     81.9971     2.33421     2.40600     122.098
     137.800     86.4999     82.0000     84.0000     92.1098     2.48356     2.45000     123.063
     137.900     85.0000     82.0002     84.1000     109.436     2.47784     2.46300     123.241
     138.000     84.9000     83.5000     84.4000     108.019     2.48265     2.43500     122.987
     138.100     88.5001     83.3001     84.2998     111.110     2.45317     2.44200     122.860
     138.200     88.9001     84.0000     83.3000     106.409     2.42772     2.45900     122.072
     138.300     85.8000     82.6001     83.7000     110.338     2.46151     2.48500     121.056
     138.400     84.8999     81.0000     83.9999     98.9361     2.55343     2.50600     119.863
     138.500     84.0997     81.5000     83.4000     93.2685     2.47104     2.47300     119.609
     138.600     87.8101     82.0002     83.8000     88.4395     2.43492     2.45199     119.710
     138.700     88.8002     83.0000     83.8001     97.8409     2.42513     2.40100     120.142
     138.800     85.5000     83.6000     84.8100     110.982     2.41934     2.40500     119.685
     138.900     84.3003     83.6099     84.9998     112.013     2.34694     2.38100     119.049
     139.000     86.9100     83.0000     83.6000     109.630     2.34729     2.38100     117.450
     139.100     86.3997     82.8000     83.4005     92.9473     2.44340     2.41799     115.493
     139.200     84.1998     83.1001     85.4099     94.5568     2.42204     2.38300     113.081
     139.300     87.9001     84.3099     86.6000     90.3697     2.32143     2.34099     111.938
     139.400     90.1000     86.5002     86.8004     99.1294     2.31978     2.26200     112.217
     139.500     90.0000     88.3000     89.5001     95.9098     2.16714     2.21500     113.055
     139.600     90.7000     88.6998     88.0000     90.9500     2.17067     2.20800     113.436
     139.700     90.7000     87.3000     87.7000     90.7569     2.16807     2.17500     113.182
     139.800     90.3000     86.8000     89.0000     81.8682     2.27265     2.22700     112.344
     139.900     90.5000     87.5002     89.5996     95.2009     2.21550     2.22701     111.074
     140.000     90.6000     88.8001     86.9000     94.5570     2.18560     2.28500     109.753
     140.100     91.9989     85.0997     85.0999     99.5795     2.36378     2.37900     110.160
     140.200     86.1996     81.8999     84.0000     87.8582     2.42229     2.35400     113.284
     140.300     77.5196     80.5998     82.2000     84.9591     2.44204     2.46200     117.754
     140.400     82.9005     77.2004     81.6999     93.9132     2.46638     2.45801     120.040
     140.500     85.8000     79.4003     81.2202     95.2010     2.54010     2.50000     118.516
     140.600     85.1004     82.7202     83.8004     95.1992     2.47704     2.47700     114.858
     140.700     88.3999     84.1001     86.5000     88.6960     2.51071     2.46800     111.506
     140.800     90.8000     86.4000     86.0000     89.0181     2.32028     2.31900     109.957
     140.900     92.1995     86.0998     85.9996     87.2142     2.30650     2.27300     109.576
     141.000     89.1003     84.2999     83.4003     89.4040     2.19415     2.26500     111.481
