#------------------------------------------------------------
~VERSION INFORMATION
VERS.               2.0  :CWLS LOG ASCII STANDARD-VERSION 2.0
WRAP.                NO  :ONE LINE PER DEPTH STEP
#------------------------------------------------------------
~WELL INFORMATION
STRT.M              0.0  :START DEPTH
STOP.M            225.0  :STOP DEPTH
STEP.M              0.1  :STEP
NULL.           -999.25  :NULL VALUE
COMP.               N/A  :COMPANY
WELL.               N/A  :WELL
 FLD.               N/A  :FIELD
 LOC.               N/A  :LOCATION
PROV.               N/A  :PROVINCE
SRVC.               N/A  :SERVICE COMPANY
DATE.               N/A  :DATE
 UWI.               N/A  :UNIQUE WELL ID
#------------------------------------------------------------
~CURVE INFORMATION
DEPT.M                   :DEPTH
GRDE.API                 :GRDE
CADE.MM                  :CADE
DENL.G/CC                :DENL
ADEN.G/C3                :ADEN
MC2F.USFT                :MC2F
MC4F.MS/F                :MC4F
MC6F.MS/F                :MC6F
#------------------------------------------------------------
~OTHER
#------------------------------------------------------------
~A   DEPT[M]    GRDE[API    CADE[mm]    DENL[G/C    ADEN[G/C    MC2F[uSF    MC4F[MS/    MC6F[MS/
# ...
     174.300     63.1700     114.640     2.51000     2.52000     83.5500     83.3800     83.2201
     174.400     63.9173     114.180     2.52000     2.54000     81.9498     82.2999     82.5500
     174.500     56.3393     113.500     2.52000     2.54000     81.1500     81.6300     82.4500
     174.600     62.1202     112.860     2.53000     2.55000     81.4998     81.9001     82.7000
     174.700     64.2607     112.500     2.52000     2.53000     83.3000     83.0800     83.4700
     174.800     74.2899     112.410     2.52000     2.54000     85.5500     84.6299     84.1700
     174.900     72.9399     112.500     2.50001     2.49000     87.2978     85.4997     83.3297
     175.000     69.8995     112.430     2.53000     2.44000     78.1601     83.3501     81.9499
     175.100     64.8103     112.730     2.59000     2.48004     69.3099     80.1504     79.2700
     175.200     58.4303     113.230     2.68001     2.77001     62.8598     75.2500     76.9897
     175.300     60.5800     114.120     2.72000     2.90001     70.3495     76.3995     76.6900
     175.400     60.1849     114.620     2.69000     2.80998     78.5508     80.3806     76.6202
     175.500     74.5401     114.870     2.62000     2.55998     83.8500     83.5001     79.4299
     175.600     73.0397     114.960     2.52000     2.44000     85.0001     83.9801     80.7700
     175.700     68.0494     114.870     2.51000     2.47000     83.4501     81.8802     83.1997
     175.800     65.6591     114.960     2.52000     2.54000     81.5000     82.8800     83.7800
     175.900     58.1805     114.850     2.57000     2.65000     81.9004     83.1801     83.7800
     176.000     71.1500     114.870     2.57000     2.65000     84.3000     83.9500     83.8799
     176.100     71.4900     114.960     2.56000     2.60000     88.1002     85.0699     86.0698
     176.200     73.3898     114.850     2.50999     2.52000     90.8100     88.1498     89.0502
     176.300     60.1299     114.680     2.45001     2.49000     92.1600     91.4196     93.1701
     176.400     49.3097     113.800     2.38000     2.46000     92.3503     95.7006     97.1204
     176.500     47.3603     113.370     2.28999     2.40998     95.1001     100.280     102.069
     176.600     43.0788     113.640     2.13001     2.18997     104.051     107.030     107.150
     176.700     35.7000     114.530     1.93999     1.87996     115.500     114.550     111.180
     176.800     27.1208     114.860     1.82000     1.64000     122.850     119.220     114.930
     176.900     39.3449     114.160     1.84002     1.68007     122.449     120.380     117.400
     177.000     84.4110     113.460     1.99002     1.96995     118.100     118.350     117.951
     177.100     129.528     113.480     2.17000     2.28000     115.000     115.500     115.670
     177.200     170.958     114.260     2.30001     2.44001     113.100     112.270     111.120
     177.300     169.711     114.760     2.37000     2.44000     109.651     107.619     106.870
     177.400     157.548     115.050     2.40001     2.42001     101.999     102.799     103.100
     177.500     140.550     115.610     2.43000     2.46001     95.1500     98.0998     100.610
     177.600     137.751     116.870     2.45000     2.49000     94.4496     96.0800     97.9900
     177.700     151.112     118.190     2.48000     2.51000     98.7999     95.9799     98.0499
     177.800     160.141     118.980     2.48000     2.50001     103.250     99.5100     99.8497
     177.900     169.408     118.380     2.48000     2.53000     104.550     102.550     102.300
     178.000     161.582     117.710     2.47000     2.53000     105.000     104.050     104.180
     178.100     169.760     117.480     2.44000     2.48999     105.800     104.650     103.250
     178.200     173.451     116.230     2.40999     2.42999     106.750     102.600     101.050
     178.300     188.860     114.810     2.38000     2.37000     101.651     99.0698     97.4700
     178.400     165.666     113.570     2.37999     2.40001     90.2985     93.2998     96.4203
     178.500     133.262     114.140     2.35000     2.47000     82.6494     91.2497     97.8003
     178.600     95.8202     114.730     2.28001     2.42005     88.2985     95.8800     99.4198
     178.700     77.5314     114.870     2.18000     2.19005     105.149     103.979     102.270
     178.800     71.1900     114.890     2.12000     1.98001     116.350     112.080     105.539
     178.900     71.2908     114.340     2.14002     2.07005     116.448     114.160     109.150
     179.000     81.7601     113.750     2.24001     2.31999     109.850     111.149     109.600
     179.100     91.0399     113.050     2.33999     2.46000     104.101     106.230     107.550
     179.200     91.8400     112.910     2.40999     2.48000     101.000     103.100     104.670
     179.300     88.5404     112.840     2.44000     2.49001     100.650     102.080     103.000
     179.400     97.3741     113.190     2.47000     2.53000     101.750     102.450     101.980
     179.500     111.281     113.870     2.49000     2.54000     102.900     102.470     101.500
     179.600     123.199     114.480     2.50000     2.53000     102.260     101.920     100.970
     179.700     131.321     114.710     2.49000     2.52000     100.300     100.570     100.370
     179.800     120.350     114.710     2.50000     2.52000     98.6501     99.0999     99.7002
     179.900     110.930     114.730     2.50000     2.52000     97.5500     98.4199     98.3800
     180.000     99.7109     114.820     2.50000     2.50000     97.8000     97.4201     98.1200
     180.100     106.290     114.690     2.49000     2.50000     98.4999     97.8500     98.1700
     180.200     98.1190     114.570     2.49000     2.49000     99.2999     98.4700     98.9001
     180.300     92.7806     114.620     2.50000     2.51000     99.8500     99.4500     99.2500
     180.400     86.7519     114.850     2.51000     2.52000     99.8000     99.6300     99.3700
     180.500     99.1600     114.850     2.52000     2.53000     99.5000     99.4000     99.6200
     180.600     101.760     114.800     2.50000     2.51000     99.2500     99.5000     99.3500
     180.700     121.750     114.600     2.52000     2.54000     99.2000     99.1300     99.0700
     180.800     115.018     114.690     2.52000     2.54000     99.0000     98.8500     98.8800
     180.900     106.536     114.620     2.54000     2.56000     98.5500     98.7000     98.8300
     181.000     92.2306     114.800     2.53000     2.56000     98.4500     98.6500     98.8800
     181.100     96.1199     114.600     2.53000     2.55000     98.4500     98.8300     98.7200
     181.200     105.989     114.690     2.53000     2.55000     98.7000     98.8000     98.8300
     181.300     103.499     114.620     2.53000     2.53000     98.8500     99.0200     98.4200
     181.400     98.9601     114.850     2.52000     2.54000     99.0500     98.4000     98.6200
     181.500     92.8793     114.870     2.51000     2.52000     99.1000     98.5700     98.7799
     181.600     101.960     114.960     2.49000     2.50000     99.2500     98.7500     99.7000
     181.700     111.179     114.870     2.49000     2.49000     99.4501     100.030     100.230
     181.800     117.210     114.930     2.51000     2.52000     100.300     100.800     100.520
     181.900     113.270     114.730     2.53000     2.55000     101.400     101.150     100.020
     182.000     103.952     114.820     2.53000     2.54999     101.400     100.300     98.3500
     182.100     93.2306     114.710     2.53000     2.52000     98.6003     97.3801     95.2301
     182.200     86.8502     114.690     2.53000     2.52000     93.1504     92.1503     92.4704
     182.300     85.2000     114.600     2.54000     2.56000     88.2997     87.9998     89.7799
     182.400     84.3600     114.730     2.55000     2.59000     86.0000     85.3700     88.0798
     182.500     84.1100     114.700     2.55000     2.58000     86.0000     85.5500     86.5501
