#------------------------------------------------------------
~VERSION INFORMATION
VERS.               2.0  :CWLS LOG ASCII STANDARD-VERSION 2.0
WRAP.                NO  :ONE LINE PER DEPTH STEP
#------------------------------------------------------------
~WELL INFORMATION
STRT.M              0.0  :START DEPTH
STOP.M            225.0  :STOP DEPTH
STEP.M              0.1  :STEP
NULL.           -999.25  :NULL VALUE
COMP.               N/A  :COMPANY
WELL.               N/A  :WELL
 FLD.               N/A  :FIELD
 LOC.               N/A  :LOCATION
PROV.               N/A  :PROVINCE
SRVC.               N/A  :SERVICE COMPANY
DATE.               N/A  :DATE
 UWI.               N/A  :UNIQUE WELL ID
#------------------------------------------------------------
~CURVE INFORMATION
DEPT.M                   :DEPTH
GRDE.API                 :GRDE
CADE.MM                  :CADE
DENL.G/CC                :DENL
ADEN.G/C3                :ADEN
MC2F.USFT                :MC2F
MC4F.MS/F                :MC4F
MC6F.MS/F                :MC6F
#------------------------------------------------------------
~OTHER
#------------------------------------------------------------
~A   DEPT[M]    GRDE[API    CADE[mm]    DENL[G/C    ADEN[G/C    MC2F[uSF    MC4F[MS/    MC6F[MS/
# ...
     116.200     97.0201     116.940     2.53000     2.53000     96.2499     96.0999     95.5300
     116.300     85.6520     117.190     2.53000     2.53000     95.2000     94.8501     95.3200
     116.400     92.3800     117.330     2.54000     2.55000     92.9000     94.5000     95.2200
     116.500     92.9787     117.420     2.54000     2.57000     92.8003     94.7000     96.7701
     116.600     107.190     117.400     2.54000     2.57999     96.9999     97.5500     98.3299
     116.700     104.800     117.850     2.51000     2.52000     102.900     101.050     99.8503
     116.800     103.400     117.850     2.52000     2.51000     106.350     103.380     102.490
     116.900     115.120     117.670     2.50000     2.50000     106.700     105.230     104.640
     117.000     109.430     116.750     2.50000     2.52000     107.550     105.510     106.560
     117.100     112.970     115.950     2.49000     2.52000     108.400     106.660     105.920
     117.200     97.8199     115.300     2.49000     2.49000     107.750     105.530     105.550
     117.300     104.000     114.990     2.49000     2.49000     105.350     104.550     105.400
     117.400     112.820     115.760     2.49000     2.51000     104.150     103.900     105.430
     117.500     109.040     116.450     2.48000     2.51000     104.800     104.280     105.320
     117.600     115.370     117.750     2.47000     2.47000     106.700     105.300     105.850
     117.700     113.071     118.840     2.45000     2.44000     107.400     106.701     107.650
     117.800     130.368     120.380     2.44000     2.44000     107.750     109.070     110.830
     117.900     120.349     121.370     2.40999     2.45000     110.250     112.900     114.720
     118.000     113.669     121.780     2.33000     2.43001     116.760     118.380     118.821
     118.100     98.3188     121.650     2.17001     2.28000     124.900     124.360     122.760
     118.200     84.4588     121.510     1.97000     1.96998     130.300     129.010     126.640
     118.300     75.9799     121.400     1.75001     1.62002     131.650     131.580     129.570
     118.400     70.5000     121.400     1.59000     1.44000     130.950     131.900     130.980
     118.500     71.7397     121.370     1.52000     1.44999     130.500     131.320     131.280
     118.600     58.4292     121.190     1.50000     1.52000     130.100     131.100     131.270
     118.700     50.7013     120.570     1.52000     1.47000     130.700     131.430     131.650
     118.800     60.2294     119.100     1.57000     1.47000     131.600     132.220     132.280
     118.900     78.4712     117.830     1.66000     1.65004     132.550     133.380     133.320
     119.000     102.161     117.190     1.74000     1.89000     133.560     134.630     134.320
     119.100     109.089     117.430     1.76999     1.91001     134.810     135.680     135.170
     119.200     101.709     117.990     1.70999     1.76000     136.510     136.470     135.960
     119.300     82.6597     117.810     1.61000     1.60001     136.950     137.160     136.520
     119.400     57.8805     116.780     1.51000     1.49999     136.550     137.380     136.840
     119.500     46.3696     115.520     1.46000     1.39000     136.200     137.010     136.450
     119.600     42.8307     114.970     1.46000     1.43000     135.650     136.200     135.680
     119.700     49.5613     115.750     1.49000     1.53001     135.200     135.250     134.670
     119.800     62.9691     116.850     1.53000     1.57000     134.250     133.900     133.870
     119.900     72.2399     117.330     1.54000     1.57000     133.200     132.970     133.570
     120.000     73.8896     117.340     1.54000     1.59000     132.600     132.750     133.630
     120.100     59.2292     116.920     1.53000     1.55000     133.700     133.330     134.020
     120.200     39.7393     117.010     1.51000     1.50000     135.350     134.430     134.470
     120.300     33.9000     116.920     1.48000     1.50000     136.650     135.400     135.280
     120.400     29.6600     117.010     1.44000     1.50001     136.960     136.070     135.920
     120.500     30.0099     116.890     1.40000     1.40998     136.950     136.210     136.120
     120.600     29.5603     116.850     1.36000     1.30000     136.250     135.860     135.970
     120.700     34.5500     116.740     1.34000     1.33000     134.750     135.480     135.530
     120.800     34.3496     117.450     1.34000     1.37999     133.600     134.820     135.130
     120.900     25.2292     118.270     1.31000     1.33000     133.700     134.570     134.520
     121.000     18.7009     118.970     1.28000     1.26000     134.550     134.400     134.180
     121.100     25.7285     119.050     1.28000     1.18000     135.850     134.470     132.031
     121.200     35.3017     118.740     1.41002     1.20004     135.700     131.199     127.619
     121.300     59.5297     117.550     1.65997     1.53003     131.400     124.150     123.750
     121.400     80.8689     115.820     1.96997     2.02994     124.199     117.700     120.650
     121.500     99.6095     113.930     2.24998     2.44999     116.511     113.130     118.580
     121.600     111.030     113.500     2.43000     2.58000     111.650     112.180     114.820
     121.700     113.373     113.850     2.52000     2.58000     109.400     110.130     111.520
     121.800     126.930     115.320     2.52000     2.56999     108.400     109.030     108.790
     121.900     126.930     117.160     2.53000     2.51000     107.650     107.350     106.830
     122.000     128.181     118.590     2.55000     2.51000     105.550     105.550     105.170
     122.100     117.910     119.510     2.57000     2.57000     103.750     103.550     100.700
     122.200     113.270     119.650     2.61000     2.67000     102.650     97.2200     99.6999
     122.300     110.830     119.740     2.63000     2.69000     100.950     96.7800     99.0703
     122.400     107.940     119.570     2.63000     2.66001     99.8500     96.7201     101.720
     122.500     110.430     119.380     2.61000     2.59000     100.500     101.250     100.700
     122.600     109.730     119.390     2.58000     2.58000     101.050     100.570     99.7701
     122.700     108.990     118.840     2.58000     2.59000     99.5498     99.7200     98.5499
     122.800     106.490     118.220     2.59000     2.60000     97.1599     97.5800     97.7199
     122.900     102.360     117.440     2.59000     2.58000     95.2000     96.0500     96.5700
     123.000     101.460     117.390     2.61000     2.61000     94.4000     95.0700     96.2500
     123.100     106.691     117.170     2.60000     2.63000     94.5501     95.8000     96.4200
     123.200     115.221     117.090     2.58000     2.62000     96.4001     97.0202     96.8301
     123.300     118.959     116.780     2.55000     2.52001     98.7998     98.0501     97.4800
     123.400     114.670     116.870     2.53000     2.49000     99.2500     98.9500     98.3000
     123.500     117.910     116.810     2.52000     2.51000     99.4000     99.2500     99.3500
     123.600     117.410     117.010     2.54000     2.55000     100.150     99.6300     100.030
     123.700     111.329     116.890     2.53000     2.55000     101.400     100.420     100.370
     123.800     100.461     116.890     2.55000     2.57000     101.860     100.850     100.530
     123.900     111.630     116.890     2.53000     2.53000     101.560     100.730     100.520
     124.000     127.380     116.920     2.52000     2.53000     100.810     100.080     100.040
     124.100     124.241     117.010     2.51000     2.52000     99.8999     99.1400     99.5100
     124.200     113.818     116.890     2.52000     2.54000     98.4999     98.4900     99.0300
     124.300     98.4213     116.920     2.54000     2.56000     97.0501     98.1400     98.9300
     124.400     105.850     117.030     2.55000     2.57000     96.6000     98.4499     98.9800
