#------------------------------------------------------------
~VERSION INFORMATION
VERS.               2.0  :CWLS LOG ASCII STANDARD-VERSION 2.0
WRAP.                NO  :ONE LINE PER DEPTH STEP
#------------------------------------------------------------
~WELL INFORMATION
STRT.M              0.0  :START DEPTH
STOP.M            185.2  :STOP DEPTH
STEP.M              0.1  :STEP
NULL.           -999.25  :NULL VALUE
COMP.               N/A  :COMPANY
WELL.               N/A  :WELL
 FLD.               N/A  :FIELD
 LOC.               N/A  :LOCATION
PROV.               N/A  :PROVINCE
SRVC.               N/A  :SERVICE COMPANY
DATE.               N/A  :DATE
 UWI.               N/A  :UNIQUE WELL ID
#------------------------------------------------------------
~CURVE INFORMATION
DEPT.M                   :DEPTH
MC2F.USFT                :MC2F
MC4F.MS/F                :MC4F
MC6F.MS/F                :MC6F
GRDE.API                 :GRDE
ADEN.GM/CC               :ADEN
DENL.G/CC                :DENL
CADE.MM                  :CADE
#------------------------------------------------------------
~OTHER
#------------------------------------------------------------
~A   DEPT[M]    MC2F[uSF    MC4F[MS/    MC6F[MS/    GRDE[API    ADEN[GM/    DENL[G/C    CADE[mm]
# ...
     141.100     84.5992     79.5993     80.0996     88.7598     2.28517     2.39801     113.691
     141.200     78.8005     74.0999     77.0000     87.6004     2.52240     2.47500     115.138
     141.300     70.6000     70.7000     76.8000     98.4864     2.59476     2.52000     115.087
     141.400     70.1013     72.9009     78.4002     105.959     2.49005     2.48499     114.833
     141.500     81.6000     78.4995     80.6000     109.694     2.45444     2.43700     114.884
     141.600     92.9002     85.4007     84.2007     88.1777     2.39972     2.42101     115.062
     141.700     94.4000     91.1000     89.0999     75.4271     2.43003     2.44900     114.706
     141.800     95.2000     92.8999     91.3001     79.6143     2.45867     2.47600     114.884
     141.900     96.6984     90.2994     89.2998     90.8242     2.57963     2.50001     115.291
     142.000     89.4103     87.0000     87.6001     105.378     2.44710     2.53400     116.154
     142.100     82.4001     83.8992     84.8997     104.863     2.44300     2.49700     116.484
     142.200     83.3000     78.9000     82.3098     106.344     2.57889     2.47300     116.281
     142.300     83.2001     78.2100     79.3001     115.427     2.47322     2.52300     116.637
     142.400     80.4000     77.6995     77.5001     108.276     2.54342     2.51597     116.865
     142.500     80.3001     74.2999     78.4000     103.575     2.47214     2.34600     115.240
     142.600     76.4003     75.7999     76.6001     98.1029     2.19169     2.32601     114.122
     142.700     77.9000     74.3000     77.0000     114.653     2.32817     2.41399     114.071
     142.800     80.3000     75.2003     79.7000     139.581     2.52584     2.48300     115.824
     142.900     80.3023     81.1005     83.6011     150.983     2.57329     2.43300     116.078
     143.000     93.7995     86.2995     90.1998     158.841     2.41295     2.41700     115.138
     143.100     104.801     95.4012     94.6007     137.712     2.30691     2.39099     114.020
     143.200     108.000     101.800     99.6000     133.527     2.32381     2.32900     112.954
     143.300     107.000     102.000     102.100     123.865     2.28706     2.34200     112.878
     143.400     105.500     100.099     100.000     136.749     2.41348     2.36900     114.275
     143.500     103.800     95.9000     100.100     144.927     2.40173     2.38700     116.408
     143.600     97.6001     96.2002     100.400     136.232     2.39860     2.41701     117.577
     143.700     98.7398     97.6999     99.0999     134.686     2.39637     2.48800     118.212
     143.800     106.800     96.1002     94.6000     139.581     2.61818     2.52000     118.389
     143.900     98.4991     92.8999     94.5403     157.488     2.54890     2.49202     119.228
     144.000     85.9995     92.3400     96.0000     156.393     2.53947     2.58100     119.710
     144.100     93.8033     90.5002     94.5999     147.312     2.48048     2.48499     120.269
     144.200     111.200     92.5002     94.1999     152.528     2.47549     2.45300     120.421
     144.300     104.500     98.2000     96.2000     150.338     2.49239     2.49000     119.736
     144.400     100.100     98.0000     100.099     145.441     2.45479     2.47101     118.770
     144.500     101.800     97.7002     96.5000     128.373     2.37110     2.50000     118.516
     144.600     103.399     94.4997     94.3002     145.058     2.70103     2.56701     119.355
     144.700     95.5002     91.1000     95.4000     155.169     2.62778     2.64500     120.447
     144.800     87.6003     91.8000     95.6000     156.200     2.62652     2.61300     120.853
     144.900     93.6016     91.5008     95.9998     150.597     2.59531     2.57500     120.879
     145.000     102.100     96.3999     94.8999     155.041     2.52319     2.56500     121.031
     145.100     103.900     98.5000     97.0005     172.689     2.57012     2.54099     121.183
     145.200     102.100     98.8000     99.8000     175.201     2.46810     2.49500     121.310
     145.300     100.900     98.8000     100.000     181.320     2.54594     2.54900     121.310
     145.400     101.140     98.4001     100.000     180.999     2.52486     2.51501     121.285
     145.500     101.600     98.9000     99.7000     184.091     2.52652     2.54100     121.133
     145.600     102.200     99.0000     99.6400     175.136     2.57067     2.58099     121.031
     145.700     102.000     99.0400     99.7000     170.886     2.51399     2.51900     121.158
     145.800     102.200     98.9000     99.6999     164.251     2.61759     2.55200     121.183
     145.900     101.500     98.7003     101.100     159.034     2.50272     2.51300     121.285
     146.000     102.320     100.600     101.100     158.647     2.49729     2.53700     121.006
     146.100     106.200     100.900     101.800     157.163     2.56013     2.53500     120.193
     146.200     107.000     102.000     103.920     135.588     2.57134     2.50200     119.177
     146.300     104.200     104.320     104.200     112.463     2.35932     2.46602     118.364
     146.400     107.800     103.100     102.800     92.2372     2.38288     2.27297     117.195
     146.500     107.400     100.900     104.100     88.3737     2.11720     2.07900     115.799
     146.600     97.4013     104.301     109.900     115.754     1.90731     2.05400     115.621
     146.700     106.501     110.900     112.900     149.761     2.04697     2.11500     117.653
     146.800     127.700     115.400     113.000     207.601     2.29467     2.25700     119.558
     146.900     130.899     120.200     113.399     214.173     2.45603     2.39800     119.888
     147.000     119.800     116.700     106.500     224.864     2.36961     2.36300     118.847
     147.100     112.340     110.299     97.0000     200.708     2.43105     2.41399     118.059
     147.200     109.900     104.100     96.8000     192.914     2.28000     2.33200     118.135
     147.300     104.501     96.2999     97.0400     179.517     2.46180     2.39500     118.796
     147.400     93.1996     94.4382     97.0000     169.857     2.33209     2.45199     121.311
     147.500     90.8007     76.3999     97.0000     184.413     2.43701     2.37900     123.190
     147.600     111.807     87.0011     97.2005     200.323     2.53962     2.34099     121.691
     147.700     154.000     97.0005     100.300     216.361     2.17010     2.29500     118.999
     147.800     154.000     138.600     105.600     216.296     2.16873     2.24200     117.399
     147.900     153.996     132.598     107.200     202.833     2.24037     2.26000     118.898
     148.000     129.801     115.400     110.400     192.400     2.30549     2.25200     119.736
     148.100     114.998     111.099     112.000     186.859     2.25848     2.26200     118.669
     148.200     104.100     106.700     110.800     181.579     2.28017     2.27800     117.678
     148.300     105.300     103.600     105.700     170.113     2.20432     2.26199     116.281
     148.400     113.399     100.800     103.301     145.634     2.22668     2.14200     114.732
     148.500     108.600     102.800     107.200     131.787     2.10013     2.15500     113.487
     148.600     105.701     108.200     109.600     130.757     2.07065     2.18903     113.945
     148.700     119.100     107.600     110.000     143.897     2.43483     2.30900     115.214
     148.800     122.940     110.900     108.900     150.982     2.37979     2.38000     116.434
     148.900     112.120     110.199     110.400     152.658     2.45104     2.39498     116.891
     149.000     109.300     106.300     111.140     163.478     2.25553     2.32300     118.186
     149.100     110.400     105.040     108.220     158.133     2.36891     2.35301     119.634
     149.200     109.800     105.820     108.200     173.398     2.38760     2.42400     120.650
     149.300     109.600     107.900     109.100     169.404     2.48486     2.45600     121.133
