#------------------------------------------------------------
~VERSION INFORMATION
VERS.               2.0  :CWLS LOG ASCII STANDARD-VERSION 2.0
WRAP.                NO  :ONE LINE PER DEPTH STEP
#------------------------------------------------------------
~WELL INFORMATION
STRT.M              0.0  :START DEPTH
STOP.M            204.0  :STOP DEPTH
STEP.M              0.1  :STEP
NULL.           -999.25  :NULL VALUE
COMP.               N/A  :COMPANY
WELL.               N/A  :WELL
 FLD.               N/A  :FIELD
 LOC.               N/A  :LOCATION
PROV.               N/A  :PROVINCE
SRVC.               N/A  :SERVICE COMPANY
DATE.               N/A  :DATE
 UWI.               N/A  :UNIQUE WELL ID
#------------------------------------------------------------
~CURVE INFORMATION
DEPT.M                   :DEPTH
MC4F.MS/F                :MC4F
MC6F.MS/F                :MC6F
GRDE.API                 :GRDE
DENL.G/CC                :DENL
ADEN.GM/CC               :ADEN
CADE.MM                  :CADE
#------------------------------------------------------------
~OTHER
#------------------------------------------------------------
~A   DEPT[M]    MC4F[MS/    MC6F[MS/    GRDE[API    DENL[G/C    ADEN[GM/    CADE[mm]
# ...
     38.0000     92.1400     92.6000     108.246     2.44200     2.46905     123.165
     38.1000     92.0999     91.8000     109.321     2.48600     2.53221     122.885
     38.2000     90.2999     90.7000     101.485     2.49400     2.42590     122.809
     38.3000     87.6000     91.9000     89.7311     2.52200     2.55611     123.088
     38.4000     91.1001     91.8000     88.0251     2.60600     2.54521     123.165
     38.5000     92.9000     91.5003     92.3223     2.55500     2.62628     122.961
     38.6000     94.7003     100.700     98.4525     2.55300     2.58330     123.190
     38.7000     100.900     107.000     116.462     2.53100     2.39584     123.139
     38.8000     102.000     107.000     133.081     2.54900     2.61793     123.546
     38.9000     105.700     108.600     133.839     2.55999     2.59580     123.749
     39.0000     113.100     114.700     133.017     2.45400     2.36265     124.181
     39.1000     116.500     117.200     146.289     2.43300     2.47273     124.511
     39.2000     119.000     115.200     167.014     2.49900     2.55401     125.019
     39.3000     116.300     114.400     163.412     2.59300     2.64115     125.755
     39.4000     112.100     114.700     145.529     2.55800     2.55052     126.314
     39.5000     110.600     114.800     142.371     2.60500     2.42123     126.568
     39.6000     111.300     114.820     154.818     2.49100     2.56406     126.721
     39.7000     117.220     113.200     162.970     2.54200     2.57293     126.898
     39.8000     117.800     115.800     167.077     2.51200     2.55445     127.178
     39.9000     116.000     115.600     157.472     2.52700     2.47022     127.178
     40.0000     112.100     109.600     156.208     2.54300     2.62597     127.178
     40.1000     104.100     108.000     136.682     2.58800     2.61880     127.203
     40.2000     103.000     110.400     128.468     2.52000     2.29060     127.432
     40.3000     108.000     115.840     123.096     2.47000     2.53728     127.965
     40.4000     119.041     122.580     142.055     2.35000     2.42622     128.626
     40.5000     134.780     131.700     159.052     2.21400     2.04680     129.286
     40.6000     141.800     136.700     162.780     2.19500     2.41630     129.819
     40.7000     143.300     137.800     156.460     2.20000     2.18092     129.819
     40.8000     137.700     131.300     133.586     2.17300     2.12489     129.819
     40.9000     123.800     123.200     110.836     2.35500     2.52361     129.819
     41.0000     110.200     115.000     97.0621     2.42800     2.28978     129.845
     41.1000     99.8998     108.700     102.622     2.42801     2.30631     129.997
     41.2000     95.8000     101.000     109.069     2.59500     2.67722     130.099
     41.3000     96.9000     96.8400     123.223     2.50300     2.52150     130.581
     41.4000     98.9400     98.4000     118.926     2.51000     2.51595     131.013
     41.5000     98.1000     99.0000     122.463     2.53800     2.54844     131.191
     41.6000     97.2000     99.8000     109.637     2.49700     2.46165     131.293
     41.7000     98.9000     99.1000     115.261     2.43301     2.45192     131.115
     41.8000     98.9000     99.3000     115.450     2.53200     2.52832     130.988
     41.9000     99.5000     99.5000     116.082     2.49100     2.49534     130.937
     42.0000     99.3000     99.7000     106.730     2.53600     2.53645     130.886
     42.1000     99.0000     99.6000     109.194     2.49900     2.48116     131.140
     42.2000     98.8000     99.0000     114.123     2.44100     2.45669     131.140
     42.3000     98.1000     98.3000     117.030     2.48200     2.47378     131.140
     42.4000     96.7000     96.6000     105.466     2.45300     2.47712     131.115
     42.5000     95.0999     96.0000     107.362     2.41600     2.39692     130.988
     42.6000     93.1000     95.7000     117.221     2.53200     2.52337     130.937
     42.7000     93.1000     95.1000     141.232     2.52500     2.53058     130.759
     42.8000     93.1000     94.3000     142.812     2.57900     2.57764     130.480
     42.9000     94.2000     94.1200     139.904     2.53100     2.54582     130.378
     43.0000     94.5199     94.0199     128.215     2.50500     2.49653     130.023
     43.1000     92.5199     92.8000     124.107     2.49000     2.49863     130.073
     43.2000     90.2000     91.9000     117.537     2.45600     2.45080     129.819
     43.3000     89.3000     90.7000     131.564     2.48900     2.47211     129.743
     43.4000     88.0000     90.8000     131.438     2.53400     2.55956     129.515
     43.5000     89.2001     91.0000     138.957     2.48500     2.45866     129.692
     43.6000     91.4000     90.4000     117.093     2.54300     2.56039     129.743
     43.7000     90.3001     91.4000     106.477     2.54300     2.62960     129.489
     43.8000     91.8000     92.9000     108.183     2.51800     2.36760     129.388
     43.9000     93.0000     93.0000     108.562     2.58199     2.59377     129.032
     44.0000     92.8000     92.0200     119.873     2.50600     2.55349     129.134
     44.1000     93.7199     92.1200     107.930     2.46300     2.47444     128.956
     44.2000     92.5200     93.9000     115.450     2.49200     2.48019     128.803
     44.3000     92.1000     94.0000     110.585     2.52300     2.51474     128.524
     44.4000     92.8000     94.0000     115.577     2.46800     2.46920     127.965
     44.5000     93.3001     94.4000     114.313     2.48100     2.49219     127.762
     44.6000     95.3000     95.1400     114.755     2.46800     2.46589     127.432
     44.7000     96.0400     95.3000     113.239     2.44800     2.44412     127.152
     44.8000     94.8000     93.0000     112.354     2.47400     2.49564     126.949
     44.9000     90.8000     92.2000     111.912     2.51800     2.56598     126.771
     45.0000     90.0000     91.4000     116.588     2.53600     2.42343     127.025
     45.1000     88.2000     90.5000     116.209     2.57700     2.60025     127.051
     45.2000     87.3001     89.4000     117.725     2.51100     2.52459     127.076
     45.3000     89.9000     89.2000     117.220     2.51700     2.54207     126.644
     45.4000     88.8000     90.0000     113.681     2.49500     2.46973     126.314
     45.5000     88.2000     90.0000     114.251     2.52400     2.53151     125.908
     45.6000     89.1000     90.3000     125.561     2.50600     2.50542     125.705
     45.7000     90.0000     91.0000     134.281     2.51700     2.51122     125.298
     45.8000     90.8000     92.2000     126.888     2.54500     2.57317     125.095
     45.9000     92.3000     93.0000     111.026     2.50400     2.49810     124.739
     46.0000     91.9000     93.0000     89.8580     2.54700     2.55831     124.714
     46.1000     90.9001     93.2000     89.9841     2.53100     2.49713     124.562
     46.2000     92.5000     92.2999     98.9576     2.54900     2.49478     124.435
     46.3000     91.7000     91.1200     114.818     2.48300     2.55221     124.409
     46.4000     89.9200     91.0000     117.346     2.47300     2.52429     124.308
     46.5000     89.8000     91.5999     114.566     2.48600     2.39903     124.409
     46.6000     89.5000     90.6000     104.076     2.56800     2.57812     124.282
     46.7000     89.1000     89.3000     99.5885     2.52000     2.56398     124.282
     46.8000     90.1000     89.6000     85.9400     2.47100     2.46113     124.308
     46.9000     90.0000     90.8000     96.5564     2.52800     2.46222     124.460
     47.0000     90.2000     90.0000     101.422     2.50400     2.56595     124.638
     47.1000     90.2000     90.0000     111.848     2.54400     2.51604     124.917
     47.2000     90.1000     90.0000     106.540     2.48700     2.51884     125.070
     47.3000     89.1000     88.8000     103.002     2.55500     2.54852     125.146
     47.4000     86.7999     89.4000     98.0723     2.52400     2.52400     125.070
