#------------------------------------------------------------
~VERSION INFORMATION
VERS.               2.0  :CWLS LOG ASCII STANDARD-VERSION 2.0
WRAP.                NO  :ONE LINE PER DEPTH STEP
#------------------------------------------------------------
~WELL INFORMATION
STRT.M              0.0  :START DEPTH
STOP.M            185.2  :STOP DEPTH
STEP.M              0.1  :STEP
NULL.           -999.25  :NULL VALUE
COMP.               N/A  :COMPANY
WELL.               N/A  :WELL
 FLD.               N/A  :FIELD
 LOC.               N/A  :LOCATION
PROV.               N/A  :PROVINCE
SRVC.               N/A  :SERVICE COMPANY
DATE.               N/A  :DATE
 UWI.               N/A  :UNIQUE WELL ID
#------------------------------------------------------------
~CURVE INFORMATION
DEPT.M                   :DEPTH
MC2F.USFT                :MC2F
MC4F.MS/F                :MC4F
MC6F.MS/F                :MC6F
GRDE.API                 :GRDE
ADEN.GM/CC               :ADEN
DENL.G/CC                :DENL
CADE.MM                  :CADE
#------------------------------------------------------------
~OTHER
#------------------------------------------------------------
~A   DEPT[M]    MC2F[uSF    MC4F[MS/    MC6F[MS/    GRDE[API    ADEN[GM/    DENL[G/C    CADE[mm]
# ...
     99.6000     104.200     100.100     99.9000     145.636     2.38793     2.44600     116.637
     99.7000     102.320     99.6999     101.700     147.696     2.45193     2.41101     116.484
     99.8000     101.620     98.8000     101.000     141.578     2.53303     2.51400     117.247
     99.9000     100.400     98.9998     98.6200     155.813     2.48368     2.47400     118.821
     100.000     101.400     96.6200     98.4200     153.108     2.42203     2.45800     120.396
     100.100     97.8001     96.6200     98.8000     158.325     2.45558     2.43900     121.158
     100.200     96.6005     97.5999     98.7000     155.040     2.51350     2.50401     121.056
     100.300     102.900     97.1003     99.2998     150.982     2.49912     2.57700     120.599
     100.400     102.700     99.6995     95.7000     151.368     2.64734     2.58300     120.244
     100.500     102.800     95.2995     95.0001     141.063     2.62318     2.54800     120.498
     100.600     93.2997     90.8000     96.8000     143.446     2.49116     2.52600     121.082
     100.700     84.9008     93.4000     97.0001     144.283     2.50053     2.51800     121.463
     100.800     98.7008     93.5007     98.0000     153.688     2.50483     2.51900     121.437
     100.900     108.600     99.8002     98.2005     150.853     2.47877     2.50100     121.183
     101.000     106.100     104.800     102.500     141.445     2.55504     2.53900     120.650
     101.100     105.700     104.200     102.500     114.332     2.49042     2.56400     120.548
     101.200     107.199     98.9994     96.7998     130.435     2.65197     2.52700     120.802
     101.300     98.6993     91.7999     95.0000     130.757     2.57371     2.59200     121.310
     101.400     81.9107     89.8999     94.7999     139.581     2.65451     2.63399     121.336
     101.500     86.1011     88.9002     93.7000     128.761     2.47665     2.54700     121.412
     101.600     101.200     90.7996     92.0199     134.750     2.57419     2.54600     121.056
     101.700     101.500     97.3200     93.9004     151.434     2.46067     2.48500     120.574
     101.800     99.0001     97.5999     98.5001     159.678     2.62001     2.58300     120.091
     101.900     101.500     96.6001     99.2000     166.181     2.53554     2.53700     120.345
     102.000     103.500     98.2000     98.8000     146.922     2.49482     2.53100     120.929
     102.100     102.500     98.5000     100.200     132.237     2.58033     2.55300     121.285
     102.200     101.200     99.3001     101.800     118.584     2.55523     2.57000     121.006
     102.300     103.000     100.600     101.600     142.931     2.55685     2.57499     120.244
     102.400     106.200     101.100     101.000     158.068     2.54920     2.50600     119.431
     102.500     104.500     100.700     101.600     158.131     2.53888     2.54400     118.567
     102.600     100.700     100.800     102.200     148.470     2.53853     2.54600     118.897
     102.700     102.200     99.9001     102.600     136.167     2.52334     2.53800     120.040
     102.800     105.400     101.600     102.000     144.733     2.56590     2.54399     120.599
     102.900     108.000     102.000     103.500     126.697     2.42310     2.42398     119.990
     103.000     106.000     104.400     105.901     111.624     2.32644     2.22099     118.745
     103.100     107.640     106.200     110.800     79.8070     2.04895     1.98899     118.085
     103.200     111.801     112.000     115.201     60.7404     1.60108     1.76098     117.221
     103.300     123.601     120.001     119.640     52.3668     1.52773     1.57099     115.900
     103.400     134.000     125.440     124.100     46.6347     1.46899     1.47600     114.757
     103.500     135.600     130.300     128.500     56.5545     1.49275     1.47400     113.284
     103.600     132.800     130.900     131.100     65.1199     1.49241     1.50700     112.243
     103.700     132.400     129.600     132.800     81.3532     1.56376     1.52501     111.709
     103.800     135.500     131.400     133.400     85.9257     1.64487     1.58000     112.293
     103.900     138.800     133.700     134.700     83.0919     1.56116     1.59600     112.776
     104.000     142.900     135.400     136.300     82.1254     1.53453     1.56399     113.462
     104.100     144.200     136.400     137.100     73.1723     1.48286     1.49300     114.529
     104.200     141.800     135.800     137.700     65.1200     1.46583     1.48800     115.265
     104.300     140.200     135.000     138.400     51.9153     1.52050     1.48400     115.189
     104.400     140.000     135.000     136.400     41.0945     1.46037     1.47400     115.646
     104.500     141.000     133.700     136.300     36.5216     1.43556     1.44200     116.891
     104.600     138.400     134.200     136.300     28.9862     1.44976     1.42300     117.983
     104.700     138.000     134.400     136.000     33.3009     1.36775     1.41500     117.475
     104.800     138.320     133.000     134.800     30.6600     1.47854     1.41200     116.815
     104.900     139.200     132.800     133.600     32.9153     1.38336     1.41300     116.789
     105.000     137.900     131.600     132.520     37.1665     1.40274     1.46802     117.450
     105.100     134.200     129.220     133.100     43.8641     1.52142     1.68599     118.466
     105.200     130.800     129.700     131.500     62.5455     2.18589     1.95602     119.837
     105.300     132.100     128.200     129.400     87.0216     2.26204     2.24401     121.234
     105.400     134.700     127.199     124.000     99.1302     2.29932     2.40900     122.530
     105.500     130.000     120.499     119.200     103.509     2.53471     2.44501     123.266
     105.600     119.900     112.700     115.700     93.5910     2.50070     2.51800     123.749
     105.700     105.999     106.099     109.600     91.8511     2.47991     2.49300     123.647
     105.800     100.500     99.1999     104.400     82.9635     2.49996     2.44901     123.774
     105.900     99.9000     96.5000     99.7996     91.2096     2.49651     2.50001     123.800
     106.000     99.6001     96.4998     95.7999     104.671     2.51301     2.59299     123.901
     106.100     100.600     93.5000     95.0000     116.844     2.54625     2.49700     123.774
     106.200     96.7998     92.6999     94.5000     114.136     2.60618     2.54700     123.800
     106.300     93.3002     91.8000     94.3999     96.8759     2.46000     2.55500     123.927
     106.400     95.6002     91.1000     92.6999     95.7168     2.65249     2.58200     123.901
     106.500     97.6194     90.4000     91.2999     89.6618     2.48575     2.52700     123.647
     106.600     93.3999     90.0002     89.2001     87.8578     2.58958     2.57200     123.114
     106.700     89.3197     85.3996     86.9098     83.2843     2.49935     2.50401     122.936
     106.800     84.3900     81.6100     85.0999     75.1062     2.58784     2.60200     122.707
     106.900     81.9001     80.9000     84.4200     86.5061     2.57045     2.55500     122.809
     107.000     82.8006     81.8204     84.9901     87.3434     2.60208     2.56400     122.682
     107.100     88.3999     85.0900     85.8000     93.0761     2.50670     2.55300     122.707
     107.200     93.5000     87.9000     86.4999     96.6171     2.53870     2.57399     122.860
     107.300     93.4996     88.2998     85.8000     87.9876     2.56769     2.51200     122.987
     107.400     89.3992     84.1000     88.0000     95.9090     2.60560     2.49800     122.936
     107.500     82.3005     84.8001     88.4999     78.9698     2.39474     2.53800     122.606
     107.600     86.9000     85.6000     86.2000     99.2590     2.46050     2.52000     122.199
     107.700     93.8998     84.8005     86.8000     87.7295     2.57289     2.47700     122.047
     107.800     88.1001     89.1996     86.3001     96.9398     2.43681     2.49101     121.869
