#------------------------------------------------------------
~VERSION INFORMATION
VERS.               2.0  :CWLS LOG ASCII STANDARD-VERSION 2.0
WRAP.                NO  :ONE LINE PER DEPTH STEP
#------------------------------------------------------------
~WELL INFORMATION
STRT.M              0.0  :START DEPTH
STOP.M            204.0  :STOP DEPTH
STEP.M              0.1  :STEP
NULL.           -999.25  :NULL VALUE
COMP.               N/A  :COMPANY
WELL.               N/A  :WELL
 FLD.               N/A  :FIELD
 LOC.               N/A  :LOCATION
PROV.               N/A  :PROVINCE
SRVC.               N/A  :SERVICE COMPANY
DATE.               N/A  :DATE
 UWI.               N/A  :UNIQUE WELL ID
#------------------------------------------------------------
~CURVE INFORMATION
DEPT.M                   :DEPTH
MC4F.MS/F                :MC4F
MC6F.MS/F                :MC6F
GRDE.API                 :GRDE
DENL.G/CC                :DENL
ADEN.GM/CC               :ADEN
CADE.MM                  :CADE
#------------------------------------------------------------
~OTHER
#------------------------------------------------------------
~A   DEPT[M]    MC4F[MS/    MC6F[MS/    GRDE[API    DENL[G/C    ADEN[GM/    CADE[mm]
# ...
     180.500     87.0999     87.2000     140.538     2.48800     2.47974     116.561
     180.600     84.3000     88.1000     132.510     2.45200     2.47620     116.535
     180.700     84.9000     88.4000     117.218     2.43000     2.38564     116.383
     180.800     87.4997     88.8000     122.844     2.51300     2.47220     116.230
     180.900     90.8001     88.4202     132.007     2.50100     2.56595     116.103
     181.000     91.1401     89.8000     137.188     2.49200     2.50571     116.129
     181.100     89.9000     90.8000     144.645     2.47300     2.46177     116.256
     181.200     87.7000     91.1000     141.043     2.47800     2.41791     116.230
     181.300     87.4999     89.3000     141.294     2.49200     2.51591     116.078
     181.400     89.5999     88.2001     130.805     2.50000     2.52753     115.849
     181.500     89.2000     89.5000     127.142     2.41800     2.39962     115.113
     181.600     88.9001     89.1000     119.684     2.38700     2.41207     114.503
     181.700     87.2001     89.1000     117.472     2.47900     2.45852     114.021
     181.800     86.9000     88.9000     121.833     2.46200     2.46246     114.122
     181.900     87.2000     87.8000     128.089     2.42800     2.39494     113.970
     182.000     87.4000     87.9000     141.611     2.44100     2.49357     113.614
     182.100     87.9000     88.9000     139.210     2.47200     2.46374     112.065
     182.200     88.2000     88.9000     140.411     2.47000     2.43473     110.211
     182.300     87.3000     89.0000     133.965     2.49900     2.52200     108.306
     182.400     88.8003     88.9202     133.650     2.43301     2.44444     107.594
     182.500     90.2200     90.5001     144.581     2.46700     2.44594     107.137
     182.600     90.3999     88.2001     150.521     2.51600     2.53503     106.629
     182.700     85.9999     84.6002     141.675     2.61500     2.65299     105.943
     182.800     80.7004     81.4000     114.505     2.62900     2.67473     105.639
     182.900     76.0997     80.5000     92.1957     2.57000     2.40831     105.385
     183.000     74.5996     80.7000     88.2778     2.55800     2.59137     105.334
     183.100     79.2004     80.9002     91.5028     2.59799     2.60928     105.054
     183.200     84.9004     84.2002     115.579     2.52999     2.54396     104.902
     183.300     90.2000     88.7001     135.609     2.51300     2.50871     104.775
     183.400     92.2001     92.3000     150.017     2.47501     2.47550     104.800
     183.500     93.1000     91.7000     155.513     2.51100     2.55196     104.927
     183.600     90.6998     90.8000     145.340     2.53100     2.51167     104.927
     183.700     88.4998     88.1000     141.801     2.48400     2.49990     104.877
     183.800     85.2993     85.5099     120.758     2.62700     2.60375     104.648
     183.900     80.3099     83.5998     125.810     2.62699     2.68236     104.800
     184.000     79.6000     82.7000     112.354     2.59700     2.54026     104.953
     184.100     80.9999     83.3000     108.815     2.54700     2.53090     105.054
     184.200     83.3999     84.4000     100.348     2.60100     2.56945     104.902
     184.300     86.7000     85.7000     123.666     2.62001     2.68168     104.800
     184.400     89.0001     89.2001     141.296     2.53100     2.50705     104.902
     184.500     90.0000     90.4000     150.395     2.52300     2.50239     104.775
     184.600     90.0000     90.8000     155.197     2.51300     2.56479     104.775
     184.700     90.9000     91.1000     151.406     2.57900     2.55373     104.800
     184.800     91.0000     92.0000     157.346     2.53500     2.54802     104.902
     184.900     90.1000     91.3999     151.659     2.50100     2.51433     104.750
     185.000     90.1001     90.5000     142.877     2.50900     2.45994     104.623
     185.100     88.8000     89.1000     123.476     2.50700     2.53240     104.648
     185.200     86.9000     85.1100     116.145     2.54100     2.56644     104.800
     185.300     81.5100     84.0000     102.559     2.66701     2.74435     104.927
     185.400     80.5998     83.0000     95.1030     2.52902     2.36768     104.902
     185.500     79.4999     82.9999     94.9118     2.60500     2.62309     104.775
     185.600     80.6002     81.7000     117.219     2.59500     2.63852     104.750
     185.700     83.7002     82.6000     136.302     2.64400     2.66985     104.648
     185.800     84.6999     86.8000     131.943     2.61300     2.64433     104.775
     185.900     86.8000     87.2001     131.058     2.54900     2.38515     104.775
     186.000     86.9998     88.0000     132.070     2.59400     2.70035     104.800
     186.100     89.7000     88.5999     127.330     2.55600     2.56657     104.877
     186.200     89.1000     89.4999     130.174     2.52300     2.52139     104.648
     186.300     87.7000     90.0000     127.206     2.50800     2.49239     104.775
     186.400     88.6001     89.9000     154.501     2.50600     2.49427     104.775
     186.500     89.4000     90.0000     150.774     2.48400     2.52571     104.750
     186.600     89.8000     88.9099     153.934     2.48500     2.44601     104.597
     186.700     87.9100     86.9999     134.471     2.52900     2.57703     104.470
     186.800     84.4001     86.2000     117.409     2.56200     2.62500     104.496
     186.900     83.1999     85.8999     114.882     2.53201     2.36539     104.623
     187.000     82.3000     85.0000     121.642     2.59600     2.61247     104.623
     187.100     82.9001     84.5000     151.912     2.60899     2.67857     104.623
     187.200     86.5001     86.2000     164.676     2.50099     2.49467     104.597
     187.300     88.5001     89.4001     162.022     2.45300     2.42375     104.470
     187.400     89.9001     90.9000     167.267     2.49100     2.49786     104.445
     187.500     91.4000     90.6000     164.613     2.48700     2.49786     104.343
     187.600     91.0000     90.5000     166.950     2.48500     2.49499     104.521
     187.700     89.4000     90.1000     143.253     2.47300     2.48560     104.775
     187.800     87.4000     88.7999     132.954     2.54300     2.54882     104.775
     187.900     85.3990     84.7996     129.919     2.53101     2.49659     104.750
     188.000     80.6001     82.4100     119.242     2.57700     2.65240     104.623
     188.100     78.7100     82.0000     120.884     2.53800     2.46090     104.597
     188.200     79.0000     81.8000     134.154     2.58300     2.52564     104.470
     188.300     79.8000     80.9999     160.252     2.60200     2.65647     104.496
     188.400     82.8005     82.2006     140.786     2.66098     2.75558     104.623
     188.500     85.2000     86.2000     127.078     2.53201     2.36461     104.597
     188.600     86.5999     87.7000     118.040     2.58400     2.65540     104.470
     188.700     87.8999     88.8000     151.784     2.56400     2.59935     104.470
     188.800     90.0000     89.3000     164.739     2.49800     2.46480     104.521
     188.900     89.2993     85.6995     175.416     2.45600     2.44610     104.775
     189.000     82.0003     81.4005     144.769     2.50099     2.54341     104.775
     189.100     75.6998     76.6000     108.125     2.57000     2.60844     104.750
     189.200     68.6998     73.3000     71.9800     2.62300     2.67115     104.572
     189.300     63.9002     69.6001     70.5853     2.65200     2.51286     104.343
     189.400     66.3007     67.6005     65.5934     2.73999     2.72979     104.470
     189.500     70.1000     70.1098     71.4061     2.66000     2.69556     104.496
     189.600     72.4100     72.8997     73.5538     2.60201     2.61096     104.597
     189.700     74.4000     75.2997     101.927     2.56000     2.57512     104.445
     189.800     77.1000     76.6999     121.327     2.61700     2.61766     104.343
     189.900     78.0000     78.1003     127.582     2.63400     2.57173     104.496
