#------------------------------------------------------------
~VERSION INFORMATION
VERS.               2.0  :CWLS LOG ASCII STANDARD-VERSION 2.0
WRAP.                NO  :ONE LINE PER DEPTH STEP
#------------------------------------------------------------
~WELL INFORMATION
STRT.M              0.0  :START DEPTH
STOP.M            185.2  :STOP DEPTH
STEP.M              0.1  :STEP
NULL.           -999.25  :NULL VALUE
COMP.               N/A  :COMPANY
WELL.               N/A  :WELL
 FLD.               N/A  :FIELD
 LOC.               N/A  :LOCATION
PROV.               N/A  :PROVINCE
SRVC.               N/A  :SERVICE COMPANY
DATE.               N/A  :DATE
 UWI.               N/A  :UNIQUE WELL ID
#------------------------------------------------------------
~CURVE INFORMATION
DEPT.M                   :DEPTH
MC2F.USFT                :MC2F
MC4F.MS/F                :MC4F
MC6F.MS/F                :MC6F
GRDE.API                 :GRDE
ADEN.GM/CC               :ADEN
DENL.G/CC                :DENL
CADE.MM                  :CADE
#------------------------------------------------------------
~OTHER
#------------------------------------------------------------
~A   DEPT[M]    MC2F[uSF    MC4F[MS/    MC6F[MS/    GRDE[API    ADEN[GM/    DENL[G/C    CADE[mm]
# ...
     74.7000     106.900     102.200     103.900     154.460     2.52930     2.52300     123.520
     74.8000     109.000     106.600     105.800     145.765     2.52521     2.55300     123.749
     74.9000     113.400     107.700     107.500     148.083     2.53166     2.50800     123.622
     75.0000     112.940     108.000     108.300     143.446     2.48505     2.49701     123.622
     75.1000     109.800     108.000     108.000     135.910     2.54491     2.54900     123.622
     75.2000     110.600     104.900     107.440     130.048     2.54484     2.52100     123.647
     75.3000     107.300     104.540     106.100     134.300     2.50958     2.54100     123.774
     75.4000     106.300     104.100     105.300     137.908     2.51921     2.51700     123.749
     75.5000     108.400     101.800     104.400     152.013     2.54265     2.54400     123.647
     75.6000     106.100     102.500     103.700     149.758     2.56832     2.55900     123.749
     75.7000     104.400     102.000     104.900     141.385     2.58108     2.56400     123.622
     75.8000     105.400     103.200     105.000     144.542     2.55371     2.56400     123.596
     75.9000     108.500     104.500     105.000     162.835     2.52172     2.51200     123.393
     76.0000     111.400     105.300     106.400     180.482     2.51679     2.50100     123.012
     76.1000     111.000     106.700     107.500     173.784     2.44419     2.45700     122.250
     76.2000     109.800     107.000     107.600     161.158     2.45486     2.47600     121.564
     76.3000     111.700     105.500     107.000     151.562     2.47386     2.46500     121.336
     76.4000     109.400     105.000     106.300     156.909     2.45730     2.48800     121.463
     76.5000     107.600     104.600     106.200     167.472     2.52092     2.51999     121.437
     76.6000     108.640     103.500     106.000     155.813     2.47512     2.47000     121.336
     76.7000     109.000     104.700     106.500     132.817     2.55494     2.52700     121.437
     76.8000     109.600     105.600     106.840     119.488     2.57118     2.58000     121.336
     76.9000     111.100     105.640     107.200     146.024     2.59354     2.57600     121.437
     77.0000     113.000     106.000     106.800     162.255     2.57622     2.62599     121.336
     77.1000     110.400     105.300     106.000     171.723     2.56532     2.55400     121.488
     77.2000     108.100     103.100     105.800     156.585     2.63036     2.53800     121.641
     77.3000     105.300     102.000     105.100     150.660     2.47212     2.53500     121.742
     77.4000     104.000     102.400     105.900     146.409     2.48049     2.48500     121.641
     77.5000     107.400     104.700     107.500     147.053     2.52459     2.51100     121.717
     77.6000     112.400     108.300     108.900     149.050     2.46374     2.47000     121.488
     77.7000     114.900     111.100     110.400     151.626     2.42520     2.48600     121.539
     77.8000     116.900     111.100     111.700     148.535     2.55791     2.46400     121.183
     77.9000     115.700     111.200     111.600     146.924     2.47592     2.49300     121.336
     78.0000     113.700     110.200     111.600     144.027     2.42552     2.47900     121.437
     78.1000     112.400     109.000     110.600     159.098     2.51020     2.47600     121.310
     78.2000     113.640     108.000     110.000     165.475     2.44843     2.43800     121.260
     78.3000     111.700     108.000     110.000     164.251     2.45725     2.45800     121.056
     78.4000     111.120     108.500     111.340     154.783     2.45612     2.45000     121.285
     78.5000     113.880     109.940     112.000     153.042     2.38293     2.39200     121.056
     78.6000     117.000     112.100     112.820     148.084     2.39271     2.40000     120.548
     78.7000     118.400     113.820     114.980     152.657     2.36588     2.33600     119.913
     78.8000     119.600     115.680     117.100     154.525     2.26318     2.29300     119.939
     78.9000     120.900     116.900     119.200     167.663     2.25672     2.26098     119.990
     79.0000     123.700     119.400     122.700     152.269     2.12266     2.07198     119.431
     79.1000     125.600     124.200     124.500     125.348     1.96380     1.90100     118.415
     79.2000     131.300     126.100     126.800     96.8756     1.62437     1.70800     117.805
     79.3000     135.300     128.200     129.300     92.8823     1.54976     1.59199     117.196
     79.4000     132.700     131.300     131.100     95.7165     1.53872     1.52100     116.484
     79.5000     134.500     130.900     134.400     87.0205     1.50397     1.53400     115.392
     79.6000     137.800     133.500     135.000     82.5120     1.58413     1.55200     115.062
     79.7000     140.800     135.600     134.800     81.9324     1.55472     1.54601     114.681
     79.8000     141.440     134.700     135.100     89.0852     1.55500     1.63101     114.808
     79.9000     137.400     133.600     136.200     117.360     1.72676     1.69800     115.723
     80.0000     133.100     133.901     139.240     135.781     1.88487     1.81000     117.323
     80.1000     136.500     138.140     140.800     144.155     1.83954     1.87900     118.212
     80.2000     149.200     142.200     140.800     132.559     1.83372     1.84899     118.085
     80.3000     154.300     144.100     139.700     122.447     1.70278     1.68100     117.424
     80.4000     147.799     140.999     139.800     106.600     1.66805     1.64799     117.246
     80.5000     137.600     134.700     139.500     86.1836     1.54031     1.59500     116.865
     80.6000     133.200     132.200     137.800     82.5120     1.53446     1.54200     116.078
     80.7000     135.900     132.600     136.000     82.9629     1.63505     1.55300     115.164
     80.8000     142.000     135.000     136.200     81.8040     1.50282     1.58200     114.300
     80.9000     144.700     137.600     138.200     82.9633     1.60939     1.61800     113.995
     81.0000     143.500     139.100     140.100     89.9837     1.62549     1.58200     114.452
     81.1000     144.700     138.900     140.500     84.3802     1.65359     1.61800     114.783
     81.2000     145.200     138.100     139.900     68.8547     1.52508     1.56799     114.402
     81.3000     142.600     138.100     139.800     50.7567     1.47282     1.47200     113.665
     81.4000     141.820     137.200     140.100     37.2297     1.45814     1.42100     113.055
     81.5000     141.900     137.700     139.400     32.6573     1.33972     1.38100     112.395
     81.6000     142.900     137.500     139.920     36.9078     1.38214     1.39000     111.506
     81.7000     144.900     138.420     139.000     48.5674     1.37907     1.40700     111.125
     81.8000     143.500     137.500     138.900     52.2378     1.44228     1.38200     112.243
     81.9000     142.300     136.400     138.300     41.4162     1.37701     1.39900     114.376
     82.0000     139.800     135.000     137.400     33.8809     1.41808     1.36400     116.357
     82.1000     140.300     134.600     138.200     32.9148     1.30708     1.34700     117.958
     82.2000     140.000     136.000     138.200     48.6974     1.37387     1.46103     118.415
     82.3000     140.800     137.400     140.600     86.0574     1.69445     1.68402     119.456
     82.4000     143.101     140.500     141.700     123.351     1.98119     1.92501     120.422
     82.5000     149.300     142.300     141.300     153.623     2.17588     2.16300     121.437
     82.6000     150.300     141.500     141.200     154.461     2.21127     2.24600     122.123
     82.7000     144.800     140.500     140.500     148.213     2.26287     2.28700     122.428
     82.8000     139.900     136.400     138.400     143.963     2.32048     2.29400     122.682
     82.9000     137.620     132.400     133.300     158.455     2.34722     2.33901     122.657
