#------------------------------------------------------------
~VERSION INFORMATION
VERS.               2.0  :CWLS LOG ASCII STANDARD-VERSION 2.0
WRAP.                NO  :ONE LINE PER DEPTH STEP
#------------------------------------------------------------
~WELL INFORMATION
STRT.M              0.0  :START DEPTH
STOP.M            185.2  :STOP DEPTH
STEP.M              0.1  :STEP
NULL.           -999.25  :NULL VALUE
COMP.               N/A  :COMPANY
WELL.               N/A  :WELL
 FLD.               N/A  :FIELD
 LOC.               N/A  :LOCATION
PROV.               N/A  :PROVINCE
SRVC.               N/A  :SERVICE COMPANY
DATE.               N/A  :DATE
 UWI.               N/A  :UNIQUE WELL ID
#------------------------------------------------------------
~CURVE INFORMATION
DEPT.M                   :DEPTH
MC2F.USFT                :MC2F
MC4F.MS/F                :MC4F
MC6F.MS/F                :MC6F
GRDE.API                 :GRDE
ADEN.GM/CC               :ADEN
DENL.G/CC                :DENL
CADE.MM                  :CADE
#------------------------------------------------------------
~OTHER
#------------------------------------------------------------
~A   DEPT[M]    MC2F[uSF    MC4F[MS/    MC6F[MS/    GRDE[API    ADEN[GM/    DENL[G/C    CADE[mm]
# ...
     174.300     91.5000     85.0001     87.0000     129.662     2.68093     2.48700     108.407
     174.400     82.1999     83.9995     87.0000     127.927     2.45418     2.49700     108.636
     174.500     81.5000     79.1988     87.0000     142.931     2.37614     2.49201     108.382
     174.600     86.5002     92.3980     87.5997     135.328     2.42054     2.39001     108.509
     174.700     89.8000     75.5999     86.0000     128.374     2.50952     2.42200     108.356
     174.800     87.9999     77.2002     87.7001     120.644     2.35094     2.40300     108.179
     174.900     91.7004     87.7001     89.0000     137.458     2.35987     2.35598     107.874
     175.000     95.8000     88.7000     89.0000     152.528     2.26949     2.25500     107.721
     175.100     94.2391     89.9000     90.3004     152.333     2.17160     2.18300     108.636
     175.200     89.8998     89.6001     92.8000     135.395     2.09120     2.17700     110.541
     175.300     94.6999     91.9000     92.8400     126.957     2.20950     2.18000     112.547
     175.400     95.8002     91.9406     93.0000     126.184     2.22882     2.26501     113.589
     175.500     97.1002     94.4000     93.6999     127.987     2.38428     2.32400     113.386
     175.600     100.700     93.1006     96.0008     130.303     2.39398     2.32198     112.903
     175.700     101.480     95.9002     99.6004     116.843     2.24106     2.21501     112.344
     175.800     98.1003     101.000     104.601     100.611     2.03905     2.01204     112.141
     175.900     106.101     106.702     112.680     77.3578     1.64148     1.71297     111.785
     176.000     122.400     118.381     119.100     63.5748     1.43323     1.46700     111.938
     176.100     134.701     129.301     126.301     67.8952     1.44644     1.44401     112.166
     176.200     140.700     136.300     132.300     97.6496     1.53420     1.59201     112.674
     176.300     141.000     137.300     133.200     118.456     1.76587     1.78299     112.700
     176.400     137.899     132.599     132.600     134.425     2.00685     1.92602     112.801
     176.500     131.400     128.700     131.100     124.251     1.97913     2.03200     112.700
     176.600     126.700     125.999     127.699     133.334     2.11714     2.12600     112.827
     176.700     129.040     122.700     124.200     143.833     2.16791     2.15300     112.801
     176.800     128.300     120.200     122.600     138.358     2.12696     2.08600     112.624
     176.900     121.500     120.200     123.340     126.955     2.08908     2.05900     112.116
     177.000     121.299     120.340     124.300     108.083     1.98318     2.00200     111.404
     177.100     126.300     122.000     123.000     121.868     1.92499     2.02301     111.125
     177.200     130.200     123.800     122.000     120.193     2.15297     2.11600     110.947
     177.300     131.100     122.400     119.900     112.980     2.24133     2.23301     110.490
     177.400     124.297     116.500     118.300     103.958     2.35130     2.30400     109.118
     177.500     113.300     112.200     115.200     86.9573     2.38919     2.38200     107.925
     177.600     108.201     108.498     105.799     99.5809     2.32954     2.35800     107.213
     177.700     114.399     96.9996     97.9002     96.5534     2.40776     2.33400     107.671
     177.800     97.0000     90.1000     94.9000     128.760     2.29654     2.26801     108.128
     177.900     80.2007     87.9001     95.8004     127.605     2.07808     2.12197     108.560
     178.000     85.2000     88.4007     99.8000     141.384     1.87901     1.94100     108.890
     178.100     100.403     98.8021     100.602     131.722     1.79764     1.77098     109.220
     178.200     117.399     111.299     108.600     124.960     1.66522     1.67300     109.830
     178.300     126.920     120.100     117.600     94.4923     1.56333     1.56801     110.236
     178.400     128.200     126.101     125.501     78.5183     1.50870     1.47300     110.363
     178.500     132.100     129.200     131.420     52.7546     1.36313     1.46800     110.185
     178.600     137.000     133.620     131.100     44.1862     1.51470     1.42600     110.109
     178.700     140.100     132.600     133.400     35.1045     1.43288     1.43000     110.388
     178.800     136.500     134.200     135.400     41.6754     1.40124     1.47600     110.541
     178.900     136.400     134.800     136.600     49.4031     1.47296     1.47000     110.465
     179.000     141.500     134.900     135.700     43.2215     1.52172     1.50300     110.007
     179.100     142.199     135.000     135.100     39.4189     1.52672     1.47300     109.525
     179.200     137.900     134.500     137.300     30.2739     1.46383     1.45700     108.941
     179.300     138.800     135.000     138.300     31.4330     1.40237     1.41500     108.661
     179.400     141.901     136.200     138.100     30.9182     1.34195     1.36800     108.560
     179.500     144.700     138.000     139.000     33.1075     1.35544     1.35800     108.687
     179.600     145.400     138.700     139.700     39.6800     1.37748     1.37201     108.712
     179.700     143.800     138.100     140.000     49.7910     1.39378     1.40200     108.864
     179.800     144.000     138.000     139.900     53.7840     1.39956     1.39700     108.991
     179.900     145.040     137.900     139.000     46.3095     1.42152     1.40000     109.042
     180.000     145.000     137.001     139.300     36.4569     1.36723     1.39200     109.499
     180.100     142.598     151.298     139.040     33.3011     1.40193     1.37600     109.830
     180.200     129.500     143.460     139.000     34.0744     1.31621     1.36400     110.211
     180.300     141.500     138.000     139.000     37.5519     1.40119     1.36400     110.236
     180.400     144.400     137.600     139.200     34.0751     1.38209     1.38401     110.388
     180.500     145.400     138.000     139.600     44.8950     1.45911     1.44200     110.541
     180.600     147.200     137.400     139.100     46.8283     1.31890     1.45300     110.693
     180.700     144.000     136.300     137.300     52.0454     1.65882     1.47100     110.668
     180.800     140.900     132.900     137.200     42.6410     1.41972     1.47100     110.515
     180.900     135.400     132.000     136.800     42.4466     1.41018     1.43099     110.515
     181.000     137.300     132.700     136.300     36.1350     1.37535     1.36200     110.414
     181.100     142.000     133.501     136.200     40.1929     1.34255     1.35700     110.693
     181.200     143.200     136.800     136.700     39.1623     1.35593     1.37400     110.693
     181.300     142.200     136.400     138.700     47.0210     1.40849     1.37700     110.693
     181.400     142.640     137.300     139.000     44.1883     1.35701     1.37900     110.693
     181.500     142.400     135.800     138.000     50.9499     1.40123     1.38500     110.617
     181.600     139.500     135.000     137.340     49.7908     1.37722     1.38700     110.185
     181.700     139.500     135.140     137.500     48.2451     1.39594     1.38000     110.033
     181.800     140.400     134.900     136.100     49.4678     1.39693     1.41800     109.957
     181.900     141.200     134.400     135.700     61.5790     1.42815     1.46400     110.211
     182.000     140.700     133.900     134.700     69.5013     1.53457     1.52600     110.211
     182.100     138.399     131.599     132.600     64.2832     1.60383     1.51000     110.084
     182.200     135.600     128.600     132.300     66.2149     1.50435     1.51300     110.211
     182.300     130.900     128.400     132.200     77.0388     1.46422     1.57400     110.211
     182.400     133.001     129.299     130.000     99.0002     1.51863     1.56300     110.083
     182.500     137.800     126.900     128.000     82.9622     1.80112     1.57500     109.169
