#------------------------------------------------------------
~VERSION INFORMATION
VERS.               2.0  :CWLS LOG ASCII STANDARD-VERSION 2.0
WRAP.                NO  :ONE LINE PER DEPTH STEP
#------------------------------------------------------------
~WELL INFORMATION
STRT.M              0.0  :START DEPTH
STOP.M            185.2  :STOP DEPTH
STEP.M              0.1  :STEP
NULL.           -999.25  :NULL VALUE
COMP.               N/A  :COMPANY
WELL.               N/A  :WELL
 FLD.               N/A  :FIELD
 LOC.               N/A  :LOCATION
PROV.               N/A  :PROVINCE
SRVC.               N/A  :SERVICE COMPANY
DATE.               N/A  :DATE
 UWI.               N/A  :UNIQUE WELL ID
#------------------------------------------------------------
~CURVE INFORMATION
DEPT.M                   :DEPTH
MC2F.USFT                :MC2F
MC4F.MS/F                :MC4F
MC6F.MS/F                :MC6F
GRDE.API                 :GRDE
ADEN.GM/CC               :ADEN
DENL.G/CC                :DENL
CADE.MM                  :CADE
#------------------------------------------------------------
~OTHER
#------------------------------------------------------------
~A   DEPT[M]    MC2F[uSF    MC4F[MS/    MC6F[MS/    GRDE[API    ADEN[GM/    DENL[G/C    CADE[mm]
# ...
     116.200     106.799     97.4002     100.700     139.066     2.40205     2.35600     114.554
     116.300     100.000     100.300     102.100     148.986     2.38275     2.31200     114.199
     116.400     99.8000     100.100     101.200     146.087     2.00988     2.36400     116.383
     116.500     101.040     98.4003     100.500     147.891     2.62856     2.37200     119.888
     116.600     102.900     101.000     101.700     147.182     2.53005     2.49399     122.123
     116.700     105.800     102.100     101.140     156.393     2.43863     2.55900     121.971
     116.800     107.800     101.640     100.600     158.260     2.61369     2.56100     119.609
     116.900     108.000     99.3000     101.700     145.957     2.54020     2.47799     116.840
     117.000     105.700     99.3001     102.600     135.330     2.34533     2.37500     114.249
     117.100     102.500     100.100     100.300     136.165     2.43531     2.38100     113.106
     117.200     102.300     96.3000     100.100     156.199     2.20555     2.32600     115.164
     117.300     94.9004     96.7002     100.000     147.311     2.40701     2.37001     118.999
     117.400     98.5014     98.6001     102.000     152.657     2.39393     2.42100     122.530
     117.500     113.500     101.301     103.800     150.596     2.45483     2.44800     123.952
     117.600     114.800     108.200     105.300     154.267     2.48616     2.48100     124.079
     117.700     115.900     108.400     111.000     142.865     2.58679     2.56800     124.028
     117.800     111.600     109.600     108.100     131.722     2.57682     2.58500     123.698
     117.900     110.600     104.499     104.699     119.485     2.64099     2.59000     123.266
     118.000     105.099     98.5999     100.700     122.060     2.53779     2.55000     122.225
     118.100     94.8000     94.8000     99.0000     106.086     2.51726     2.53200     121.158
     118.200     95.0401     93.0001     98.3999     119.032     2.43889     2.44800     119.609
     118.300     99.5003     94.4000     94.9996     100.290     2.45787     2.44901     118.974
     118.400     103.000     94.8994     89.1196     96.3603     2.51797     2.52400     120.015
     118.500     95.3979     85.8191     83.4000     80.2589     2.41510     2.54700     122.326
     118.600     75.6999     75.2000     82.4000     96.1043     2.72648     2.56200     124.308
     118.700     67.4013     71.9006     83.9000     122.835     2.57228     2.59100     124.384
     118.800     78.7006     77.8009     83.5005     135.782     2.57152     2.58799     122.783
     118.900     96.2006     87.2005     87.9006     142.028     2.48133     2.50299     121.742
     119.000     102.300     98.0003     93.3001     128.760     2.54461     2.45200     121.133
     119.100     102.300     100.600     97.6999     128.502     2.37552     2.46900     121.691
     119.200     102.600     98.6999     99.3999     130.821     2.49323     2.52399     121.133
     119.300     102.900     97.9999     98.3000     138.616     2.56216     2.45499     119.989
     119.400     101.000     96.0000     98.7000     150.851     2.36796     2.37700     117.627
     119.500     98.2001     96.2000     99.0000     134.363     2.32498     2.39800     115.138
     119.600     99.0001     96.8000     98.5000     124.767     2.33729     2.41900     114.706
     119.700     102.300     97.2001     98.4000     106.090     2.63452     2.49601     117.018
     119.800     101.000     98.5000     98.9000     123.543     2.56002     2.61300     120.853
     119.900     99.8203     98.8997     97.9991     127.150     2.64158     2.63500     123.292
     120.000     103.500     95.8992     88.1000     135.266     2.61019     2.59300     123.927
     120.100     100.400     81.5992     99.0200     127.729     2.61168     2.61001     123.723
     120.200     103.000     97.4201     100.100     132.368     2.47330     2.48700     122.707
     120.300     103.600     98.1001     98.7001     138.035     2.61407     2.53000     121.895
     120.400     99.8003     99.1001     100.100     145.443     2.39830     2.47700     121.056
     120.500     102.700     100.000     103.000     152.206     2.50191     2.45900     120.497
     120.600     104.800     103.500     107.500     155.105     2.36370     2.42800     119.456
     120.700     109.101     108.600     110.000     158.584     2.48161     2.48200     118.821
     120.800     118.000     113.500     111.500     165.218     2.48204     2.45300     119.787
     120.900     121.800     114.300     111.000     176.812     2.51385     2.54100     121.615
     121.000     114.400     111.700     111.000     179.069     2.58506     2.56300     123.266
     121.100     106.000     107.300     111.600     194.977     2.60728     2.55400     123.546
     121.200     105.601     106.300     108.800     181.449     2.47040     2.44699     122.148
     121.300     110.100     105.900     105.800     180.806     2.37800     2.39800     119.939
     121.400     112.000     105.400     105.500     149.309     2.28065     2.35000     117.678
     121.500     107.920     105.100     105.900     158.905     2.31308     2.30600     116.434
     121.600     106.020     103.900     105.000     160.773     2.34886     2.33900     115.951
     121.700     110.700     101.600     103.620     167.278     2.31821     2.34500     116.180
     121.800     108.299     101.520     101.620     157.294     2.33342     2.31201     116.942
     121.900     104.000     99.0197     101.000     145.700     2.35711     2.44500     118.415
     122.000     103.800     95.8001     101.000     143.510     2.51290     2.46401     119.507
     122.100     99.6000     97.1000     99.7000     146.280     2.58402     2.54900     120.625
     122.200     100.801     97.4001     101.400     150.145     2.58110     2.55801     121.082
     122.300     105.500     100.100     102.300     163.478     2.64602     2.64499     121.437
     122.400     107.600     103.600     102.800     159.356     2.52814     2.58300     121.310
     122.500     108.700     103.500     102.400     166.118     2.63211     2.57500     121.310
     122.600     108.800     100.700     100.300     147.504     2.54356     2.48300     121.336
     122.700     101.200     96.4998     98.5000     151.561     2.41871     2.47500     121.488
     122.800     94.2001     93.1999     96.2997     139.775     2.45008     2.54800     121.437
     122.900     95.0000     89.8999     93.0998     140.609     2.55543     2.51600     120.472
     123.000     94.3998     89.0998     89.2001     123.156     2.61622     2.40199     119.253
     123.100     92.8002     86.5999     90.7001     127.472     2.20721     2.31400     118.415
     123.200     87.3203     88.7003     93.1000     131.724     2.20009     2.39500     118.542
     123.300     91.6004     92.5000     92.8998     144.026     2.49643     2.43601     118.440
     123.400     97.6001     92.8000     90.8400     142.351     2.57326     2.48700     118.034
     123.500     98.3996     92.2399     91.3002     137.391     2.51222     2.49899     118.872
     123.600     92.7000     91.3000     93.2998     135.910     2.34919     2.42200     119.939
     123.700     93.5005     91.1005     96.7996     137.713     2.35963     2.31801     120.523
     123.800     102.100     96.0997     93.4997     133.076     2.35819     2.36900     118.745
     123.900     100.400     93.7995     91.2001     132.496     2.44367     2.43500     117.373
     124.000     96.8998     90.0000     94.0001     137.005     2.35130     2.40301     116.230
     124.100     93.2003     89.9999     95.1000     138.100     2.49962     2.45500     115.926
     124.200     101.300     92.1002     95.9999     139.002     2.42897     2.43000     113.919
     124.300     100.100     95.5997     93.0002     139.195     2.42714     2.43600     110.769
     124.400     95.5999     93.0999     94.9000     145.894     2.43622     2.39001     107.620
