#------------------------------------------------------------
~VERSION INFORMATION
VERS.               2.0  :CWLS LOG ASCII STANDARD-VERSION 2.0
WRAP.                NO  :ONE LINE PER DEPTH STEP
#------------------------------------------------------------
~WELL INFORMATION
STRT.M              0.0  :START DEPTH
STOP.M            185.2  :STOP DEPTH
STEP.M              0.1  :STEP
NULL.           -999.25  :NULL VALUE
COMP.               N/A  :COMPANY
WELL.               N/A  :WELL
 FLD.               N/A  :FIELD
 LOC.               N/A  :LOCATION
PROV.               N/A  :PROVINCE
SRVC.               N/A  :SERVICE COMPANY
DATE.               N/A  :DATE
 UWI.               N/A  :UNIQUE WELL ID
#------------------------------------------------------------
~CURVE INFORMATION
DEPT.M                   :DEPTH
MC2F.USFT                :MC2F
MC4F.MS/F                :MC4F
MC6F.MS/F                :MC6F
GRDE.API                 :GRDE
ADEN.GM/CC               :ADEN
DENL.G/CC                :DENL
CADE.MM                  :CADE
#------------------------------------------------------------
~OTHER
#------------------------------------------------------------
~A   DEPT[M]    MC2F[uSF    MC4F[MS/    MC6F[MS/    GRDE[API    ADEN[GM/    DENL[G/C    CADE[mm]
# ...
     166.000     92.2000     84.7001     86.6999     122.512     2.60345     2.57900     117.424
     166.100     89.9993     83.5002     88.2000     124.636     2.62803     2.53901     117.323
     166.200     86.2998     85.2000     88.1000     117.424     2.56895     2.62500     117.450
     166.300     89.9998     86.2002     85.8999     118.519     2.60394     2.65900     117.475
     166.400     94.7985     83.5998     82.8002     109.243     2.69391     2.63500     117.551
     166.500     87.2010     81.0000     84.8000     110.016     2.62926     2.60800     117.323
     166.600     74.6011     81.8999     85.8999     108.085     2.50850     2.57400     117.424
     166.700     82.1008     81.2999     85.0000     112.271     2.63719     2.58200     117.323
     166.800     93.7003     83.6000     83.2999     110.146     2.54821     2.58700     117.348
     166.900     90.3998     87.0999     84.8007     121.162     2.63543     2.61600     116.662
     167.000     87.7000     86.4001     88.5000     137.584     2.62262     2.63600     115.519
     167.100     87.7201     85.6003     88.5999     154.202     2.61435     2.57301     114.071
     167.200     88.4000     87.3000     88.0000     145.957     2.57778     2.61600     113.259
     167.300     90.6999     88.5000     87.8201     129.598     2.51607     2.50500     113.005
     167.400     92.5994     87.6196     86.4000     114.010     2.51293     2.47699     113.157
     167.500     90.0003     85.1001     86.2003     113.752     2.44271     2.45101     113.157
     167.600     85.8997     83.5994     83.2997     112.334     2.48260     2.60599     113.132
     167.700     84.1000     78.7001     79.8000     103.188     2.63721     2.53900     112.979
     167.800     77.3003     74.9000     79.0000     101.063     2.61459     2.58200     112.979
     167.900     71.2013     75.4001     79.3001     111.306     2.52902     2.58199     112.979
     168.000     78.6002     77.0001     80.1001     124.831     2.58838     2.52200     112.979
     168.100     87.7002     81.4006     81.6005     140.997     2.44889     2.53000     112.979
     168.200     88.6000     86.2999     85.4000     135.588     2.58158     2.55599     112.878
     168.300     89.3999     88.2000     89.0000     136.426     2.54168     2.49200     112.116
     168.400     93.1003     89.5006     90.8999     125.668     2.47084     2.42201     111.531
     168.500     95.3999     92.4000     90.0000     127.407     2.32551     2.48500     111.201
     168.600     97.5998     90.3997     89.7998     118.196     2.54395     2.52099     111.608
     168.700     93.7394     88.1002     88.4000     116.908     2.51837     2.48200     111.608
     168.800     87.3000     84.8000     88.0000     111.885     2.55546     2.49800     111.582
     168.900     85.2998     83.2000     87.1200     123.156     2.41504     2.49301     111.455
     169.000     84.4002     83.9197     86.5001     124.251     2.54467     2.52300     111.455
     169.100     90.1005     86.2006     88.1998     130.240     2.51742     2.59300     111.506
     169.200     94.7000     89.5002     85.6999     110.146     2.55917     2.58900     111.785
     169.300     96.1997     86.0004     83.8998     88.1166     2.75905     2.50699     111.912
     169.400     82.7982     80.7985     79.9997     81.2918     2.52480     2.64500     111.836
     169.500     70.6000     72.8999     77.3000     95.2008     2.56765     2.58000     111.481
     169.600     68.8003     67.9007     76.3000     113.367     2.54484     2.52200     111.557
     169.700     71.2009     72.9003     76.0002     124.187     2.50468     2.55500     111.354
     169.800     83.2994     78.8001     79.5999     132.626     2.52230     2.53600     111.557
     169.900     90.9000     84.8008     83.0008     139.646     2.52423     2.48000     111.354
     170.000     90.5000     88.6999     88.3002     144.090     2.51877     2.47000     111.582
     170.100     91.6003     90.4998     77.5002     145.119     2.29605     2.47600     111.430
     170.200     95.1999     88.5000     79.6996     130.757     2.65398     2.45100     111.303
     170.300     90.8198     83.7000     86.0000     121.545     2.43529     2.51800     111.328
     170.400     77.6001     81.1000     86.0000     136.233     2.54433     2.56498     111.481
     170.500     78.5002     81.5000     85.7202     148.277     2.56329     2.48800     111.608
     170.600     87.7009     84.0205     84.1999     153.621     2.45946     2.54600     111.557
     170.700     92.9001     87.5001     83.2002     138.680     2.48033     2.53500     111.328
     170.800     95.4005     86.0000     86.7001     134.235     2.73587     2.57201     111.430
     170.900     86.7997     86.4999     89.1999     147.440     2.39137     2.47401     111.328
     171.000     83.2001     85.7000     88.3000     148.792     2.53046     2.51801     111.430
     171.100     89.2006     84.6004     87.2999     167.021     2.44907     2.44000     111.277
     171.200     93.4000     87.0001     87.0000     159.936     2.42273     2.43699     111.125
     171.300     91.4000     89.3000     89.2000     153.752     2.47891     2.54500     110.998
     171.400     91.8001     88.8997     88.9998     140.224     2.60355     2.59399     111.100
     171.500     93.1999     87.0000     87.8000     131.465     2.70013     2.55400     111.862
     171.600     88.4996     86.1002     88.9000     130.758     2.49008     2.49699     112.370
     171.700     86.6997     87.0000     89.0000     137.777     2.36395     2.44800     112.268
     171.800     93.3999     87.0000     88.3000     149.630     2.33320     2.34900     111.557
     171.900     95.0391     88.2002     88.5000     162.318     2.40185     2.43502     111.328
     172.000     91.0001     89.3000     88.7000     150.145     2.51589     2.51500     111.531
     172.100     88.7997     86.2999     88.5196     142.671     2.54562     2.46401     112.090
     172.200     86.5000     85.1200     86.0000     129.469     2.45226     2.51300     112.243
     172.300     86.7000     83.7001     84.5000     130.242     2.50906     2.44700     112.319
     172.400     86.5997     82.2002     85.8001     139.196     2.46315     2.46600     112.090
     172.500     85.3999     85.1999     86.8000     149.372     2.43068     2.51000     112.192
     172.600     89.0008     87.1002     87.8000     154.394     2.49125     2.48200     112.116
     172.700     94.1001     88.8000     88.1000     145.378     2.49877     2.45500     112.370
     172.800     91.8001     89.2000     88.9999     145.251     2.50235     2.50100     112.395
     172.900     88.9998     88.4000     90.3000     154.396     2.46382     2.48000     112.497
     173.000     88.2103     88.1000     90.2998     152.915     2.52171     2.49000     112.344
     173.100     91.8001     89.2996     87.6999     150.594     2.48010     2.50600     112.243
     173.200     93.0999     85.9000     86.9099     138.808     2.52683     2.51800     112.395
     173.300     88.8003     85.8103     85.4000     142.480     2.52057     2.56899     112.547
     173.400     84.6000     81.3000     85.6000     135.523     2.58623     2.51700     112.649
     173.500     84.6099     81.5999     85.5000     138.164     2.48678     2.52500     112.344
     173.600     86.9101     83.5999     83.6998     125.667     2.57792     2.61399     112.166
     173.700     87.7999     82.9000     81.9100     121.353     2.57488     2.53300     111.887
     173.800     85.6998     80.2100     83.2122     119.807     2.56428     2.51400     111.709
     173.900     79.5004     81.0101     59.1989     121.483     2.50593     2.56398     111.328
     174.000     81.7000     81.5999     53.0000     132.689     2.50776     2.47201     110.515
     174.100     89.5004     84.5001     53.0013     130.757     2.57214     2.55701     109.499
     174.200     93.0001     85.0000     59.8001     131.852     2.45781     2.58500     108.763
