#------------------------------------------------------------
~VERSION INFORMATION
VERS.               2.0  :CWLS LOG ASCII STANDARD-VERSION 2.0
WRAP.                NO  :ONE LINE PER DEPTH STEP
#------------------------------------------------------------
~WELL INFORMATION
STRT.M              0.0  :START DEPTH
STOP.M            185.2  :STOP DEPTH
STEP.M              0.1  :STEP
NULL.           -999.25  :NULL VALUE
COMP.               N/A  :COMPANY
WELL.               N/A  :WELL
 FLD.               N/A  :FIELD
 LOC.               N/A  :LOCATION
PROV.               N/A  :PROVINCE
SRVC.               N/A  :SERVICE COMPANY
DATE.               N/A  :DATE
 UWI.               N/A  :UNIQUE WELL ID
#------------------------------------------------------------
~CURVE INFORMATION
DEPT.M                   :DEPTH
MC2F.USFT                :MC2F
MC4F.MS/F                :MC4F
MC6F.MS/F                :MC6F
GRDE.API                 :GRDE
ADEN.GM/CC               :ADEN
DENL.G/CC                :DENL
CADE.MM                  :CADE
#------------------------------------------------------------
~OTHER
#------------------------------------------------------------
~A   DEPT[M]    MC2F[uSF    MC4F[MS/    MC6F[MS/    GRDE[API    ADEN[GM/    DENL[G/C    CADE[mm]
# ...
     149.400     114.800     108.400     110.100     179.452     2.45849     2.43301     121.006
     149.500     117.300     110.400     109.700     176.747     2.51799     2.51500     120.980
     149.600     113.199     109.800     110.000     169.339     2.50398     2.49800     120.853
     149.700     110.300     107.500     109.500     165.475     2.49007     2.52900     120.879
     149.800     108.900     105.500     107.400     167.536     2.53287     2.52600     121.006
     149.900     107.700     104.400     104.500     168.502     2.49300     2.52899     120.980
     150.000     105.700     101.500     104.200     166.441     2.54801     2.48200     120.802
     150.100     102.400     101.700     103.800     157.552     2.47123     2.46301     120.726
     150.200     104.000     101.900     104.000     159.162     2.51230     2.51699     120.853
     150.300     109.600     103.300     104.700     153.431     2.41598     2.38900     120.777
     150.400     108.500     105.500     105.900     143.187     2.37242     2.37600     120.523
     150.500     108.640     106.500     107.300     132.109     2.27344     2.35299     120.574
     150.600     111.400     106.200     107.400     136.748     2.41791     2.42902     120.752
     150.700     111.600     106.800     106.740     146.281     2.49971     2.51800     120.980
     150.800     111.000     105.740     105.000     134.235     2.56506     2.53200     120.879
     150.900     107.599     101.600     103.500     127.857     2.50502     2.48602     121.006
     151.000     101.700     99.0999     101.600     113.042     2.61478     2.59200     121.006
     151.100     98.0005     96.9998     99.4998     123.543     2.48624     2.51900     120.929
     151.200     101.100     95.8000     98.3000     124.250     2.59717     2.52500     120.701
     151.300     100.800     96.4000     97.6000     144.220     2.46831     2.51300     120.726
     151.400     100.401     97.2999     98.3000     150.725     2.45679     2.44901     120.879
     151.500     103.500     96.6999     98.7001     151.370     2.43338     2.48900     120.980
     151.600     102.000     97.4996     96.6001     134.747     2.53405     2.53700     120.853
     151.700     101.200     94.5000     97.0000     119.291     2.66906     2.59000     120.802
     151.800     96.2001     93.4000     95.6000     114.912     2.52717     2.53500     120.701
     151.900     93.7006     92.5001     95.9998     127.280     2.50402     2.51300     120.701
     152.000     98.3200     93.1000     95.2000     132.754     2.44179     2.49200     120.726
     152.100     99.6000     94.6999     94.0005     136.746     2.54555     2.49400     120.853
     152.200     99.1401     93.9000     95.7200     127.407     2.49014     2.50000     120.853
     152.300     96.3000     94.1199     94.8000     138.293     2.50623     2.55900     120.853
     152.400     96.6999     92.2001     95.0399     135.137     2.59051     2.58000     120.929
     152.500     96.2000     92.8401     94.7000     133.849     2.64303     2.62000     121.387
     152.600     96.4005     93.9997     94.1999     125.991     2.57467     2.58099     121.869
     152.700     101.100     92.6000     93.4000     129.855     2.58252     2.55800     122.352
     152.800     95.3000     92.2000     92.6000     133.848     2.58391     2.58000     122.123
     152.900     94.1000     90.4999     93.2999     148.662     2.60990     2.62300     121.361
     153.000     93.9000     89.7000     92.8000     144.412     2.60078     2.59801     119.913
     153.100     96.3001     91.4005     94.3000     138.096     2.56603     2.53601     118.313
     153.200     97.6000     94.4000     94.0999     110.209     2.49034     2.57500     118.135
     153.300     98.3000     94.0001     91.8000     101.836     2.56354     2.51700     118.669
     153.400     97.6983     89.2000     91.9003     100.810     2.63184     2.49400     119.405
     153.500     88.7001     88.8999     93.9000     127.601     2.36960     2.50500     119.024
     153.600     87.4011     91.2000     93.2000     137.263     2.50822     2.51098     118.389
     153.700     99.4000     90.8998     93.2000     144.412     2.45625     2.41801     118.364
     153.800     99.0200     95.5000     93.5000     136.296     2.46533     2.50700     118.262
     153.900     98.4003     96.2001     97.8000     138.937     2.44055     2.45400     118.415
     154.000     101.600     96.7999     98.0200     136.425     2.45823     2.48100     118.694
     154.100     102.700     97.3191     95.6000     133.913     2.49272     2.54400     119.609
     154.200     101.700     93.8000     95.8000     132.432     2.70204     2.57700     120.498
     154.300     94.5000     93.0000     95.9000     138.615     2.61399     2.62000     121.006
     154.400     93.0009     92.8000     96.1998     138.680     2.57670     2.58399     120.879
     154.500     97.7998     93.1001     95.1000     142.480     2.53901     2.51200     120.294
     154.600     100.800     95.4001     94.9003     137.519     2.45357     2.49901     119.913
     154.700     100.200     95.9000     96.9000     129.597     2.48772     2.53600     120.015
     154.800     99.6000     96.0002     95.3000     127.987     2.55766     2.54300     120.625
     154.900     98.6996     92.5997     94.3000     125.734     2.66007     2.60200     121.006
     155.000     94.4999     91.2000     94.0000     132.496     2.63597     2.62900     121.006
     155.100     92.2006     91.0001     94.0000     130.821     2.53613     2.57901     120.980
     155.200     96.3001     91.8999     94.0000     127.536     2.61414     2.63400     120.879
     155.300     99.0000     93.6000     93.4001     129.404     2.69215     2.63299     120.929
     155.400     97.7999     93.6000     94.9002     137.069     2.59397     2.57899     120.574
     155.500     97.0400     93.8000     96.1000     139.388     2.50659     2.54100     119.888
     155.600     99.1003     94.6002     96.2001     147.437     2.46648     2.47701     118.897
     155.700     100.600     95.5000     96.8401     136.876     2.53342     2.51900     118.364
     155.800     99.9000     96.3401     98.3999     133.205     2.49436     2.50600     118.262
     155.900     100.200     97.6996     96.0994     112.719     2.51152     2.55201     118.644
     156.000     100.500     93.7002     92.8000     102.802     2.63177     2.59900     120.015
     156.100     93.8984     88.9993     90.7999     104.480     2.62936     2.65099     120.498
     156.200     83.9000     85.9001     90.1000     123.864     2.63046     2.57900     120.117
     156.300     84.3003     84.8998     90.6000     133.399     2.61123     2.55700     118.770
     156.400     92.1012     93.3002     91.5001     126.569     2.44002     2.50200     118.491
     156.500     102.600     95.2999     92.7002     121.932     2.50377     2.47000     119.177
     156.600     126.997     96.6000     95.4002     115.684     2.39752     2.45100     120.167
     156.700     104.300     96.6001     96.7000     120.064     2.46153     2.47100     120.574
     156.800     97.0000     95.2000     97.0000     112.336     2.51453     2.51300     119.888
     156.900     98.0999     95.1001     96.6999     124.250     2.48771     2.47800     118.872
     157.000     97.2000     95.5000     95.9000     117.939     2.47928     2.48800     118.237
     157.100     98.5000     95.4000     96.2998     118.196     2.57015     2.55699     118.186
     157.200     98.2400     95.3002     94.0999     119.680     2.48177     2.50601     117.881
     157.300     96.5000     92.6000     95.5001     141.063     2.58746     2.59500     117.754
     157.400     95.8003     93.4000     94.7400     143.059     2.62649     2.57800     117.831
     157.500     97.2000     93.0400     94.5000     139.452     2.54674     2.55300     118.135
     157.600     98.4999     93.4002     95.0000     134.620     2.45534     2.43800     117.246
