#------------------------------------------------------------
~VERSION INFORMATION
VERS.               2.0  :CWLS LOG ASCII STANDARD-VERSION 2.0
WRAP.                NO  :ONE LINE PER DEPTH STEP
#------------------------------------------------------------
~WELL INFORMATION
STRT.M              0.0  :START DEPTH
STOP.M            225.0  :STOP DEPTH
STEP.M              0.1  :STEP
NULL.           -999.25  :NULL VALUE
COMP.               N/A  :COMPANY
WELL.               N/A  :WELL
 FLD.               N/A  :FIELD
 LOC.               N/A  :LOCATION
PROV.               N/A  :PROVINCE
SRVC.               N/A  :SERVICE COMPANY
DATE.               N/A  :DATE
 UWI.               N/A  :UNIQUE WELL ID
#------------------------------------------------------------
~CURVE INFORMATION
DEPT.M                   :DEPTH
GRDE.API                 :GRDE
CADE.MM                  :CADE
DENL.G/CC                :DENL
ADEN.G/C3                :ADEN
MC2F.USFT                :MC2F
MC4F.MS/F                :MC4F
MC6F.MS/F                :MC6F
#------------------------------------------------------------
~OTHER
#------------------------------------------------------------
~A   DEPT[M]    GRDE[API    CADE[mm]    DENL[G/C    ADEN[G/C    MC2F[uSF    MC4F[MS/    MC6F[MS/
# ...
     157.700     103.200     115.120     2.45000     2.41001     100.700     93.6302     91.1500
     157.800     100.210     115.140     2.47000     2.47000     94.3501     89.8504     91.7503
     157.900     84.0100     115.260     2.49000     2.51001     87.3496     87.2496     90.1801
     158.000     73.0401     115.260     2.52000     2.55000     84.3500     84.9300     87.4501
     158.100     76.7293     115.260     2.54000     2.54000     84.3000     84.0000     84.2697
     158.200     82.3095     115.230     2.58000     2.58000     83.5000     82.7302     81.7501
     158.300     80.0700     115.120     2.61000     2.60000     81.2505     80.4499     80.1201
     158.400     74.1401     115.100     2.63000     2.64001     77.3997     78.0298     79.1300
     158.500     75.0803     115.010     2.64000     2.67000     74.8000     76.9500     79.1700
     158.600     72.0902     115.140     2.64000     2.70000     75.3498     78.1200     79.6700
     158.700     70.3507     115.230     2.64000     2.68000     79.7999     80.8000     79.8001
     158.800     77.0300     115.120     2.60000     2.60000     84.2503     82.2998     81.9698
     158.900     82.6626     115.070     2.55999     2.53000     87.1004     85.2704     85.2511
     159.000     100.410     114.850     2.52000     2.51000     89.6500     87.9696     89.9197
     159.100     104.300     114.820     2.50000     2.51000     93.3001     92.7500     92.7996
     159.200     119.360     114.710     2.50000     2.51000     97.1103     95.6500     94.8399
     159.300     106.940     114.710     2.49000     2.49000     99.3000     97.4300     96.1500
     159.400     109.380     114.690     2.52000     2.52000     98.9497     97.5798     96.8499
     159.500     107.090     114.600     2.52000     2.53000     97.2500     96.7301     96.2699
     159.600     111.380     114.710     2.54000     2.57000     95.6500     94.7500     96.5300
     159.700     109.190     114.730     2.51000     2.54000     95.7000     95.3201     97.2300
     159.800     109.239     114.730     2.53000     2.56000     97.7001     97.2197     99.2200
     159.900     113.120     114.070     2.52000     2.53999     100.951     101.000     99.9201
     160.000     111.879     113.550     2.52000     2.51000     104.250     102.020     100.600
     160.100     104.099     113.210     2.51000     2.47999     103.500     102.050     101.300
     160.200     97.5194     113.210     2.52000     2.54999     100.700     101.470     102.200
     160.300     97.5706     113.180     2.53000     2.59000     99.7999     101.170     102.250
     160.400     104.302     113.160     2.52000     2.57000     102.000     101.630     101.550
     160.500     116.220     113.710     2.50000     2.48000     104.000     101.980     101.420
     160.600     116.660     114.300     2.48000     2.46000     102.650     102.230     101.870
     160.700     121.951     115.050     2.48000     2.48000     101.050     101.800     102.580
     160.800     119.510     115.510     2.50000     2.52000     100.950     101.880     102.700
     160.900     120.948     116.120     2.50000     2.52000     102.100     102.720     101.920
     161.000     104.000     116.400     2.51000     2.51000     103.400     102.350     101.430
     161.100     106.839     116.650     2.51000     2.50000     104.050     101.680     102.200
     161.200     100.858     116.730     2.52000     2.53000     104.950     102.250     103.270
     161.300     112.820     116.400     2.53000     2.54000     106.010     103.200     103.980
     161.400     107.790     115.240     2.55000     2.56000     103.850     103.950     103.250
     161.500     106.090     114.500     2.56000     2.59000     100.650     102.400     102.920
     161.600     110.030     114.280     2.57000     2.60000     98.9499     101.380     103.010
     161.700     112.380     114.870     2.57000     2.60999     100.700     102.580     103.870
     161.800     115.619     115.010     2.52000     2.53000     104.800     105.480     106.250
     161.900     106.340     115.100     2.49999     2.52000     108.651     109.901     109.420
     162.000     97.3701     114.960     2.44001     2.52000     112.500     113.769     113.399
     162.100     95.4705     114.850     2.35000     2.49002     116.050     117.700     117.380
     162.200     91.4903     114.920     2.18001     2.22002     120.400     121.750     121.020
     162.300     92.2800     115.470     1.99999     1.89001     125.900     125.280     123.450
     162.400     92.5799     116.450     1.90000     1.71000     129.850     127.150     124.320
     162.500     92.2803     116.290     1.91998     1.79997     128.799     126.280     123.770
     162.600     88.2499     115.850     2.04999     2.03000     123.700     122.700     122.090
     162.700     86.9001     114.890     2.20000     2.24003     117.050     118.210     118.940
     162.800     94.2283     115.100     2.32000     2.39999     112.550     114.010     114.420
     162.900     105.992     115.030     2.41001     2.47000     110.000     109.780     110.530
     163.000     111.480     115.210     2.47000     2.48000     108.450     107.270     107.000
     163.100     112.280     115.010     2.52000     2.53000     106.000     104.220     105.700
     163.200     113.219     115.100     2.55000     2.58000     103.550     103.550     104.350
     163.300     102.259     115.010     2.59000     2.64000     102.100     102.300     103.970
     163.400     90.3886     115.120     2.58000     2.59999     102.000     102.950     103.630
     163.500     85.4504     115.100     2.56000     2.57000     102.500     103.670     104.250
     163.600     89.1415     115.010     2.51000     2.52000     103.810     105.330     105.280
     163.700     100.461     115.100     2.50000     2.49999     106.460     106.920     104.810
     163.800     106.290     114.980     2.48000     2.42000     108.200     105.960     105.560
     163.900     111.429     114.930     2.49000     2.46001     106.800     106.440     107.381
     164.000     107.241     114.620     2.48000     2.54000     105.750     107.840     111.560
     164.100     95.9204     114.070     2.47000     2.56997     110.100     113.230     115.180
     164.200     93.6803     113.500     2.41000     2.44998     118.850     119.380     118.230
     164.300     94.6805     112.840     2.32001     2.28000     127.150     124.470     121.550
     164.400     98.8684     112.250     2.27000     2.19001     128.899     127.280     123.400
     164.500     88.4518     111.660     2.25000     2.22999     125.350     125.680     123.780
     164.600     76.5820     112.630     2.29000     2.31000     120.650     122.100     121.750
     164.700     63.9707     115.630     2.31000     2.36000     116.850     118.180     118.520
     164.800     66.1591     117.930     2.32000     2.33000     114.800     115.100     116.420
     164.900     78.9209     116.860     2.33000     2.32001     111.100     114.300     115.470
     165.000     83.6072     115.730     2.35000     2.41000     110.450     114.780     116.190
     165.100     104.902     116.390     2.37000     2.43999     113.150     116.880     117.250
     165.200     118.662     117.350     2.32999     2.37999     116.950     120.330     118.700
     165.300     134.461     116.500     2.27001     2.37000     120.250     122.820     121.570
     165.400     117.107     113.890     2.15996     2.31993     121.650     125.780     122.680
     165.500     83.5576     112.400     2.00001     2.08000     124.550     125.550     123.680
     165.600     51.5486     111.950     1.80001     1.67998     123.700     125.400     122.400
     165.700     38.1394     112.800     1.65001     1.46997     121.300     122.780     121.000
     165.800     43.3308     114.300     1.69999     1.51996     118.200     119.231     118.470
     165.900     65.6130     114.980     1.88003     1.85003     114.599     115.850     116.530
