#------------------------------------------------------------
~VERSION INFORMATION
VERS.               2.0  :CWLS LOG ASCII STANDARD-VERSION 2.0
WRAP.                NO  :ONE LINE PER DEPTH STEP
#------------------------------------------------------------
~WELL INFORMATION
STRT.M              0.0  :START DEPTH
STOP.M            225.0  :STOP DEPTH
STEP.M              0.1  :STEP
NULL.           -999.25  :NULL VALUE
COMP.               N/A  :COMPANY
WELL.               N/A  :WELL
 FLD.               N/A  :FIELD
 LOC.               N/A  :LOCATION
PROV.               N/A  :PROVINCE
SRVC.               N/A  :SERVICE COMPANY
DATE.               N/A  :DATE
 UWI.               N/A  :UNIQUE WELL ID
#------------------------------------------------------------
~CURVE INFORMATION
DEPT.M                   :DEPTH
GRDE.API                 :GRDE
CADE.MM                  :CADE
DENL.G/CC                :DENL
ADEN.G/C3                :ADEN
MC2F.USFT                :MC2F
MC4F.MS/F                :MC4F
MC6F.MS/F                :MC6F
#------------------------------------------------------------
~OTHER
#------------------------------------------------------------
~A   DEPT[M]    GRDE[API    CADE[mm]    DENL[G/C    ADEN[G/C    MC2F[uSF    MC4F[MS/    MC6F[MS/
# ...
     33.2000     75.0307     132.120     1.54000     1.66000    -999.250    -999.250    -999.250
     33.3000     78.7696     132.060     1.53000     1.65000    -999.250    -999.250    -999.250
     33.4000     66.3096     132.120     1.53000     1.64000    -999.250    -999.250    -999.250
     33.5000     51.7501     132.060     1.51000     1.61000    -999.250    -999.250    -999.250
     33.6000     42.0800     132.150     1.50000     1.58000    -999.250    -999.250    -999.250
     33.7000     42.5307     132.150     1.51000     1.58000    -999.250    -999.250    -999.250
     33.8000     60.1303     132.130     1.58000     1.66000    -999.250    -999.250    -999.250
     33.9000     80.7199     132.060     1.68000     1.72000    -999.250    -999.250    -999.250
     34.0000     92.8792     132.120     1.83000     1.85000    -999.250    -999.250    -999.250
     34.1000     85.7497     132.060     1.95000     2.12001    -999.250    -999.250    -999.250
     34.2000     78.5706     132.120     2.04000     2.30999    -999.250    -999.250    -999.250
     34.3000     87.2001     132.060     2.04000     2.27999    -999.250    -999.250    -999.250
     34.4000     93.2305     132.010     1.99000     2.06001    -999.250    -999.250    -999.250
     34.5000     106.840     131.400     1.92000     1.96001    -999.250    -999.250    -999.250
     34.6000     116.610     130.790     1.87000     1.96000    -999.250    -999.250    -999.250
     34.7000     121.999     130.340     1.84000     1.97000    -999.250    -999.250    -999.250
     34.8000     108.090     130.460     1.82000     1.93000    -999.250    -999.250    -999.250
     34.9000     89.8404     130.560     1.79000     1.91000    -999.250    -999.250    -999.250
     35.0000     79.7206     130.560     1.75000     1.88000    -999.250    -999.250    -999.250
     35.1000     79.8197     130.530     1.70000     1.82000    -999.250    -999.250    -999.250
     35.2000     75.5299     130.440     1.65000     1.73000    -999.250    -999.250    -999.250
     35.3000     71.3898     130.440     1.63000     1.65000    -999.250    -999.250    -999.250
     35.4000     63.9199     130.490     1.64000     1.69000    -999.250    -999.250    -999.250
     35.5000     57.6805     130.710     1.68000     1.79000    -999.250    -999.250    -999.250
     35.6000     63.1700     130.750     1.71000     1.84000    -999.250    -999.250    -999.250
     35.7000     62.8703     130.500     1.73000     1.81000    -999.250    -999.250    -999.250
     35.8000     73.6397     130.340     1.74000     1.82000    -999.250    -999.250    -999.250
     35.9000     79.6697     130.490     1.75000     1.84000    -999.250    -999.250    -999.250
     36.0000     76.8799     130.680     1.76000     1.88000    -999.250    -999.250    -999.250
     36.1000     70.4997     130.650     1.77000     1.88000    -999.250    -999.250    -999.250
     36.2000     65.8604     130.500     1.78000     1.90000    -999.250    -999.250    -999.250
     36.3000     70.8998     130.290     1.79000     1.89000    -999.250    -999.250    -999.250
     36.4000     69.0004     130.220     1.80000     1.90000    -999.250    -999.250    -999.250
     36.5000     73.2899     130.340     1.82000     1.94000    -999.250    -999.250    -999.250
     36.6000     72.1407     130.460     1.84000     1.98000    -999.250    -999.250    -999.250
     36.7000     80.5199     130.560     1.86000     1.99000    -999.250    -999.250    -999.250
     36.8000     82.1102     130.560     1.89000     2.03000    -999.250    -999.250    -999.250
     36.9000     91.6393     130.530     1.91000     2.08000    -999.250    -999.250    -999.250
     37.0000     83.6100     130.410     1.91000     2.08000    -999.250    -999.250    -999.250
     37.1000     78.6201     130.370     1.90000     2.05000    -999.250    -999.250    -999.250
     37.2000     89.4400     130.590     1.87000     2.01000    -999.250    -999.250    -999.250
     37.3000     97.2207     130.650     1.86000     2.01000    -999.250    -999.250    -999.250
     37.4000     114.569     130.530     1.86000     1.99000    -999.250    -999.250    -999.250
     37.5000     103.551     130.460     1.88000     1.99000    -999.250    -999.250    -999.250
     37.6000     112.430     130.590     1.90000     2.05000    -999.250    -999.250    -999.250
     37.7000     106.040     130.630     1.93000     2.10000    -999.250    -999.250    -999.250
     37.8000     120.849     130.440     1.92000     2.11999    -999.250    -999.250    -999.250
     37.9000     104.050     130.440     1.88000     2.04000    -999.250    -999.250    -999.250
     38.0000     88.4997     130.460     1.82000     1.93000    -999.250    -999.250    -999.250
     38.1000     67.5100     130.560     1.74000     1.85000    -999.250    -999.250    -999.250
     38.2000     66.0598     130.560     1.69000     1.76000    -999.250    -999.250    -999.250
     38.3000     61.4706     130.560     1.68000     1.73000    -999.250    -999.250    -999.250
     38.4000     74.7798     130.560     1.71000     1.79000    -999.250    -999.250    -999.250
     38.5000     81.4199     130.560     1.74000     1.87000    -999.250    -999.250    -999.250
     38.6000     89.6400     130.560     1.78000     1.91000    -999.250    -999.250    -999.250
     38.7000     88.8906     130.560     1.79000     1.90000    -999.250    -999.250    -999.250
     38.8000     98.9197     130.530     1.79000     1.92000    -999.250    -999.250    -999.250
     38.9000     97.4197     130.440     1.77000     1.88000    -999.250    -999.250    -999.250
     39.0000     79.3701     130.410     1.77000     1.83000    -999.250    -999.250    -999.250
     39.1000     69.5002     130.310     1.81000     1.83001    -999.250    -999.250    -999.250
     39.2000     75.6801     130.370     1.88000     1.99000    -999.250    -999.250    -999.250
     39.3000     87.7000     130.530     1.95000     2.12999    -999.250    -999.250    -999.250
     39.4000     97.8197     130.460     1.98000     2.16000    -999.250    -999.250    -999.250
     39.5000     106.590     130.500     1.98000     2.13000    -999.250    -999.250    -999.250
     39.6000     121.700     130.340     1.96000     2.10000    -999.250    -999.250    -999.250
     39.7000     117.909     130.410     1.93000     2.05000    -999.250    -999.250    -999.250
     39.8000     101.510     130.340     1.88000     1.96000    -999.250    -999.250    -999.250
     39.9000     83.9106     130.460     1.85000     1.91000    -999.250    -999.250    -999.250
     40.0000     82.0107     130.560     1.86000     1.94000    -999.250    -999.250    -999.250
     40.1000     102.400     130.560     1.90000     2.03000    -999.250    -999.250    -999.250
     40.2000     108.690     130.560     1.92000     2.07000    -999.250    -999.250    -999.250
     40.3000     118.509     130.610     1.91000     2.03000    -999.250    -999.250    -999.250
     40.4000     103.800     130.780     1.86000     1.95000    -999.250    -999.250    -999.250
     40.5000     84.9100     130.650     1.81000     1.87000    -999.250    -999.250    -999.250
     40.6000     65.6600     130.450     1.80000     1.84000    -999.250    -999.250    -999.250
     40.7000     64.9602     130.070     1.81000     1.87000    -999.250    -999.250    -999.250
     40.8000     77.7293     130.070     1.84000     1.92000    -999.250    -999.250    -999.250
     40.9000     78.1696     130.070     1.87000     1.95000    -999.250    -999.250    -999.250
     41.0000     67.8511     130.040     1.90000     1.93000    -999.250    -999.250    -999.250
     41.1000     79.9208     129.920     1.94000     2.00000    -999.250    -999.250    -999.250
     41.2000     92.2309     129.880     1.99000     2.13000    -999.250    -999.250    -999.250
     41.3000     110.679     130.070     2.00000     2.19000    -999.250    -999.250    -999.250
     41.4000     98.6701     130.120     1.98000     2.15000    -999.250    -999.250    -999.250
