#------------------------------------------------------------
~VERSION INFORMATION
VERS.               2.0  :CWLS LOG ASCII STANDARD-VERSION 2.0
WRAP.                NO  :ONE LINE PER DEPTH STEP
#------------------------------------------------------------
~WELL INFORMATION
STRT.M              0.0  :START DEPTH
STOP.M            225.0  :STOP DEPTH
STEP.M              0.1  :STEP
NULL.           -999.25  :NULL VALUE
COMP.               N/A  :COMPANY
WELL.               N/A  :WELL
 FLD.               N/A  :FIELD
 LOC.               N/A  :LOCATION
PROV.               N/A  :PROVINCE
SRVC.               N/A  :SERVICE COMPANY
DATE.               N/A  :DATE
 UWI.               N/A  :UNIQUE WELL ID
#------------------------------------------------------------
~CURVE INFORMATION
DEPT.M                   :DEPTH
GRDE.API                 :GRDE
CADE.MM                  :CADE
DENL.G/CC                :DENL
ADEN.G/C3                :ADEN
MC2F.USFT                :MC2F
MC4F.MS/F                :MC4F
MC6F.MS/F                :MC6F
#------------------------------------------------------------
~OTHER
#------------------------------------------------------------
~A   DEPT[M]    GRDE[API    CADE[mm]    DENL[G/C    ADEN[G/C    MC2F[uSF    MC4F[MS/    MC6F[MS/
# ...
     8.30000     51.6501     130.140     1.12000     1.56000    -999.250    -999.250    -999.250
     8.40000     53.9398     129.970     1.14000     1.51000    -999.250    -999.250    -999.250
     8.50000     49.7603     130.040     1.16000     1.48000    -999.250    -999.250    -999.250
     8.60000     56.9397     130.000     1.19000     1.61999    -999.250    -999.250    -999.250
     8.70000     57.0901     130.140     1.23000     1.51000    -999.250    -999.250    -999.250
     8.80000     60.8698     130.000     1.26000     1.55000    -999.250    -999.250    -999.250
     8.90000     59.5800     130.160     1.26000     1.54000    -999.250    -999.250    -999.250
     9.00000     59.6798     130.150     1.15999     1.62997    -999.250    -999.250    -999.250
     9.10000     54.5398     130.350    0.810013    0.860013    -999.250    -999.250    -999.250
     9.20000     44.5704     130.090    0.810005    0.410024    -999.250    -999.250    -999.250
     9.30000     49.7098     130.130     1.00001    0.720024    -999.250    -999.250    -999.250
     9.40000     49.4601     129.970     1.49999     1.68999    -999.250    -999.250    -999.250
     9.50000     52.4499     130.070     1.68000     2.09998    -999.250    -999.250    -999.250
     9.60000     50.2601     130.120     1.71000     1.96000    -999.250    -999.250    -999.250
     9.70000     51.2499     130.290     1.64000     1.75000    -999.250    -999.250    -999.250
     9.80000     50.6498     130.190     1.53000     1.53000    -999.250    -999.250    -999.250
     9.90000     43.6704     130.130     1.45000     1.36000    -999.250    -999.250    -999.250
     10.0000     48.4597     130.000     1.44000     1.30001    -999.250    -999.250    -999.250
     10.1000     44.1205     130.160     1.50000     1.50000    -999.250    -999.250    -999.250
     10.2000     54.2896     130.150     1.58000     1.70000    -999.250    -999.250    -999.250
     10.3000     49.4103     130.440     1.60000     1.88999    -999.250    -999.250    -999.250
     10.4000     52.4000     130.440     1.54000     1.83998    -999.250    -999.250    -999.250
     10.5000     53.6000     130.380     1.42000     1.39001    -999.250    -999.250    -999.250
     10.6000     54.2403     130.160     1.33000     1.27001    -999.250    -999.250    -999.250
     10.7000     60.4797     130.100     1.32000     1.33001    -999.250    -999.250    -999.250
     10.8000     56.1400     130.110     1.35000     1.63999    -999.250    -999.250    -999.250
     10.9000     51.7501     129.880     1.35000     1.60000    -999.250    -999.250    -999.250
     11.0000     51.4502     130.070     1.32000     1.46000    -999.250    -999.250    -999.250
     11.1000     58.6798     130.150     1.30000     1.38000    -999.250    -999.250    -999.250
     11.2000     60.9698     130.410     1.31000     1.31000    -999.250    -999.250    -999.250
     11.3000     56.0901     130.290     1.39000     1.41000    -999.250    -999.250    -999.250
     11.4000     53.1500     130.190     1.50000     1.62000    -999.250    -999.250    -999.250
     11.5000     50.0101     130.190     1.62000     1.72000    -999.250    -999.250    -999.250
     11.6000     49.3598     130.220     1.67000     1.75000    -999.250    -999.250    -999.250
     11.7000     43.1304     130.310     1.70000     1.71000    -999.250    -999.250    -999.250
     11.8000     48.2599     130.310     1.71000     1.73000    -999.250    -999.250    -999.250
     11.9000     50.9001     130.290     1.71000     1.75000    -999.250    -999.250    -999.250
     12.0000     54.3400     130.160     1.65000     1.82000    -999.250    -999.250    -999.250
     12.1000     56.1900     130.100     1.52000     1.80999    -999.250    -999.250    -999.250
     12.2000     58.9798     130.220     1.34000     1.50000    -999.250    -999.250    -999.250
     12.3000     56.0398     130.310     1.21000     1.27001    -999.250    -999.250    -999.250
     12.4000     49.0100     130.310     1.13000     1.22001    -999.250    -999.250    -999.250
     12.5000     43.3801     130.290     1.12000     1.45000    -999.250    -999.250    -999.250
     12.6000     42.1305     130.220     1.12000     1.56000    -999.250    -999.250    -999.250
     12.7000     52.5498     130.260     1.15000     1.60000    -999.250    -999.250    -999.250
     12.8000     56.8898     130.120     1.19000     1.66000    -999.250    -999.250    -999.250
     12.9000     56.2398     130.260     1.20000     1.68000    -999.250    -999.250    -999.250
     13.0000     50.2601     130.120     1.15000     1.60000    -999.250    -999.250    -999.250
     13.1000     45.7201     130.280     1.10000     1.52000    -999.250    -999.250    -999.250
     13.2000     44.4700     130.220     1.09000     1.51000    -999.250    -999.250    -999.250
     13.3000     43.5701     130.290     1.12000     1.56000    -999.250    -999.250    -999.250
     13.4000     46.1204     130.190     1.13000     1.58000    -999.250    -999.250    -999.250
     13.5000     59.6296     130.220     1.13000     1.45000    -999.250    -999.250    -999.250
     13.6000     61.3703     130.310     1.18000     1.25001    -999.250    -999.250    -999.250
     13.7000     71.0995     130.260     1.32000     1.43000    -999.250    -999.250    -999.250
     13.8000     66.9606     130.090     1.52000     1.80000    -999.250    -999.250    -999.250
     13.9000     80.4698     130.190     1.68000     2.18999    -999.250    -999.250    -999.250
     14.0000     84.3097     130.220     1.71000     2.09999    -999.250    -999.250    -999.250
     14.1000     78.9202     130.290     1.63000     1.78000    -999.250    -999.250    -999.250
     14.2000     78.4701     130.190     1.48000     1.48001    -999.250    -999.250    -999.250
     14.3000     82.9601     130.220     1.39000     1.36000    -999.250    -999.250    -999.250
     14.4000     90.8902     130.340     1.36000     1.38000    -999.250    -999.250    -999.250
     14.5000     100.310     130.410     1.40000     1.46000    -999.250    -999.250    -999.250
     14.6000     91.8904     130.290     1.46000     1.55000    -999.250    -999.250    -999.250
     14.7000     95.4699     130.190     1.55000     1.64000    -999.250    -999.250    -999.250
     14.8000     95.2303     130.190     1.61000     1.72000    -999.250    -999.250    -999.250
     14.9000     103.900     130.220     1.66000     1.75000    -999.250    -999.250    -999.250
     15.0000     105.850     130.290     1.68000     1.80000    -999.250    -999.250    -999.250
     15.1000     99.4602     130.220     1.67000     1.77000    -999.250    -999.250    -999.250
     15.2000     99.7098     130.290     1.63000     1.72000    -999.250    -999.250    -999.250
     15.3000     93.4802     130.190     1.59000     1.64000    -999.250    -999.250    -999.250
     15.4000     92.1803     130.220     1.56000     1.61000    -999.250    -999.250    -999.250
     15.5000     98.5200     130.340     1.55000     1.63000    -999.250    -999.250    -999.250
     15.6000     103.800     130.440     1.54000     1.65000    -999.250    -999.250    -999.250
     15.7000     120.149     130.380     1.50000     1.65000    -999.250    -999.250    -999.250
     15.8000     116.270     130.160     1.46000     1.56000    -999.250    -999.250    -999.250
     15.9000     117.609     130.070     1.41000     1.50000    -999.250    -999.250    -999.250
     16.0000     104.400     130.100     1.39000     1.42000    -999.250    -999.250    -999.250
     16.1000     104.550     130.220     1.40000     1.44000    -999.250    -999.250    -999.250
     16.2000     100.960     130.370     1.46000     1.54000    -999.250    -999.250    -999.250
     16.3000     92.2301     130.560     1.51000     1.67000    -999.250    -999.250    -999.250
     16.4000     91.2402     130.560     1.52000     1.63000    -999.250    -999.250    -999.250
     16.5000     99.5602     130.500     1.49000     1.60000    -999.250    -999.250    -999.250
