#------------------------------------------------------------
~VERSION INFORMATION
VERS.               2.0  :CWLS LOG ASCII STANDARD-VERSION 2.0
WRAP.                NO  :ONE LINE PER DEPTH STEP
#------------------------------------------------------------
~WELL INFORMATION
STRT.M              0.0  :START DEPTH
STOP.M            225.0  :STOP DEPTH
STEP.M              0.1  :STEP
NULL.           -999.25  :NULL VALUE
COMP.               N/A  :COMPANY
WELL.               N/A  :WELL
 FLD.               N/A  :FIELD
 LOC.               N/A  :LOCATION
PROV.               N/A  :PROVINCE
SRVC.               N/A  :SERVICE COMPANY
DATE.               N/A  :DATE
 UWI.               N/A  :UNIQUE WELL ID
#------------------------------------------------------------
~CURVE INFORMATION
DEPT.M                   :DEPTH
GRDE.API                 :GRDE
CADE.MM                  :CADE
DENL.G/CC                :DENL
ADEN.G/C3                :ADEN
MC2F.USFT                :MC2F
MC4F.MS/F                :MC4F
MC6F.MS/F                :MC6F
#------------------------------------------------------------
~OTHER
#------------------------------------------------------------
~A   DEPT[M]    GRDE[API    CADE[mm]    DENL[G/C    ADEN[G/C    MC2F[uSF    MC4F[MS/    MC6F[MS/
# ...
     215.800     92.5812     114.900     1.74001     1.70001     128.600     127.550     125.919
     215.900     69.9962     113.750     1.60000     1.64996     129.551     130.650     129.750
     216.000     46.3169     112.900     1.50999     1.50000     132.150     131.880     131.220
     216.100     28.9206     112.090     1.43000     1.37000     132.950     132.530     131.450
     216.200     26.9701     112.210     1.40000     1.39000     131.500     132.400     132.080
     216.300     23.7298     113.720     1.40000     1.44000     130.600     132.050     132.080
     216.400     20.5910     115.860     1.40000     1.44000     131.800     131.650     131.920
     216.500     25.9300     117.390     1.40000     1.37000     132.210     132.120     132.020
     216.600     28.4701     116.820     1.39000     1.42001     132.750     132.730     133.270
     216.700     29.7604     114.730     1.40000     1.48000     134.100     134.010     134.220
     216.800     22.2900     111.950     1.37999     1.43000     137.550     135.230     135.200
     216.900     19.1413     110.310     1.34000     1.33999     139.200     136.420     136.100
     217.000     24.8799     109.610     1.30000     1.29000     138.350     137.100     136.870
     217.100     24.1800     110.270     1.27000     1.27999     136.400     136.520     136.720
     217.200     21.3396     111.410     1.27000     1.25000     135.100     135.470     135.830
     217.300     23.9299     112.300     1.29000     1.27002     134.350     134.580     135.020
     217.400     24.5306     114.200     1.31000     1.33001     134.310     134.330     134.750
     217.500     27.4199     115.870     1.33000     1.38000     134.410     134.580     135.070
     217.600     22.4388     116.820     1.33000     1.37000     135.050     135.420     135.960
     217.700     27.3696     116.290     1.31000     1.31000     136.250     136.780     136.870
     217.800     24.2800     115.270     1.29000     1.27000     137.850     138.110     137.640
     217.900     24.1287     114.450     1.28000     1.29000     138.800     138.930     138.030
     218.000     20.1401     112.860     1.28000     1.30000     139.450     138.930     137.270
     218.100     24.2300     110.950     1.29000     1.27000     139.200     136.970     135.900
     218.200     23.8299     109.860     1.33001     1.26001     135.551     134.450     134.350
     218.300     25.6800     109.460     1.37000     1.41001     130.350     131.800     133.500
     218.400     23.1299     109.020     1.42000     1.52999     128.450     130.650     133.020
     218.500     21.4899     108.440     1.40000     1.49998     131.660     131.750     132.670
     218.600     22.0400     107.790     1.36002     1.33000     135.960     133.830     133.370
     218.700     21.4402     108.100     1.29001     1.24001     137.810     135.830     134.360
     218.800     27.1201     108.890     1.27000     1.25000     137.650     135.710     135.110
     218.900     28.0700     110.991     1.28000     1.28000     135.450     134.680     134.920
     219.000     30.6601     113.350     1.30000     1.30000     132.600     133.480     134.380
     219.100     27.8698     115.800     1.31000     1.33000     131.100     132.750     134.050
     219.200     31.0596     117.780     1.32000     1.34000     132.550     133.350     134.380
     219.300     33.9000     117.780     1.31000     1.34000     135.250     135.280     134.720
     219.400     35.1499     115.600     1.31000     1.31000     137.650     136.530     134.730
     219.500     33.4006     112.620     1.32000     1.30000     136.550     135.820     133.870
     219.600     37.0414     111.880     1.36000     1.34000     132.600     133.170     133.120
     219.700     44.2709     112.400     1.41000     1.45000     128.060     130.850     132.350
     219.800     43.4201     114.150     1.44000     1.55001     128.060     130.250     130.550
     219.900     40.6301     115.620     1.44001     1.44997     131.350     129.530     127.690
     220.000     41.3809     116.580     1.49000     1.34002     131.350     127.500     126.370
     220.100     58.6810     115.321     1.59001     1.56002     126.250     125.530     127.050
     220.200     65.5606     112.780     1.70000     1.95004     123.200     124.900     128.720
     220.300     59.8792     111.480     1.69000     1.96003     126.050     127.400     128.670
     220.400     44.7208     111.790     1.54995     1.57990     132.000     129.880     129.120
     220.500     35.0492     112.360     1.37998     1.23000     133.800     132.070     130.330
     220.600     31.5600     113.000     1.27000     1.21000     131.900     132.480     131.330
     220.700     31.4098     113.530     1.25000     1.22000     130.700     131.000     130.830
     220.800     34.6022     114.560     1.30000     1.21002     129.100     129.350     129.470
     220.900     54.0414     115.360     1.35002     1.36004     127.400     128.250     129.250
     221.000     59.8800     116.680     1.41000     1.52000     126.800     128.530     129.930
     221.100     59.9774     117.770     1.41000     1.52001     129.400     130.351     131.120
     221.200     44.5201     118.800     1.36000     1.37003     134.150     132.970     132.520
     221.300     36.4004     119.270     1.29999     1.23999     137.400     135.380     133.620
     221.400     34.4500     118.710     1.24001     1.19999     137.599     135.729     132.099
     221.500     34.5996     117.290     1.28002     1.13000     134.849     131.080     127.230
     221.600     40.2295     115.130     1.45001     1.23000     125.048     122.152     118.150
     221.700     61.5189     113.720     1.74000     1.67994     109.249     108.431     109.550
     221.800     86.3975     112.870     2.08994     2.25006     94.7492     96.9019     101.120
     221.900     108.892     112.520     2.32001     2.57001     87.0498     89.1492     94.5000
     222.000     120.651     112.520     2.46000     2.59000     85.5000     87.1300     89.4903
     222.100     128.680     112.550     2.50000     2.54000     85.3500     86.8601     87.1500
     222.200     132.320     112.660     2.50000     2.54000     86.2498     87.2001     87.3200
     222.300     130.970     112.640     2.50000     2.53000     88.1999     88.2300     87.3200
     222.400     126.140     112.500     2.49001     2.48999     89.5500     88.2999     86.7499
     222.500     123.000     112.410     2.51000     2.44000     88.7007     86.9998     85.9300
     222.600     121.050     112.520     2.54000     2.49000     84.8002     84.7999     85.2701
     222.700     108.990     112.550     2.59000     2.66001     81.3000     83.1301     83.6803
     222.800     104.550     112.640     2.62000     2.74000     80.9501     81.1800     82.4801
     222.900     101.260     112.550     2.62999     2.67002     82.8100     81.3299     81.1801
     223.000     100.759     112.660     2.60000     2.54000     83.2099     81.1299     81.7800
     223.100     93.8279     112.660     2.56000     2.55001     80.8599     82.2000     81.9500
     223.200     85.9490     112.640     2.55000     2.58001     79.9999     81.5300     81.2497
     223.300     85.4503     112.520     2.55000     2.58000     80.8999     80.2800     79.4499
     223.400     94.1298     112.520     2.54000     2.55000     81.8499     78.7500     78.6800
     223.500     92.6303     112.520     2.53000     2.53000     81.1500     78.0300     78.6800
     223.600     87.9498     112.520     2.54000     2.55000     79.4002     77.5799     78.6798
     223.700     83.6599     112.500     2.57000     2.58000     77.2500     77.0998     76.0000
     223.800     81.4702     112.410     2.59000     2.60000     75.2000     73.4201     74.6701
     223.900     83.6605     112.520     2.59000     2.62000     73.4999     72.2999     73.7800
     224.000     74.4399     112.520     2.60000     2.64000     72.9500     72.0499     74.7500
