#------------------------------------------------------------
~VERSION INFORMATION
VERS.               2.0  :CWLS LOG ASCII STANDARD-VERSION 2.0
WRAP.                NO  :ONE LINE PER DEPTH STEP
#------------------------------------------------------------
~WELL INFORMATION
STRT.M              0.0  :START DEPTH
STOP.M            234.0  :STOP DEPTH
STEP.M              0.1  :STEP
NULL.           -999.25  :NULL VALUE
COMP.               N/A  :COMPANY
WELL.               N/A  :WELL
 FLD.               N/A  :FIELD
 LOC.               N/A  :LOCATION
PROV.               N/A  :PROVINCE
SRVC.               N/A  :SERVICE COMPANY
DATE.               N/A  :LOG DATE
 UWI.               N/A  :UNIQUE WELL ID
#------------------------------------------------------------
~CURVE INFORMATION
DEPT.M                   :DEPTH
GRDE.API                 :GRDE
DENL.G/CC                :DENL
MC2F.USFT                :MC2F
MC4F.MS/F                :MC4F
MC6F.MS/F                :MC6F
CADE.MM                  :CADE
#------------------------------------------------------------
~OTHER
#------------------------------------------------------------
~A   DEPT[M]    GRDE[API    DENL[G/C    MC2F[uSF    MC4F[MS/    MC6F[MS/    CADE[mm]
# ...
     152.000     97.0744     2.29400     99.0004     92.3000     89.8999     134.391
     152.100     88.3868     2.22000     94.1397     91.3998     87.7999     133.934
     152.200     78.8631     2.23600     89.1001     83.9995     84.5001     135.154
     152.300     76.3583     2.19400     80.7007     76.8998     81.5199     136.906
     152.400     82.7633     2.20401     72.5002     75.0199     79.2007     137.871
     152.500     87.8862     2.24599     73.0998     74.6000     81.3999     138.201
     152.600     89.7241     2.34600     77.8995     81.3995     83.8999     138.608
     152.700     90.5588     2.30900     86.5992     89.1995     86.8998     138.836
     152.800     83.6530     2.29300     94.9986     93.3997     91.6997     138.786
     152.900     84.8750     2.20100     101.701     98.6013     98.0008     138.709
     153.000     78.8614     2.20000     105.199     103.400     102.000     138.836
     153.100     85.4343     2.26301     114.500     105.000     104.500     138.836
     153.200     80.0314     2.32601     116.700     105.800     108.400     138.760
     153.300     91.5057     2.31901     110.200     110.100     111.900     138.532
     153.400     94.5713     2.37298     108.400     110.700     112.300     138.532
     153.500     110.163     2.29400     110.600     110.000     111.100     138.633
     153.600     116.012     2.29700     110.600     111.400     111.100     138.963
     153.700     120.579     2.33800     113.500     112.000     112.600     138.963
     153.800     132.274     2.35801     115.420     113.600     113.900     138.938
     153.900     130.824     2.28597     115.000     115.302     117.401     138.684
     154.000     127.206     2.19701     115.100     119.100     120.620     138.201
     154.100     120.857     2.12704     124.400     123.320     123.700     138.024
     154.200     124.476     1.95303     131.800     128.000     126.400     137.795
     154.300     109.049     1.94100     132.900     131.900     130.600     137.846
     154.400     94.2836     1.97001     135.100     133.900     130.798     138.125
     154.500     80.2000     2.04802     135.300     129.900     126.400     138.963
     154.600     99.0764     2.20001     127.299     122.700     120.700     139.954
     154.700     120.575     2.31300     110.599     113.300     115.300     140.360
     154.800     133.555     2.45500     102.400     105.301     109.800     140.538
     154.900     139.513     2.42298     102.499     101.500     104.700     140.259
     155.000     130.713     2.32300     99.9000     102.000     103.700     139.167
     155.100     121.247     2.32199     102.700     104.400     104.100     136.855
     155.200     119.743     2.25900     109.000     104.800     104.400     134.290
     155.300     117.906     2.20900     110.700     106.500     106.100     132.715
     155.400     133.330     2.21197     106.800     107.600     106.900     132.512
     155.500     121.692     2.14000     106.840     105.600     106.400     133.706
     155.600     117.571     2.16500     105.300     104.400     103.000     135.001
     155.700     113.338     2.23000     102.100     100.900     100.840     135.865
     155.800     115.566     2.28700     97.7000     97.6404     98.4003     135.636
     155.900     115.342     2.38800     95.1998     94.9994     96.2995     135.052
     156.000     108.270     2.39700     94.8000     93.2000     94.7001     134.468
     156.100     112.726     2.37600     94.1999     92.9000     93.0000     133.858
     156.200     112.726     2.41400     95.6000     91.7001     93.4999     133.045
     156.300     113.728     2.36400     92.8000     92.6995     95.7000     132.156
     156.400     107.544     2.32902     94.3033     96.1003     96.9998     131.775
     156.500     100.807     2.36100     102.600     97.5000     96.3000     131.978
     156.600     95.4028     2.40300     101.699     97.8999     97.7000     133.375
     156.700     117.792     2.44600     95.5999     99.0999     99.6000     134.290
     156.800     136.170     2.43000     97.6994     98.4000     100.600     133.985
     156.900     153.327     2.42700     102.700     99.6998     98.1003     132.740
     157.000     155.220     2.44000     102.700     99.0000     98.9000     132.791
     157.100     149.651     2.40100     97.3000     99.0000     100.100     134.594
     157.200     133.554     2.33599     96.2198     98.7001     99.0000     136.500
     157.300     114.173     2.33100     100.700     97.1000     97.6000     137.516
     157.400     117.404     2.33600     101.200     97.7997     97.0202     137.541
     157.500     118.351     2.36500     99.8999     97.1201     97.8001     137.668
     157.600     124.312     2.41400     98.3999     96.2999     96.5001     137.465
     157.700     110.277     2.47800     95.7002     93.7002     94.7000     136.703
     157.800     108.772     2.45300     92.9000     91.8000     94.0000     136.474
     157.900     103.480     2.46800     92.6011     92.3001     93.8000     136.779
     158.000     103.926     2.48000     96.3999     93.0000     93.5000     137.871
     158.100     113.951     2.42900     98.5998     93.5000     93.6000     138.125
     158.200     112.837     2.47500     96.9999     93.7999     93.6000     138.252
     158.300     114.620     2.38300     96.0002     92.0001     93.8000     138.354
     158.400     96.6822     2.33500     94.1996     90.9999     93.0000     138.582
     158.500     88.9436     2.38100     92.0001     90.6000     93.0000     138.303
     158.600     92.8977     2.35900     93.0997     91.0998     93.0000     138.278
     158.700     98.2447     2.34500     95.7998     92.4998     92.6000     137.262
     158.800     101.698     2.26900     96.4004     92.9000     93.4999     135.992
     158.900     96.0754     2.28901     94.3208     93.5005     95.2002     134.010
     159.000     107.546     2.31300     96.2001     94.9000     96.0005     133.045
     159.100     112.780     2.30700     99.0000     95.9001     94.2201     133.350
     159.200     122.972     2.33600     100.400     94.0199     95.1000     133.604
     159.300     116.735     2.33000     93.2000     94.6997     98.7002     133.604
     159.400     124.589     2.33901     93.7045     98.2011     101.600     133.350
     159.500     130.269     2.37300     108.900     101.900     101.900     133.883
     159.600     124.978     2.35399     115.800     105.900     101.700     135.458
     159.700     124.588     2.47598     109.000     105.500     106.300     137.363
     159.800     129.268     2.41600     100.400     105.100     107.400     138.989
     159.900     143.913     2.43200     104.001     103.100     105.700     139.548
     160.000     141.911     2.41800     107.800     103.700     104.800     139.344
     160.100     130.325     2.41700     106.400     106.900     105.300     138.582
     160.200     125.814     2.41100     105.800     105.800     105.400     138.227
     160.300     120.356     2.39499     106.600     104.200     104.200     138.201
     160.400     122.916     2.45400     102.300     102.600     103.100     138.100
     160.500     111.834     2.41900     100.920     101.800     103.600     137.998
     160.600     108.103     2.44500     104.400     102.100     102.200     137.693
     160.700     103.703     2.43300     103.200     102.000     101.020     137.744
     160.800     102.923     2.48200     100.200     100.820     99.9002     137.312
     160.900     102.865     2.48098     98.5998     97.9995     98.2991     136.500
     161.000     95.2915     2.42199     98.0000     95.8010     93.9002     136.093
     161.100     104.427     2.46700     98.2010     90.5001     91.7003     136.525
     161.200     104.093     2.51600     87.7008     88.1001     90.0002     137.592
     161.300     112.283     2.48700     84.3996     86.2000     89.2000     136.931
     161.400     97.4137     2.49199     90.8002     84.7008     87.3996     134.950
