#------------------------------------------------------------
~VERSION INFORMATION
VERS.               2.0  :CWLS LOG ASCII STANDARD-VERSION 2.0
WRAP.                NO  :ONE LINE PER DEPTH STEP
#------------------------------------------------------------
~WELL INFORMATION
STRT.M              0.0  :START DEPTH
STOP.M            204.0  :STOP DEPTH
STEP.M              0.1  :STEP
NULL.           -999.25  :NULL VALUE
COMP.               N/A  :COMPANY
WELL.               N/A  :WELL
 FLD.               N/A  :FIELD
 LOC.               N/A  :LOCATION
PROV.               N/A  :PROVINCE
SRVC.               N/A  :SERVICE COMPANY
DATE.               N/A  :DATE
 UWI.               N/A  :UNIQUE WELL ID
#------------------------------------------------------------
~CURVE INFORMATION
DEPT.M                   :DEPTH
MC4F.MS/F                :MC4F
MC6F.MS/F                :MC6F
GRDE.API                 :GRDE
DENL.G/CC                :DENL
ADEN.GM/CC               :ADEN
CADE.MM                  :CADE
#------------------------------------------------------------
~OTHER
#------------------------------------------------------------
~A   DEPT[M]    MC4F[MS/    MC6F[MS/    GRDE[API    DENL[G/C    ADEN[GM/    CADE[mm]
# ...
     66.5000     102.620     102.900     128.657     2.50200     2.51079     122.936
     66.6000     101.900     103.200     125.624     2.47300     2.45937     123.038
     66.7000     101.900     103.500     126.446     2.44201     2.40517     122.885
     66.8000     101.500     100.400     134.281     2.54800     2.59962     122.758
     66.9000     99.7999     97.6000     136.367     2.52800     2.56699     122.784
     67.0000     95.0000     97.9000     124.297     2.46400     2.45888     122.911
     67.1000     94.1000     97.8000     115.829     2.57900     2.48468     122.961
     67.2000     94.4003     98.4001     125.941     2.55100     2.58271     123.241
     67.3000     98.4005     99.2001     136.368     2.50700     2.52364     123.368
     67.4000     103.900     100.800     156.145     2.50000     2.48712     123.292
     67.5000     103.600     104.700     150.332     2.55900     2.57225     122.834
     67.6000     103.500     104.900     146.540     2.48200     2.49423     122.453
     67.7000     102.900     105.100     145.024     2.44801     2.44454     122.453
     67.8000     103.100     104.800     148.247     2.52400     2.50242     122.530
     67.9000     103.000     105.700     163.223     2.54100     2.60914     122.707
     68.0000     105.600     106.300     145.719     2.50700     2.41817     122.428
     68.1000     107.600     107.940     151.722     2.48200     2.51553     122.301
     68.2000     108.140     109.000     140.539     2.44701     2.42025     122.377
     68.3000     110.200     110.300     155.385     2.52499     2.57772     122.758
     68.4000     111.200     115.000     137.378     2.36500     2.40072     123.495
     68.5000     116.500     119.300     119.874     2.16900     1.80715     124.231
     68.6000     122.900     123.900     113.112     1.93400     2.07186     125.552
     68.7000     130.101     129.900     114.695     1.81300     2.00218     126.594
     68.8000     138.000     134.500     153.052     1.76901     1.95508     127.330
     68.9000     139.000     135.900     180.221     1.98301     1.80517     127.279
     69.0000     136.000     135.200     197.536     2.18899     2.17784     126.873
     69.1000     133.600     133.500     188.814     2.30100     2.29848     126.086
     69.2000     128.000     132.400     154.818     2.34600     2.32886     125.451
     69.3000     125.100     129.000     150.332     2.30900     2.25796     125.298
     69.4000     125.900     127.600     146.035     2.29400     2.35504     125.247
     69.5000     127.700     127.700     159.747     2.23700     2.19108     125.451
     69.6000     128.700     129.600     154.186     2.26100     2.33455     125.349
     69.7000     129.400     130.300     153.618     2.19799     2.15503     125.273
     69.8000     129.100     131.640     157.788     2.06000     1.91947     124.993
     69.9000     130.740     132.000     153.491     1.94600     1.97747     124.892
     70.0000     131.600     133.600     155.450     1.74900     1.87904     124.816
     70.1000     134.000     134.200     130.994     1.60600     1.59675     124.485
     70.2000     135.200     133.600     116.334     1.58601     1.53590     124.104
     70.3000     133.100     132.400     100.284     1.76200     1.85269     124.231
     70.4000     130.000     131.600     100.158     1.80400     1.83055     125.374
     70.5000     128.000     130.000     108.183     1.88200     1.73360     125.425
     70.6000     125.500     125.900     108.246     2.01200     2.19350     124.714
     70.7000     122.200     122.300     119.811     2.11101     2.09734     123.139
     70.8000     120.300     120.200     142.749     2.24401     2.17339     122.784
     70.9000     117.000     120.200     166.888     2.34500     2.31220     122.961
     71.0000     114.500     118.100     183.697     2.40900     2.41325     123.215
     71.1000     115.300     116.100     170.869     2.43400     2.43305     123.241
     71.2000     116.000     116.200     158.862     2.43100     2.44636     123.393
     71.3000     115.700     115.500     148.689     2.45500     2.44307     123.520
     71.4000     113.500     114.560     155.450     2.44700     2.44692     123.469
     71.5000     111.660     113.500     161.201     2.39500     2.40454     123.190
     71.6000     111.600     112.200     168.216     2.41600     2.40923     123.088
     71.7000     110.800     112.300     181.801     2.46300     2.45173     123.241
     71.8000     111.200     112.000     177.062     2.44000     2.45259     123.317
     71.9000     111.200     112.400     174.092     2.43100     2.42216     123.088
     72.0000     111.200     111.100     161.453     2.46900     2.49031     123.215
     72.1000     110.000     111.300     164.487     2.46600     2.44089     123.241
     72.2000     109.500     111.000     161.517     2.47100     2.46179     123.393
     72.3000     108.800     110.700     159.242     2.41800     2.44827     123.596
     72.4000     108.300     110.400     160.000     2.43900     2.42281     124.104
     72.5000     108.900     110.400     158.167     2.45600     2.45377     124.790
     72.6000     109.800     110.500     155.197     2.44900     2.46461     125.070
     72.7000     109.600     109.700     150.332     2.44800     2.44548     125.222
     72.8000     107.900     109.500     145.591     2.45000     2.43422     125.374
     72.9000     107.700     108.700     140.095     2.43500     2.40688     125.400
     73.0000     106.600     108.800     136.177     2.42100     2.48522     124.917
     73.1000     106.600     107.920     139.526     2.43200     2.40487     124.308
     73.2000     107.120     107.200     149.068     2.43600     2.44170     123.825
     73.3000     107.100     107.900     150.458     2.45900     2.44314     123.800
     73.4000     107.500     107.900     153.744     2.45700     2.47174     123.673
     73.5000     107.900     108.000     149.573     2.48400     2.48586     123.698
     73.6000     107.900     108.100     150.774     2.47600     2.46807     123.825
     73.7000     107.400     108.000     149.636     2.50400     2.51304     123.876
     73.8000     107.100     108.200     136.809     2.50900     2.49339     124.181
     73.9000     107.200     109.900     132.828     2.46700     2.47402     124.536
     74.0000     107.700     108.700     122.780     2.47500     2.46806     125.095
     74.1000     108.300     108.900     133.270     2.43700     2.44088     125.349
     74.2000     108.099     103.520     133.522     2.48500     2.48898     125.120
     74.3000     100.620     99.3001     123.915     2.56600     2.62766     123.876
     74.4000     93.4000     100.600     98.8310     2.62700     2.68064     122.479
     74.5000     94.4000     101.500     100.410     2.53700     2.30296     121.285
     74.6000     96.8999     100.000     116.840     2.56400     2.61294     121.361
     74.7000     104.700     99.6004     153.681     2.56299     2.64947     121.183
     74.8000     109.100     103.720     159.810     2.48500     2.47389     121.514
     74.9000     105.020     107.100     155.324     2.50000     2.49934     121.336
     75.0000     101.900     105.100     133.270     2.50600     2.50765     121.691
     75.1000     101.900     103.500     121.769     2.54500     2.54099     121.564
     75.2000     102.000     102.900     123.477     2.54400     2.52232     121.514
     75.3000     102.400     99.6996     137.377     2.55100     2.56357     121.260
     75.4000     96.8999     94.7000     130.300     2.55600     2.66163     121.285
     75.5000     89.4001     93.7000     111.090     2.62600     2.55654     121.437
     75.6000     87.6000     94.9000     91.9428     2.52900     2.41944     121.641
     75.7000     89.3007     95.3000     101.297     2.57500     2.62678     122.098
     75.8000     96.9005     95.0003     123.349     2.55100     2.56298     122.555
     75.9000     104.300     98.8001     123.918     2.56900     2.56929     122.911
