#------------------------------------------------------------
~VERSION INFORMATION
VERS.               2.0  :CWLS LOG ASCII STANDARD-VERSION 2.0
WRAP.                NO  :ONE LINE PER DEPTH STEP
#------------------------------------------------------------
~WELL INFORMATION
STRT.M              0.0  :START DEPTH
STOP.M            225.0  :STOP DEPTH
STEP.M              0.1  :STEP
NULL.           -999.25  :NULL VALUE
COMP.               N/A  :COMPANY
WELL.               N/A  :WELL
 FLD.               N/A  :FIELD
 LOC.               N/A  :LOCATION
PROV.               N/A  :PROVINCE
SRVC.               N/A  :SERVICE COMPANY
DATE.               N/A  :DATE
 UWI.               N/A  :UNIQUE WELL ID
#------------------------------------------------------------
~CURVE INFORMATION
DEPT.M                   :DEPTH
GRDE.API                 :GRDE
CADE.MM                  :CADE
DENL.G/CC                :DENL
ADEN.G/C3                :ADEN
MC2F.USFT                :MC2F
MC4F.MS/F                :MC4F
MC6F.MS/F                :MC6F
#------------------------------------------------------------
~OTHER
#------------------------------------------------------------
~A   DEPT[M]    GRDE[API    CADE[mm]    DENL[G/C    ADEN[G/C    MC2F[uSF    MC4F[MS/    MC6F[MS/
# ...
     149.400     91.5397     116.110     2.18995     2.28997     120.351     122.631     124.720
     149.500     88.5404     116.920     2.02000     2.07003     128.550     129.000     127.470
     149.600     81.5196     116.980     1.87000     1.69999     135.200     133.700     129.970
     149.700     84.4097     116.760     1.79000     1.60998     135.860     134.770     130.830
     149.800     87.4503     116.630     1.86001     1.70998     131.860     131.970     129.750
     149.900     100.162     116.000     2.02003     2.06007     125.910     127.029     124.839
     150.000     107.589     115.520     2.18998     2.30001     119.500     119.330     119.870
     150.100     116.660     114.870     2.32001     2.41000     113.850     113.881     114.060
     150.200     128.930     114.980     2.38001     2.43000     109.250     108.130     110.250
     150.300     130.771     114.960     2.43001     2.47001     104.350     105.630     106.170
     150.400     138.348     114.820     2.46001     2.50000     100.250     102.330     103.650
     150.500     122.100     114.690     2.49000     2.51000     97.6000     100.850     101.830
     150.600     114.069     114.570     2.51000     2.53000     97.3999     100.580     100.370
     150.700     101.259     114.600     2.50000     2.52000     98.5000     100.430     99.6700
     150.800     113.070     114.730     2.51000     2.53000     98.7000     100.700     99.6000
     150.900     114.620     114.850     2.50000     2.51000     99.0100     100.700     100.200
     151.000     114.170     114.850     2.49000     2.52000     99.9500     101.050     100.580
     151.100     112.330     114.820     2.47000     2.48999     101.000     101.520     99.3700
     151.200     103.601     114.760     2.47000     2.42999     101.750     99.5498     99.5200
     151.300     92.5793     114.860     2.46000     2.41000     101.350     99.3000     99.4000
     151.400     84.4100     114.200     2.48000     2.50001     100.550     98.6001     100.680
     151.500     84.5091     113.590     2.50000     2.56000     99.6500     100.150     100.150
     151.600     96.3204     112.770     2.50000     2.55999     99.2500     99.5500     99.3499
     151.700     101.261     112.640     2.49000     2.48000     98.9000     98.7501     98.3000
     151.800     108.190     112.500     2.48000     2.47000     97.8501     97.6299     97.3500
     151.900     103.500     112.410     2.50001     2.52000     96.2999     96.3998     96.7700
     152.000     101.760     112.500     2.53000     2.57000     95.0500     95.7000     96.5500
     152.100     106.990     112.430     2.54000     2.60000     94.8001     95.8999     96.7701
     152.200     109.580     112.640     2.55000     2.61000     96.4001     96.9999     97.3500
     152.300     107.841     112.520     2.52000     2.55000     98.7998     98.5000     98.0300
     152.400     102.310     112.480     2.48999     2.49999     101.000     99.6500     97.9800
     152.500     101.410     112.340     2.46000     2.40000     101.400     98.7803     97.3701
     152.600     96.8171     112.890     2.50000     2.39000     99.5002     96.6500     96.9000
     152.700     84.0086     113.430     2.55001     2.50001     94.2001     94.8499     96.2302
     152.800     75.3299     113.940     2.61000     2.72000     90.7000     93.6502     93.6501
     152.900     78.2221     114.230     2.64999     2.75998     91.1003     90.7202     92.6499
     153.000     97.9205     114.600     2.62000     2.65002     94.2999     91.8701     92.2996
     153.100     105.300     114.690     2.57001     2.52000     96.8000     93.1001     95.1000
     153.200     117.560     114.570     2.50001     2.49000     96.4000     97.1001     95.5800
     153.300     113.972     114.600     2.50000     2.53000     95.5500     96.2200     96.0000
     153.400     126.779     114.730     2.48000     2.49000     94.8499     95.5998     95.1998
     153.500     118.161     114.850     2.48000     2.50000     94.2500     94.6000     94.5199
     153.600     107.339     114.850     2.48000     2.49000     94.0500     94.0000     94.0300
     153.700     94.2807     114.850     2.50000     2.51000     93.0000     93.6300     94.0800
     153.800     82.8097     114.850     2.51000     2.52000     92.4499     93.9999     95.1298
     153.900     85.6001     114.850     2.52000     2.58000     94.0004     95.6812     97.4705
     154.000     86.4495     114.820     2.52000     2.60000     98.3493     99.6997     99.8799
     154.100     103.400     114.710     2.50999     2.54998     105.750     103.600     102.220
     154.200     107.390     114.730     2.46999     2.43000     110.800     106.330     103.750
     154.300     114.620     114.850     2.44000     2.39000     110.350     106.450     105.270
     154.400     113.373     114.820     2.44000     2.44001     106.550     105.030     106.220
     154.500     122.599     114.710     2.46000     2.50000     103.950     103.930     105.930
     154.600     118.010     114.760     2.48000     2.52000     104.300     103.730     105.120
     154.700     118.560     115.100     2.47000     2.48000     105.200     104.410     104.540
     154.800     115.520     115.790     2.46000     2.43000     105.000     104.830     102.020
     154.900     110.629     116.400     2.45000     2.44001     104.650     100.880     101.230
     155.000     105.650     116.650     2.47000     2.49000     104.250     99.2498     99.4804
     155.100     102.850     116.780     2.48000     2.51000     104.750     96.7300     95.9000
     155.200     107.691     116.920     2.49000     2.47000     104.550     91.5300     95.2499
     155.300     96.3703     116.980     2.48000     2.46999     101.900     90.7500     95.4806
     155.400     88.0503     116.610     2.50000     2.54001     99.0498     90.8505     99.2695
     155.500     90.7407     115.820     2.52000     2.58000     97.4499     96.6299     97.4002
     155.600     94.9300     115.160     2.53000     2.56000     95.6501     95.1505     93.3502
     155.700     95.3805     114.710     2.52000     2.51000     91.9503     90.5001     90.9501
     155.800     82.9100     114.690     2.51000     2.51000     87.5502     87.6998     88.7400
     155.900     93.5291     114.600     2.53000     2.55001     85.4499     85.2800     88.0497
     156.000     88.6899     114.690     2.54000     2.59000     84.8500     86.1000     86.4700
     156.100     91.5386     114.600     2.58000     2.64000     84.9000     85.9200     86.0200
     156.200     74.6284     114.730     2.58000     2.63000     85.3499     86.3000     86.1001
     156.300     82.3602     114.800     2.58000     2.61000     86.3500     86.7200     85.1799
     156.400     86.9508     114.480     2.56000     2.54000     86.9496     85.3189     82.8496
     156.500     90.8392     114.020     2.58000     2.56000     84.2495     81.6001     80.8999
     156.600     77.4286     114.070     2.60000     2.63001     78.8000     78.1696     79.9200
     156.700     69.4492     114.440     2.64000     2.71999     75.6100     76.3997     79.9500
     156.800     70.6511     115.120     2.64000     2.68000     77.1098     77.8004     79.2200
     156.900     77.2293     115.140     2.61999     2.62999     80.7601     79.4200     79.2700
     157.000     73.9900     115.210     2.59000     2.58000     82.1000     81.1101     80.3100
     157.100     73.7900     114.980     2.58000     2.59000     82.0999     81.9000     81.5898
     157.200     73.7900     114.980     2.58000     2.60000     82.5000     81.9997     83.3799
     157.300     74.8805     114.980     2.56000     2.60000     83.1501     84.0296     85.7501
     157.400     82.0616     114.980     2.53999     2.57998     86.9017     87.5808     89.2301
     157.500     86.5523     114.980     2.50000     2.52000     93.7504     92.6000     90.5201
     157.600     100.810     115.010     2.46000     2.44000     100.750     94.2000     91.3800
