#------------------------------------------------------------
~VERSION INFORMATION
VERS.               2.0  :CWLS LOG ASCII STANDARD-VERSION 2.0
WRAP.                NO  :ONE LINE PER DEPTH STEP
#------------------------------------------------------------
~WELL INFORMATION
STRT.M              0.0  :START DEPTH
STOP.M            225.0  :STOP DEPTH
STEP.M              0.1  :STEP
NULL.           -999.25  :NULL VALUE
COMP.               N/A  :COMPANY
WELL.               N/A  :WELL
 FLD.               N/A  :FIELD
 LOC.               N/A  :LOCATION
PROV.               N/A  :PROVINCE
SRVC.               N/A  :SERVICE COMPANY
DATE.               N/A  :DATE
 UWI.               N/A  :UNIQUE WELL ID
#------------------------------------------------------------
~CURVE INFORMATION
DEPT.M                   :DEPTH
GRDE.API                 :GRDE
CADE.MM                  :CADE
DENL.G/CC                :DENL
ADEN.G/C3                :ADEN
MC2F.USFT                :MC2F
MC4F.MS/F                :MC4F
MC6F.MS/F                :MC6F
#------------------------------------------------------------
~OTHER
#------------------------------------------------------------
~A   DEPT[M]    GRDE[API    CADE[mm]    DENL[G/C    ADEN[G/C    MC2F[uSF    MC4F[MS/    MC6F[MS/
# ...
     24.9000     69.2003     132.090     1.33000     1.78000    -999.250    -999.250    -999.250
     25.0000     85.4996     132.220     1.30000     1.62000    -999.250    -999.250    -999.250
     25.1000     91.0400     132.030     1.28000     1.57001    -999.250    -999.250    -999.250
     25.2000     96.7195     132.030     1.28000     1.65000    -999.250    -999.250    -999.250
     25.3000     88.2504     132.060     1.29000     1.66000    -999.250    -999.250    -999.250
     25.4000     92.2802     132.180     1.29000     1.76999    -999.250    -999.250    -999.250
     25.5000     99.6601     132.220     1.30000     1.65001    -999.250    -999.250    -999.250
     25.6000     109.679     132.030     1.31000     1.74000    -999.250    -999.250    -999.250
     25.7000     100.810     132.030     1.30000     1.72000    -999.250    -999.250    -999.250
     25.8000     99.6597     132.030     1.28000     1.69999    -999.250    -999.250    -999.250
     25.9000     81.8104     132.030     1.27000     1.45001    -999.250    -999.250    -999.250
     26.0000     79.5196     132.000     1.28000     1.46001    -999.250    -999.250    -999.250
     26.1000     68.3008     131.940     1.29000     1.79999    -999.250    -999.250    -999.250
     26.2000     75.2798     132.030     1.28000     1.77999    -999.250    -999.250    -999.250
     26.3000     77.8806     132.060     1.26000     1.41000    -999.250    -999.250    -999.250
     26.4000     93.5797     132.150     1.28000     1.30000    -999.250    -999.250    -999.250
     26.5000     90.1906     132.150     1.35000     1.56000    -999.250    -999.250    -999.250
     26.6000     98.8701     132.150     1.42000     1.80998    -999.250    -999.250    -999.250
     26.7000     106.840     132.180     1.45000     1.67000    -999.250    -999.250    -999.250
     26.8000     129.679     132.220     1.46000     1.58000    -999.250    -999.250    -999.250
     26.9000     123.100     132.030     1.49000     1.62000    -999.250    -999.250    -999.250
     27.0000     113.420     132.000     1.50000     1.67000    -999.250    -999.250    -999.250
     27.1000     103.950     131.990     1.47000     1.63000    -999.250    -999.250    -999.250
     27.2000     105.349     132.250     1.41000     1.50000    -999.250    -999.250    -999.250
     27.3000     94.2801     132.150     1.36000     1.44000    -999.250    -999.250    -999.250
     27.4000     83.3601     132.150     1.35000     1.45000    -999.250    -999.250    -999.250
     27.5000     78.9204     132.120     1.34000     1.45000    -999.250    -999.250    -999.250
     27.6000     85.3500     132.060     1.35000     1.48000    -999.250    -999.250    -999.250
     27.7000     90.1899     132.100     1.36000     1.57000    -999.250    -999.250    -999.250
     27.8000     90.2396     131.990     1.35000     1.74999    -999.250    -999.250    -999.250
     27.9000     81.4198     132.250     1.33000     1.67000    -999.250    -999.250    -999.250
     28.0000     74.0401     132.180     1.28000     1.57000    -999.250    -999.250    -999.250
     28.1000     69.9005     132.280     1.25000     1.41001    -999.250    -999.250    -999.250
     28.2000     78.6700     132.250     1.26000     1.43001    -999.250    -999.250    -999.250
     28.3000     90.3898     132.120     1.30000     1.70001    -999.250    -999.250    -999.250
     28.4000     95.3800     132.030     1.33000     1.92999    -999.250    -999.250    -999.250
     28.5000     105.500     132.060     1.29000     1.86998    -999.250    -999.250    -999.250
     28.6000     106.040     132.180     1.23000     1.48000    -999.250    -999.250    -999.250
     28.7000     113.169     132.220     1.22000     1.17003    -999.250    -999.250    -999.250
     28.8000     105.500     132.030     1.30000     1.57001    -999.250    -999.250    -999.250
     28.9000     81.9106     132.060     1.37000     1.90999    -999.250    -999.250    -999.250
     29.0000     69.3502     132.150     1.39000     1.75000    -999.250    -999.250    -999.250
     29.1000     53.2511     132.100     1.37000     1.49001    -999.250    -999.250    -999.250
     29.2000     74.7793     131.880     1.40000     1.44001    -999.250    -999.250    -999.250
     29.3000     85.1508     131.840     1.46000     1.73999    -999.250    -999.250    -999.250
     29.4000     104.550     132.090     1.50000     1.70000    -999.250    -999.250    -999.250
     29.5000     101.560     132.220     1.54000     1.59000    -999.250    -999.250    -999.250
     29.6000     95.9703     132.000     1.63000     1.72000    -999.250    -999.250    -999.250
     29.7000     96.0700     131.910     1.77000     1.94999    -999.250    -999.250    -999.250
     29.8000     96.4706     131.960     1.84000     2.07999    -999.250    -999.250    -999.250
     29.9000     109.730     132.150     1.84000     2.04000    -999.250    -999.250    -999.250
     30.0000     97.0209     132.130     1.80000     1.94000    -999.250    -999.250    -999.250
     30.1000     102.159     132.030     1.74000     1.87000    -999.250    -999.250    -999.250
     30.2000     84.0102     132.060     1.70000     1.79000    -999.250    -999.250    -999.250
     30.3000     79.5195     132.180     1.68000     1.76000    -999.250    -999.250    -999.250
     30.4000     70.0502     132.250     1.70000     1.79000    -999.250    -999.250    -999.250
     30.5000     76.6299     132.150     1.76000     1.89000    -999.250    -999.250    -999.250
     30.6000     81.6594     132.120     1.81000     1.97000    -999.250    -999.250    -999.250
     30.7000     74.4402     132.090     1.84000     2.01000    -999.250    -999.250    -999.250
     30.8000     74.2901     132.220     1.84000     2.02000    -999.250    -999.250    -999.250
     30.9000     77.7800     132.090     1.82000     1.98000    -999.250    -999.250    -999.250
     31.0000     86.5995     132.220     1.77000     1.88000    -999.250    -999.250    -999.250
     31.1000     81.3699     132.090     1.72000     1.82000    -999.250    -999.250    -999.250
     31.2000     75.2300     132.220     1.70000     1.80000    -999.250    -999.250    -999.250
     31.3000     68.9001     132.060     1.68000     1.82000    -999.250    -999.250    -999.250
     31.4000     71.1900     132.150     1.67000     1.80000    -999.250    -999.250    -999.250
     31.5000     76.1801     132.120     1.64000     1.77000    -999.250    -999.250    -999.250
     31.6000     82.0597     132.060     1.60000     1.71000    -999.250    -999.250    -999.250
     31.7000     81.1196     132.120     1.56000     1.66000    -999.250    -999.250    -999.250
     31.8000     68.6503     132.060     1.55000     1.61000    -999.250    -999.250    -999.250
     31.9000     65.5601     132.120     1.57000     1.65000    -999.250    -999.250    -999.250
     32.0000     70.1504     132.030     1.62000     1.74000    -999.250    -999.250    -999.250
     32.1000     92.3309     132.060     1.66000     1.82000    -999.250    -999.250    -999.250
     32.2000     112.530     132.130     1.68000     1.83000    -999.250    -999.250    -999.250
     32.3000     123.889     132.060     1.68000     1.81000    -999.250    -999.250    -999.250
     32.4000     118.560     132.150     1.66000     1.80000    -999.250    -999.250    -999.250
     32.5000     101.561     132.150     1.64000     1.80000    -999.250    -999.250    -999.250
     32.6000     90.1399     132.100     1.61000     1.74000    -999.250    -999.250    -999.250
     32.7000     88.0004     131.940     1.59000     1.68000    -999.250    -999.250    -999.250
     32.8000     99.0596     132.060     1.58000     1.70000    -999.250    -999.250    -999.250
     32.9000     103.199     132.180     1.57000     1.71000    -999.250    -999.250    -999.250
     33.0000     92.8302     132.220     1.56000     1.71000    -999.250    -999.250    -999.250
     33.1000     82.9597     132.060     1.55000     1.67000    -999.250    -999.250    -999.250
