#------------------------------------------------------------
~VERSION INFORMATION
VERS.               2.0  :CWLS LOG ASCII STANDARD-VERSION 2.0
WRAP.                NO  :ONE LINE PER DEPTH STEP
#------------------------------------------------------------
~WELL INFORMATION
STRT.M              0.0  :START DEPTH
STOP.M            225.0  :STOP DEPTH
STEP.M              0.1  :STEP
NULL.           -999.25  :NULL VALUE
COMP.               N/A  :COMPANY
WELL.               N/A  :WELL
 FLD.               N/A  :FIELD
 LOC.               N/A  :LOCATION
PROV.               N/A  :PROVINCE
SRVC.               N/A  :SERVICE COMPANY
DATE.               N/A  :DATE
 UWI.               N/A  :UNIQUE WELL ID
#------------------------------------------------------------
~CURVE INFORMATION
DEPT.M                   :DEPTH
GRDE.API                 :GRDE
CADE.MM                  :CADE
DENL.G/CC                :DENL
ADEN.G/C3                :ADEN
MC2F.USFT                :MC2F
MC4F.MS/F                :MC4F
MC6F.MS/F                :MC6F
#------------------------------------------------------------
~OTHER
#------------------------------------------------------------
~A   DEPT[M]    GRDE[API    CADE[mm]    DENL[G/C    ADEN[G/C    MC2F[uSF    MC4F[MS/    MC6F[MS/
# ...
     91.3000     140.689     119.330     2.47000     2.54999     106.400     107.710     108.940
     91.4000     127.930     119.220     2.50000     2.52000     106.050     107.290     107.020
     91.5000     123.591     119.190     2.50000     2.52000     105.400     106.980     106.500
     91.6000     103.350     119.080     2.51000     2.54000     105.400     106.550     106.380
     91.7000     99.5109     119.110     2.51000     2.52000     105.500     106.550     105.980
     91.8000     104.799     119.220     2.49000     2.50000     105.400     106.280     104.680
     91.9000     100.709     119.240     2.51000     2.53000     105.200     104.320     104.370
     92.0000     116.810     119.300     2.51000     2.54000     104.950     103.800     104.500
     92.1000     118.409     119.000     2.51000     2.54000     104.900     104.050     105.800
     92.2000     142.640     118.540     2.49000     2.51000     105.300     106.100     106.120
     92.3000     138.350     117.910     2.48000     2.49000     106.450     106.700     105.480
     92.4000     129.679     117.550     2.48000     2.48000     107.100     105.780     105.410
     92.5000     115.919     117.420     2.48000     2.48000     106.250     105.460     105.060
     92.6000     108.790     117.300     2.48000     2.48000     104.850     104.360     105.370
     92.7000     111.980     117.300     2.48000     2.48000     103.750     104.510     104.830
     92.8000     110.280     117.330     2.48000     2.49000     103.000     104.130     104.330
     92.9000     105.151     117.420     2.50000     2.51000     102.800     104.080     104.230
     93.0000     112.780     117.300     2.51000     2.52000     102.800     104.470     104.680
     93.1000     108.740     117.300     2.49000     2.50000     103.850     105.520     105.470
     93.2000     108.890     117.300     2.48000     2.48000     105.650     106.800     105.430
     93.3000     104.551     117.280     2.46000     2.46000     107.550     106.750     105.880
     93.4000     108.689     117.020     2.47000     2.47000     108.200     106.900     106.220
     93.5000     118.510     116.200     2.47000     2.47000     107.360     106.500     106.020
     93.6000     113.570     115.310     2.48000     2.49000     106.200     105.249     103.090
     93.7000     112.478     114.160     2.49000     2.49001     103.100     100.529     98.1395
     93.8000     98.1684     113.360     2.53000     2.55000     95.4002     93.5303     92.5398
     93.9000     83.1610     112.800     2.56000     2.58000     84.9499     85.7105     86.5002
     94.0000     72.7413     112.840     2.60000     2.65000     76.5001     78.1999     82.3699
     94.1000     60.9707     113.260     2.59000     2.66000     73.5499     75.8501     79.9500
     94.2000     67.3589     114.380     2.58999     2.63999     76.3507     77.4501     80.4501
     94.3000     59.1809     115.610     2.55000     2.57000     82.3002     82.4298     81.9300
     94.4000     65.6104     116.670     2.51000     2.49000     87.7002     86.1300     84.0701
     94.5000     69.3000     116.920     2.49000     2.47000     84.0000     87.9300     85.9799
     94.6000     71.6400     117.030     2.51000     2.50000     82.8500     87.8299     86.9700
     94.7000     71.0500     117.030     2.55000     2.56000     81.0604     86.6000     85.9500
     94.8000     70.9505     117.030     2.57000     2.61000     85.3598     86.9199     84.5001
     94.9000     74.5900     117.010     2.58000     2.60000     86.7000     85.3300     83.9000
     95.0000     75.8800     116.920     2.57000     2.60000     86.4999     85.3300     83.8901
     95.1000     76.7304     117.030     2.56000     2.58000     88.2501     83.1500     85.3000
     95.2000     80.2200     117.060     2.57000     2.58999     87.2500     84.6000     85.3801
     95.3000     77.8297     117.140     2.56000     2.54000     87.2997     84.8300     86.7299
     95.4000     67.4601     116.960     2.56000     2.56000     85.1500     85.9800     86.5200
     95.5000     65.5100     116.480     2.54000     2.59000     84.6000     86.1500     86.7700
     95.6000     66.1591     115.700     2.53000     2.58999     85.9500     86.5000     86.1700
     95.7000     75.4800     115.180     2.50000     2.50999     87.4500     86.6700     85.8700
     95.8000     74.9308     114.870     2.49000     2.47000     86.9999     86.4999     85.6300
     95.9000     86.6500     114.930     2.49000     2.47000     85.0600     85.4700     85.7300
     96.0000     83.9104     114.710     2.51000     2.55000     83.3600     84.8800     85.9500
     96.1000     87.9998     114.710     2.53000     2.59000     83.4101     85.4199     86.3900
     96.2000     90.9402     114.730     2.55000     2.62000     85.8001     87.0502     87.2200
     96.3000     92.7301     114.870     2.53000     2.57000     88.9998     89.1499     88.2400
     96.4000     95.5199     114.980     2.51000     2.52000     91.1000     90.6500     89.5301
     96.5000     84.0100     114.960     2.48000     2.47000     91.1500     91.4000     90.6800
     96.6000     83.2100     114.850     2.47000     2.47000     90.7500     91.5200     91.2200
     96.7000     84.2102     114.850     2.47000     2.49000     90.8500     91.2699     90.3199
     96.8000     86.5503     114.870     2.49000     2.50000     91.0499     89.9000     89.6700
     96.9000     91.1901     114.960     2.51000     2.53000     90.1500     89.1299     88.9000
     97.0000     85.6003     114.820     2.51000     2.53000     88.6500     87.9200     88.6300
     97.1000     77.5803     114.710     2.51000     2.54000     87.3099     87.4201     87.3300
     97.2000     65.6593     114.730     2.51000     2.52000     85.8093     85.9297     85.6697
     97.3000     61.1200     114.820     2.50000     2.49000     76.5104     84.1697     80.9703
     97.4000     61.6700     114.710     2.51000     2.49000     70.6499     77.8100     80.1900
     97.5000     60.8201     114.710     2.51000     2.51999     69.4997     77.3800     80.2101
     97.6000     58.8800     114.730     2.54000     2.61000     78.5498     82.0499     83.7799
     97.7000     64.2607     114.850     2.56000     2.61000     85.0001     90.3501     84.3001
     97.8000     69.1002     114.850     2.54000     2.57000     87.0498     91.6997     85.3500
     97.9000     71.1499     114.850     2.52000     2.52000     87.0000     88.7500     86.6700
     98.0000     72.5900     114.850     2.51000     2.52000     86.8500     87.5000     87.4000
     98.1000     73.1900     114.850     2.51000     2.52000     87.4000     87.5701     86.7698
     98.2000     73.3398     114.870     2.51000     2.51000     84.0500     86.6498     82.9200
     98.3000     62.4704     114.980     2.53000     2.53000     81.2101     80.9505     81.7302
     98.4000     54.6399     114.940     2.57000     2.61000     78.2101     78.9000     81.3699
     98.5000     50.4005     114.710     2.60000     2.67000     80.2599     80.0299     84.1100
     98.6000     57.4300     114.730     2.59000     2.65000     82.1998     85.5603     84.8600
     98.7000     62.5200     114.850     2.54999     2.58000     85.9504     88.1800     86.3201
     98.8000     60.3304     114.820     2.51000     2.51001     89.3499     89.3499     87.5701
     98.9000     61.4199     114.690     2.50000     2.49000     91.5500     90.2500     88.7799
     99.0000     57.2813     114.500     2.50000     2.51000     90.1999     90.2000     89.2500
     99.1000     66.5600     114.020     2.48000     2.52000     87.6501     89.2000     89.2798
     99.2000     67.4600     113.230     2.48000     2.52999     86.3000     88.1499     87.9700
     99.3000     69.6989     112.570     2.47000     2.47000     86.6998     86.8499     85.8300
     99.4000     58.8804     112.000     2.48000     2.45000     84.9000     84.9299     83.3800
     99.5000     49.8595     111.410     2.48000     2.48000     80.8100     81.9302     81.5300
