#------------------------------------------------------------
~VERSION INFORMATION
VERS.               2.0  :CWLS LOG ASCII STANDARD-VERSION 2.0
WRAP.                NO  :ONE LINE PER DEPTH STEP
#------------------------------------------------------------
~WELL INFORMATION
STRT.M              0.0  :START DEPTH
STOP.M            204.0  :STOP DEPTH
STEP.M              0.1  :STEP
NULL.           -999.25  :NULL VALUE
COMP.               N/A  :COMPANY
WELL.               N/A  :WELL
 FLD.               N/A  :FIELD
 LOC.               N/A  :LOCATION
PROV.               N/A  :PROVINCE
SRVC.               N/A  :SERVICE COMPANY
DATE.               N/A  :DATE
 UWI.               N/A  :UNIQUE WELL ID
#------------------------------------------------------------
~CURVE INFORMATION
DEPT.M                   :DEPTH
MC4F.MS/F                :MC4F
MC6F.MS/F                :MC6F
GRDE.API                 :GRDE
DENL.G/CC                :DENL
ADEN.GM/CC               :ADEN
CADE.MM                  :CADE
#------------------------------------------------------------
~OTHER
#------------------------------------------------------------
~A   DEPT[M]    MC4F[MS/    MC6F[MS/    GRDE[API    DENL[G/C    ADEN[GM/    CADE[mm]
    0.000000    -999.250    -999.250     134.280    -999.250    -999.250    -999.250
    0.100000    -999.250    -999.250     102.117    -999.250    -999.250    -999.250
    0.200000    -999.250    -999.250     89.2885    -999.250    -999.250    -999.250
    0.300000    -999.250    -999.250     74.1233    -999.250    -999.250    -999.250
    0.400000    -999.250    -999.250     82.9071    -999.250    -999.250    -999.250
    0.500000    -999.250    -999.250     85.9402    -999.250    -999.250    -999.250
    0.600000    -999.250    -999.250     91.5005    -999.250    -999.250    -999.250
    0.700000    -999.250    -999.250     74.4391    -999.250    -999.250    -999.250
    0.800000    -999.250    -999.250     77.6617    -999.250    -999.250    -999.250
    0.900000    -999.250    -999.250     67.9303    -999.250    -999.250    -999.250
     1.00000    -999.250    -999.250     78.2939    -999.250    -999.250    -999.250
     1.10000    -999.250    -999.250     75.6403    -999.250    -999.250     135.458
     1.20000    -999.250    -999.250     84.4870    -999.250    -999.250     135.128
     1.30000    -999.250    -999.250     84.8029    -999.250    -999.250     135.179
     1.40000    -999.250    -999.250     81.9589    -999.250    -999.250     135.128
     1.50000    -999.250    -999.250     78.4197    -999.250    -999.250     135.128
     1.60000    -999.250    -999.250     69.1307    -999.250    -999.250     135.128
     1.70000    -999.250    -999.250     60.0320     1.85000    -999.250     135.179
     1.80000    -999.250    -999.250     59.5261     1.93100     1.96305     135.306
     1.90000    -999.250    -999.250     64.3291     2.03400     2.00831     135.306
     2.00000    -999.250    -999.250     67.7409     2.02900     2.03007     135.255
     2.10000    -999.250    -999.250     64.0130     2.01600     1.97908     135.128
     2.20000    -999.250    -999.250     65.5288     2.03300     2.06459     135.179
     2.30000    -999.250    -999.250     58.7050     2.03900     2.06774     135.306
     2.40000    -999.250    -999.250     59.1468     2.05200     2.00203     135.306
     2.50000    -999.250    -999.250     54.2182     2.03100     2.03534     135.255
     2.60000    -999.250    -999.250     61.0431     2.04900     2.06791     135.128
     2.70000    -999.250    -999.250     64.8340     2.01100     1.99836     135.204
     2.80000    -999.250    -999.250     64.7709     2.03400     2.03797     135.382
     2.90000    -999.250    -999.250     59.3360     2.02700     2.06243     135.179
     3.00000    -999.250    -999.250     59.8419     2.04900     2.03579     135.306
     3.10000    -999.250    -999.250     55.5451     2.06900     2.06165     135.331
     3.20000    -999.250    -999.250     58.5780     2.04200     2.03304     135.433
     3.30000    -999.250    -999.250     58.8312     2.06300     2.05904     135.255
     3.40000    -999.250    -999.250     65.5921     2.07500     2.08301     135.128
     3.50000    -999.250    -999.250     68.8149     2.08500     2.06307     135.179
     3.60000    -999.250    -999.250     64.6451     2.05500     2.07557     135.306
     3.70000    -999.250    -999.250     67.1092     2.08600     2.09686     135.331
     3.80000    -999.250    -999.250     74.0602     2.05900     2.04748     135.433
     3.90000    -999.250    -999.250     81.0739     2.07000     2.06612     135.306
     4.00000    -999.250    -999.250     77.4088     2.09700     2.10489     135.306
     4.10000    -999.250    -999.250     70.2690     2.06700     2.05098     135.331
     4.20000    -999.250    -999.250     71.8482     2.05300     2.04726     135.433
     4.30000    -999.250    -999.250     78.3568     2.07800     2.08779     135.306
     4.40000    -999.250    -999.250     72.9859     2.06100     2.05881     135.255
     4.50000    -999.250    -999.250     69.0048     2.05700     2.05840     135.179
     4.60000    -999.250    -999.250     62.7491     2.05100     2.05488     135.306
     4.70000    -999.250    -999.250     64.5810     2.05500     2.06037     135.306
     4.80000    -999.250    -999.250     63.1282     2.04500     2.05000     135.331
     4.90000    -999.250    -999.250     68.4992     2.05000     2.06470     135.458
     5.00000    -999.250    -999.250     73.6180     2.04700     2.02024     135.458
     5.10000    -999.250    -999.250     74.3758     2.04100     2.02151     135.433
     5.20000    -999.250    -999.250     67.1723     2.00800     2.02216     135.331
     5.30000    -999.250    -999.250     76.2089     1.98000     1.98310     135.509
     5.40000    -999.250    -999.250     72.1637     1.96300     1.95895     135.636
     5.50000    -999.250    -999.250     62.9375     1.98000     1.97938     135.560
     5.60000    -999.250    -999.250     44.1069     1.93800     1.93684     135.306
     5.70000    -999.250    -999.250     39.2425     1.92400     1.90145     135.306
     5.80000    -999.250    -999.250     54.6600     1.92200     1.95091     135.382
     5.90000    -999.250    -999.250     55.5455     1.93400     1.91108     135.636
     6.00000    -999.250    -999.250     72.6701     1.89300     1.92021     135.636
     6.10000    -999.250    -999.250     74.4391     1.86200     1.84552     135.585
     6.20000    -999.250    -999.250     77.9773     1.86700     1.86857     135.509
     6.30000    -999.250    -999.250     58.0726     1.89400     1.90684     135.661
     6.40000    -999.250    -999.250     47.4570     1.87300     1.87321     135.763
     6.50000    -999.250    -999.250     48.0250     1.86200     1.84408     135.560
     6.60000    -999.250    -999.250     49.0359     1.87600     1.88257     135.255
     6.70000    -999.250    -999.250     46.3190     1.86400     1.88927     135.128
     6.80000    -999.250    -999.250     47.6462     1.85700     1.84990     135.179
     6.90000    -999.250    -999.250     52.5749     1.83500     1.81629     135.306
     7.00000    -999.250    -999.250     50.5531     1.82200     1.84917     135.331
     7.10000    -999.250    -999.250     52.5748     1.78700     1.75933     135.458
     7.20000    -999.250    -999.250     46.6980     1.80400     1.82878     135.458
     7.30000    -999.250    -999.250     46.6975     1.75800     1.75635     135.433
     7.40000    -999.250    -999.250     33.3651     1.76500     1.75439     135.306
     7.50000    -999.250    -999.250     36.4609     1.76200     1.77715     135.331
     7.60000    -999.250    -999.250     34.8821     1.73500     1.72013     135.458
     7.70000    -999.250    -999.250     38.1667     1.73000     1.71761     135.458
     7.80000    -999.250    -999.250     30.1419     1.74300     1.77154     135.433
     7.90000    -999.250    -999.250     28.6260     1.78500     1.77046     135.306
     8.00000    -999.250    -999.250     27.5514     1.76800     1.78423     135.306
     8.10000    -999.250    -999.250     40.8850     1.77600     1.78112     135.306
     8.20000    -999.250    -999.250     42.5909     1.80400     1.78199     135.331
     8.30000    -999.250    -999.250     39.9365     1.80200     1.76521     135.458
     8.40000    -999.250    -999.250     25.6560     1.84900     1.86474     135.433
     8.50000    -999.250    -999.250     25.5292     1.89100     1.93862     135.331
     8.60000    -999.250    -999.250     32.4171     1.91200     1.91349     135.433
     8.70000    -999.250    -999.250     37.2203     1.92500     1.88899     135.331
     8.80000    -999.250    -999.250     46.6350     1.93900     1.96336     135.433
     8.90000    -999.250    -999.250     47.0143     1.95500     1.93716     135.255
     9.00000    -999.250    -999.250     53.9019     1.88600     1.88332     135.179
     9.10000    -999.250    -999.250     49.2261     1.84500     1.85380     135.255
     9.20000    -999.250    -999.250     52.5122     1.82500     1.83115     135.204
     9.30000    -999.250    -999.250     57.9462     1.85100     1.85336     135.382
     9.40000    -999.250    -999.250     66.4774     1.92200     1.94187     135.179
