#------------------------------------------------------------
~VERSION INFORMATION
VERS.               2.0  :CWLS LOG ASCII STANDARD-VERSION 2.0
WRAP.                NO  :ONE LINE PER DEPTH STEP
#------------------------------------------------------------
~WELL INFORMATION
STRT.M              0.0  :START DEPTH
STOP.M            234.0  :STOP DEPTH
STEP.M              0.1  :STEP
NULL.           -999.25  :NULL VALUE
COMP.               N/A  :COMPANY
WELL.               N/A  :WELL
 FLD.               N/A  :FIELD
 LOC.               N/A  :LOCATION
PROV.               N/A  :PROVINCE
SRVC.               N/A  :SERVICE COMPANY
DATE.               N/A  :LOG DATE
 UWI.               N/A  :UNIQUE WELL ID
#------------------------------------------------------------
~CURVE INFORMATION
DEPT.M                   :DEPTH
GRDE.API                 :GRDE
DENL.G/CC                :DENL
MC2F.USFT                :MC2F
MC4F.MS/F                :MC4F
MC6F.MS/F                :MC6F
CADE.MM                  :CADE
#------------------------------------------------------------
~OTHER
#------------------------------------------------------------
~A   DEPT[M]    GRDE[API    DENL[G/C    MC2F[uSF    MC4F[MS/    MC6F[MS/    CADE[mm]
# ...
     171.000     37.3696     1.57200     125.800     121.978     123.400     122.428
     171.100     45.3956     1.66802     128.700     128.401     119.320     121.946
     171.200     65.8366     1.95101     129.200     123.721     121.300     124.130
     171.300     94.3458     2.10498     117.200     119.001     118.500     129.285
     171.400     113.121     2.24203     102.402     112.999     116.500     134.367
     171.500     131.717     2.31101     110.000     109.900     114.600     137.643
     171.600     135.503     2.33700     117.900     113.100     110.700     139.294
     171.700     142.297     2.39800     116.600     114.500     109.100     139.852
     171.800     128.598     2.49300     109.400     108.499     108.000     139.878
     171.900     128.986     2.48198     102.698     102.700     105.499     139.979
     172.000     122.858     2.43600     97.1002     99.8999     101.500     140.030
     172.100     141.631     2.45000     99.6000     97.0998     100.200     140.132
     172.200     149.150     2.44700     98.6200     98.7998     98.4999     140.132
     172.300     148.146     2.51700     98.5998     99.1000     99.6000     140.132
     172.400     129.990     2.47800     100.900     99.2000     98.8200     140.183
     172.500     126.816     2.48099     101.500     99.1200     98.9000     140.132
     172.600     129.601     2.42101     100.600     99.0001     99.3000     139.548
     172.700     134.892     2.44700     99.6001     98.4000     100.000     139.040
     172.800     122.305     2.47501     101.500     99.0000     100.000     138.938
     172.900     123.364     2.42400     104.000     99.3004     100.000     139.370
     173.000     129.209     2.42100     102.300     100.300     100.700     139.725
     173.100     137.343     2.44300     102.000     100.400     101.100     139.776
     173.200     137.621     2.44600     103.300     99.4001     99.8000     139.598
     173.300     142.243     2.46700     104.600     98.9001     99.0000     139.725
     173.400     148.203     2.44402     100.100     97.1998     98.9999     140.132
     173.500     148.758     2.50200     96.5000     96.5000     98.6999     141.300
     173.600     141.519     2.54699     96.9001     96.0000     97.6001     142.443
     173.700     137.175     2.48899     99.0001     96.0000     96.5001     143.383
     173.800     141.965     2.52800     99.1999     95.9000     96.6999     144.018
     173.900     139.679     2.51301     98.4200     96.2003     98.0000     144.348
     174.000     129.878     2.52900     98.4998     97.1999     98.3000     144.704
     174.100     116.846     2.55000     101.000     98.1998     99.0200     144.856
     174.200     120.410     2.53500     102.500     99.0198     98.9999     144.882
     174.300     130.661     2.53501     101.800     99.0000     99.7998     144.323
     174.400     147.586     2.57195     102.200     99.0002     100.900     142.926
     174.500     130.715     2.47000     102.000     99.6000     101.000     141.173
     174.600     129.598     2.42400     102.600     100.100     101.200     139.014
     174.700     110.887     2.41400     103.300     101.000     101.000     137.592
     174.800     117.404     2.34700     102.400     100.300     101.300     137.033
     174.900     114.289     2.27605     101.000     100.600     101.200     137.465
     175.000     128.264     2.44301     99.9000     100.100     101.000     137.770
     175.100     132.998     2.52600     99.6997     100.500     101.800     137.312
     175.200     134.836     2.46500     101.100     101.900     101.600     135.738
     175.300     128.877     2.45800     103.400     101.901     99.0000     133.731
     175.400     128.927     2.41698     102.798     98.3989     96.6995     132.334
     175.500     117.181     2.38900     94.2001     94.2005     95.2000     133.249
     175.600     103.756     2.44000     87.7399     90.7002     93.1008     135.712
     175.700     91.9502     2.44200     86.2001     88.0004     90.5005     138.074
     175.800     94.8483     2.39600     88.5998     88.2002     89.5200     139.700
     175.900     105.266     2.43600     90.4999     90.1201     89.9002     140.106
     176.000     111.392     2.45800     89.1000     91.8000     90.7000     138.506
     176.100     103.370     2.43100     90.2998     91.4999     92.2000     137.871
     176.200     108.495     2.48400     91.9998     92.7999     92.5000     137.897
     176.300     103.814     2.48600     91.3997     93.8003     90.3002     139.319
     176.400     107.929     2.54600     94.3978     90.4991     88.8997     137.287
     176.500     85.4351     2.51900     86.9996     87.0000     88.0999     133.833
     176.600     83.5411     2.47499     79.1999     86.2001     87.0000     131.267
     176.700     87.9964     2.42299     85.1000     83.4000     85.9999     131.216
     176.800     88.7208     2.31900     88.4000     85.5000     83.8000     132.385
     176.900     89.7715     2.42600     86.7995     86.2991     83.3000     132.817
     177.000     66.4430     2.43300     84.0000     82.1999     83.6000     132.969
     177.100     72.7930     2.43700     75.6998     81.0000     83.4001     134.366
     177.200     74.4642     2.40700     78.1203     81.6000     84.9001     135.941
     177.300     86.7158     2.49299     87.1999     84.8005     85.1004     136.779
     177.400     88.6097     2.41100     90.5000     89.6002     86.8206     135.356
     177.500     86.6612     2.38900     90.5001     91.0401     91.0000     133.655
     177.600     82.2611     2.39200     91.7998     92.9002     90.9999     132.207
     177.700     65.9981     2.37500     93.1000     91.2003     88.3999     131.674
     177.800     61.5426     2.39299     89.9006     87.0996     86.9001     132.614
     177.900     73.9094     2.44302     79.1993     83.9995     85.5999     134.264
     178.000     88.0529     2.46900     76.8995     81.7999     85.0002     135.814
     178.100     87.6057     2.44400     85.0999     82.2999     84.2000     135.763
     178.200     80.1431     2.43400     88.3999     86.3997     83.7000     134.340
     178.300     77.3605     2.43900     86.7999     87.0000     84.3001     132.664
     178.400     72.5681     2.44100     84.9990     83.8995     83.5993     131.012
     178.500     66.4990     2.45800     81.3999     81.2000     80.3000     128.040
     178.600     65.6081     2.43300     79.3001     77.4000     79.8001     122.810
     178.700     73.4051     2.41100     76.5001     77.3000     78.9001     116.255
     178.800     75.3550     2.43601     76.4005     77.6998     80.4002     113.030
     178.900     75.9670     2.39899     79.5205     81.0011     82.0004     113.691
     179.000     75.9119     2.34901     83.7000     84.5002     83.0000     116.865
     179.100     78.0839     2.25000     93.0996     86.5003     83.0200     119.888
     179.200     67.7798     2.29800     87.5998     84.6201     83.3000     122.073
     179.300     53.4671     2.35700     83.0000     83.3007     83.9997     123.063
     179.400     49.2355     2.39002     83.7003     79.0000     82.2005     121.893
     179.500     52.6874     2.46099     85.3999     79.1998     83.7000     119.812
     179.600     58.8134     2.41300     83.3999     83.7000     84.1000     118.389
     179.700     62.0438     2.43500     86.0000     84.0000     84.6000     117.780
     179.800     63.9933     2.44300     92.8000     84.0003     82.7000     117.881
     179.900     62.3219     2.46897     88.9977     82.1996     82.7010     117.780
     180.000     60.3735     2.41300     80.4000     81.0000     85.5001     117.881
     180.100     57.4208     2.49200     78.2004     81.6000     83.5002     117.704
     180.200     58.1449     2.48000     84.7004     80.8000     80.2002     117.450
     180.300     58.0885     2.47500     85.2008     80.0999     80.5001     117.754
     180.400     62.9898     2.48200     79.3997     81.4998     82.0003     118.847
