#------------------------------------------------------------
~VERSION INFORMATION
VERS.               2.0  :CWLS LOG ASCII STANDARD-VERSION 2.0
WRAP.                NO  :ONE LINE PER DEPTH STEP
#------------------------------------------------------------
~WELL INFORMATION
STRT.M              0.0  :START DEPTH
STOP.M            204.0  :STOP DEPTH
STEP.M              0.1  :STEP
NULL.           -999.25  :NULL VALUE
COMP.               N/A  :COMPANY
WELL.               N/A  :WELL
 FLD.               N/A  :FIELD
 LOC.               N/A  :LOCATION
PROV.               N/A  :PROVINCE
SRVC.               N/A  :SERVICE COMPANY
DATE.               N/A  :DATE
 UWI.               N/A  :UNIQUE WELL ID
#------------------------------------------------------------
~CURVE INFORMATION
DEPT.M                   :DEPTH
MC4F.MS/F                :MC4F
MC6F.MS/F                :MC6F
GRDE.API                 :GRDE
DENL.G/CC                :DENL
ADEN.GM/CC               :ADEN
CADE.MM                  :CADE
#------------------------------------------------------------
~OTHER
#------------------------------------------------------------
~A   DEPT[M]    MC4F[MS/    MC6F[MS/    GRDE[API    DENL[G/C    ADEN[GM/    CADE[mm]
# ...
     190.000     78.2001     79.8000     124.044     2.64300     2.67269     104.623
     190.100     79.7001     81.9000     126.130     2.62001     2.63048     104.623
     190.200     82.1001     81.7000     131.122     2.49601     2.45593     104.648
     190.300     81.3999     80.2999     122.463     2.55700     2.67642     104.775
     190.400     79.6004     82.3005     111.344     2.57900     2.55384     104.775
     190.500     82.5999     84.8000     115.388     2.60200     2.47487     104.750
     190.600     83.9998     85.5000     129.289     2.64800     2.71680     104.648
     190.700     87.3998     85.8000     137.820     2.66000     2.71059     104.775
     190.800     89.8999     89.7995     129.163     2.53500     2.46438     104.775
     190.900     90.8001     96.9213     122.147     2.48899     2.44831     104.775
     191.000     98.7208     104.000     116.145     2.36299     2.34693     104.826
     191.100     111.999     110.300     102.117     2.06903     1.94077     105.105
     191.200     121.699     118.400     74.5016     1.77603     1.95317     105.258
     191.300     128.800     123.300     48.8464     1.49400     1.51610     105.486
     191.400     129.000     127.400     54.2814     1.47101     1.57645     105.232
     191.500     126.000     128.200     72.2271     1.62599     1.65028     105.156
     191.600     123.700     127.000     107.616     1.78499     1.66334     104.750
     191.700     123.000     125.200     131.439     1.97499     1.98557     104.572
     191.800     123.000     124.400     144.960     2.04600     2.08437     104.292
     191.900     123.300     125.600     141.545     2.01399     1.99499     104.165
     192.000     125.200     126.200     122.337     1.97000     1.86097     104.191
     192.100     125.300     125.900     113.049     1.96400     2.02834     104.343
     192.200     125.400     122.800     111.090     1.99200     2.08979     104.470
     192.300     121.099     117.520     119.431     2.09099     2.06329     104.470
     192.400     110.619     110.299     122.337     2.25801     2.25863     104.470
     192.500     99.9004     101.900     118.990     2.34901     2.32637     104.496
     192.600     90.2006     94.0001     107.423     2.41300     2.37232     104.597
     192.700     82.5006     85.8001     94.5324     2.33000     2.28594     104.521
     192.800     78.1000     82.1000     86.8249     2.26700     2.27476     104.800
     192.900     79.2010     83.0003     81.4540     2.25700     2.34062     104.978
     193.000     83.5004     88.2996     89.0360     2.26800     2.29411     105.410
     193.100     92.4993     96.6003     98.3892     2.20700     2.10726     105.689
     193.200     106.499     104.000     111.975     2.13600     1.98360     105.791
     193.300     115.399     114.299     135.229     2.01303     2.27329     105.461
     193.400     124.001     121.601     136.553     1.80198     1.66287     105.029
     193.500     129.000     128.000     123.479     1.62400     1.69096     104.775
     193.600     130.900     132.300     81.3863     1.52500     1.48828     104.775
     193.700     134.600     133.540     52.1293     1.49600     1.52676     104.775
     193.800     135.240     135.500     35.2603     1.43200     1.62743     104.750
     193.900     136.300     136.600     28.6890     1.38500     1.04968     104.648
     194.000     136.200     136.000     28.6257     1.40700     1.52424     104.800
     194.100     134.700     135.200     37.1563     1.48300     1.51744     104.927
     194.200     135.000     135.600     44.3603     1.42100     1.46940     104.927
     194.300     134.000     136.800     41.3277     1.42000     1.32716     104.877
     194.400     133.500     136.200     47.8985     1.42800     1.45294     104.648
     194.500     134.500     136.000     40.0630     1.37001     1.37925     104.775
     194.600     135.800     137.000     39.3691     1.31300     1.30569     104.800
     194.700     136.400     137.800     24.5821     1.30000     1.32750     104.927
     194.800     136.900     137.000     34.0601     1.30900     1.29467     104.927
     194.900     135.000     136.700     36.7783     1.34200     1.35592     105.029
     195.000     135.000     136.400     41.9593     1.34000     1.36007     105.842
     195.100     134.300     136.420     37.2199     1.37500     1.31718     106.782
     195.200     134.020     135.800     40.1899     1.35600     1.38644     105.918
     195.300     133.900     135.000     39.7469     1.33400     1.32756     104.369
     195.400     134.000     136.000     36.4608     1.32700     1.33261     102.768
     195.500     134.200     136.000     35.1972     1.30800     1.29907     102.514
     195.600     135.000     136.100     28.8782     1.32600     1.33339     102.641
     195.700     135.000     135.700     32.9232     1.33600     1.34108     102.540
     195.800     135.000     136.000     37.1559     1.35800     1.37233     102.768
     195.900     134.700     136.100     42.4013     1.36200     1.33784     102.514
     196.000     133.900     136.600     45.6873     1.37100     1.34437     102.464
     196.100     134.100     136.000     35.0088     1.37000     1.39264     102.260
     196.200     135.200     136.000     30.6488     1.32300     1.34027     102.667
     196.300     135.100     136.500     23.6329     1.32400     1.33048     102.667
     196.400     135.000     136.700     25.6560     1.32300     1.29411     102.616
     196.500     135.000     137.020     25.7821     1.34800     1.36662     102.362
     196.600     135.020     136.700     27.5499     1.35400     1.34351     102.362
     196.700     134.800     136.200     35.0069     1.34200     1.35934     102.362
     196.800     135.000     136.000     41.3270     1.35900     1.34938     102.362
     196.900     134.700     134.500     46.0030     1.35201     1.34916     102.362
     197.000     132.100     132.900     46.1302     1.40600     1.39122     102.362
     197.100     128.900     131.200     52.9543     1.46000     1.59248     102.362
     197.200     126.700     131.000     61.0433     1.50100     1.34803     102.362
     197.300     127.300     131.000     57.6938     1.52200     1.52927     102.362
     197.400     129.400     128.200     54.9140     1.49800     1.46430     102.387
     197.500     126.700     125.000     61.4199     1.58400     1.68042     102.718
     197.600     123.200     127.100     82.7780     1.61900     1.79930     103.124
     197.700     123.200     128.800     97.8180     1.62100     1.24795     103.226
     197.800     124.000     128.600     82.4613     1.63599     1.70600     102.895
     197.900     127.600     128.101     59.1420     1.50099     1.60997     102.514
     198.000     133.900     130.720     35.2603     1.31300     1.28198     102.514
     198.100     132.820     134.300     41.7059     1.29600     1.30203     102.514
     198.200     131.700     131.800     47.1409     1.31400     1.29732     102.616
     198.300     128.300     131.000     71.8480     1.36900     1.48335     102.337
     198.400     127.800     130.900     72.4798     1.39300     1.31866     102.184
     198.500     127.600     130.800     71.6581     1.41700     1.30839     102.083
     198.600     128.000     130.800     52.2581     1.42500     1.54158     102.337
     198.700     131.800     131.300     41.4521     1.33300     1.25297     102.235
     198.800     132.600     134.000     42.7171     1.30500     1.36315     102.311
     198.900     133.299     128.799     56.8104     1.33504     1.31576     102.083
     199.000     125.301     122.400     90.4239     1.55302     1.71100     102.286
     199.100     115.400     115.900     126.764     1.90098     1.96146     101.702
     199.200     104.900     108.600     152.989     2.18098     1.99606     101.244
     199.300     94.2999     100.101     170.175     2.41200     2.40007     100.686
     199.400     90.4999     92.7395     176.872     2.52400     2.51212     100.559
