#------------------------------------------------------------
~VERSION INFORMATION
VERS.               2.0  :CWLS LOG ASCII STANDARD-VERSION 2.0
WRAP.                NO  :ONE LINE PER DEPTH STEP
#------------------------------------------------------------
~WELL INFORMATION
STRT.M              0.0  :START DEPTH
STOP.M            204.0  :STOP DEPTH
STEP.M              0.1  :STEP
NULL.           -999.25  :NULL VALUE
COMP.               N/A  :COMPANY
WELL.               N/A  :WELL
 FLD.               N/A  :FIELD
 LOC.               N/A  :LOCATION
PROV.               N/A  :PROVINCE
SRVC.               N/A  :SERVICE COMPANY
DATE.               N/A  :DATE
 UWI.               N/A  :UNIQUE WELL ID
#------------------------------------------------------------
~CURVE INFORMATION
DEPT.M                   :DEPTH
MC4F.MS/F                :MC4F
MC6F.MS/F                :MC6F
GRDE.API                 :GRDE
DENL.G/CC                :DENL
ADEN.GM/CC               :ADEN
CADE.MM                  :CADE
#------------------------------------------------------------
~OTHER
#------------------------------------------------------------
~A   DEPT[M]    MC4F[MS/    MC6F[MS/    GRDE[API    DENL[G/C    ADEN[GM/    CADE[mm]
# ...
     104.500     85.0000     88.6000     111.343     2.50200     2.48978     121.082
     104.600     85.7000     87.3000     108.246     2.46200     2.45106     120.929
     104.700     86.0002     96.4032     111.028     2.50900     2.54517     120.853
     104.800     89.5001     132.000     121.075     2.49200     2.47816     121.107
     104.900     90.8000     132.000     126.951     2.48600     2.44726     121.082
     105.000     92.1000     134.000     134.344     2.53300     2.56859     120.904
     105.100     93.0000     132.100     116.272     2.47100     2.48636     120.650
     105.200     86.2997     130.100     101.167     2.49700     2.51806     120.675
     105.300     78.3999     127.799     80.5689     2.52200     2.47443     120.828
     105.400     75.0000     105.300     74.0597     2.55700     2.55514     120.955
     105.500     77.5001     96.0000     86.9508     2.49900     2.46534     120.955
     105.600     84.8001     96.0000     100.979     2.49200     2.52805     121.006
     105.700     93.5003     96.0200     128.784     2.52399     2.51689     121.310
     105.800     96.5200     96.0000     137.251     2.46700     2.47609     121.590
     105.900     96.0000     96.5000     132.006     2.45700     2.48417     121.717
     106.000     95.3000     97.0001     123.412     2.46900     2.45145     121.742
     106.100     94.8000     95.8001     118.483     2.47900     2.47479     121.895
     106.200     93.8998     92.8000     124.234     2.47700     2.47511     121.996
     106.300     90.6000     92.6000     112.922     2.48300     2.56195     121.895
     106.400     90.9000     93.5000     105.971     2.49400     2.38695     122.022
     106.500     91.2000     92.4000     113.934     2.46300     2.44182     122.098
     106.600     90.5000     93.3000     133.207     2.52000     2.58848     122.479
     106.700     96.8001     95.3004     145.403     2.55900     2.54809     122.631
     106.800     98.3000     98.6001     148.626     2.52800     2.47943     122.784
     106.900     98.3001     99.8000     143.318     2.43700     2.48028     122.911
     107.000     101.700     101.300     145.656     2.44100     2.43026     122.911
     107.100     103.000     101.800     152.796     2.45500     2.45537     122.911
     107.200     100.800     101.800     157.662     2.41800     2.45467     122.961
     107.300     101.000     102.140     166.066     2.45400     2.43665     123.266
     107.400     101.240     101.600     155.071     2.45400     2.40804     123.495
     107.500     98.7000     99.8000     156.018     2.48900     2.53678     123.292
     107.600     99.0000     97.9000     135.165     2.44600     2.44394     122.834
     107.700     97.4997     97.2999     136.367     2.45700     2.44593     122.377
     107.800     94.0000     96.2999     138.831     2.39301     2.40052     122.022
     107.900     93.2000     95.0000     154.946     2.46800     2.45127     121.945
     108.000     93.7000     93.6000     145.971     2.45400     2.44781     121.691
     108.100     92.8000     93.4000     130.299     2.45600     2.49639     121.463
     108.200     92.8000     93.4000     116.967     2.46300     2.45461     121.133
     108.300     92.4999     93.1000     117.725     2.45100     2.40165     121.285
     108.400     91.6000     93.0000     114.439     2.48600     2.53738     121.412
     108.500     92.1000     90.4000     118.041     2.45600     2.42862     121.387
     108.600     89.2000     90.3000     119.431     2.42100     2.45123     121.260
     108.700     88.1998     87.7999     106.160     2.48000     2.43462     121.260
     108.800     84.5999     86.2999     92.6370     2.46400     2.49894     121.260
     108.900     82.3000     85.5201     82.5289     2.50700     2.50762     121.260
     109.000     83.8200     84.4999     101.295     2.42699     2.41527     121.260
     109.100     83.8000     86.3999     104.013     2.55299     2.52334     121.260
     109.200     87.4001     86.8001     124.803     2.43200     2.46276     121.260
     109.300     88.9001     88.5001     123.980     2.45400     2.44591     121.260
     109.400     89.8000     89.8000     117.156     2.45700     2.49338     121.260
     109.500     90.0000     90.0000     109.763     2.43500     2.39200     121.234
     109.600     88.8000     90.1000     120.506     2.46700     2.47967     121.133
     109.700     89.3001     90.0001     144.708     2.51000     2.51710     121.260
     109.800     90.1000     90.7000     141.420     2.43100     2.40590     121.260
     109.900     90.1000     91.1000     129.542     2.45700     2.47633     121.234
     110.000     90.8000     91.6000     114.060     2.41500     2.41797     121.082
     110.100     91.1000     92.0000     126.193     2.46200     2.44949     120.955
     110.200     91.6000     91.9000     123.728     2.41400     2.43680     120.955
     110.300     91.3001     92.4000     132.449     2.45100     2.44030     120.980
     110.400     92.0000     93.0000     127.267     2.42200     2.42869     121.133
     110.500     92.2000     92.9200     131.627     2.39399     2.36860     121.234
     110.600     92.5200     93.7000     132.638     2.49299     2.52327     121.107
     110.700     93.8000     93.7995     127.457     2.45700     2.43144     121.082
     110.800     93.9998     90.0000     128.783     2.41700     2.42511     120.955
     110.900     87.9000     89.0000     120.316     2.48200     2.54159     120.955
     111.000     86.2000     89.3000     109.825     2.48600     2.44012     120.980
     111.100     85.6000     90.0000     100.978     2.43600     2.37633     121.107
     111.200     85.3007     89.5000     107.616     2.52100     2.54846     121.158
     111.300     92.2003     89.4005     123.540     2.46000     2.49155     121.412
     111.400     95.4000     94.0000     145.467     2.43800     2.41929     121.463
     111.500     95.3000     95.0000     159.621     2.43700     2.44447     121.717
     111.600     94.0000     94.6000     156.524     2.42300     2.41371     121.691
     111.700     93.7999     93.4999     142.495     2.42800     2.45691     121.590
     111.800     92.2998     92.6999     124.106     2.44100     2.44443     121.717
     111.900     90.2000     92.0000     116.904     2.46200     2.44474     121.768
     112.000     90.0000     92.1200     112.164     2.46200     2.44907     122.022
     112.100     91.0200     92.2000     109.573     2.41800     2.42560     121.996
     112.200     92.3001     92.5000     113.998     2.44800     2.45915     121.869
     112.300     93.0000     92.5000     117.915     2.49000     2.45314     121.869
     112.400     92.8000     92.9000     125.687     2.53000     2.59910     121.920
     112.500     92.0000     93.1000     118.420     2.43800     2.38143     122.098
     112.600     91.9000     92.8000     115.640     2.48000     2.46993     121.895
     112.700     91.3000     93.0000     115.579     2.48799     2.52503     121.971
     112.800     92.7000     92.2000     136.177     2.41601     2.39396     121.945
     112.900     93.0000     92.8000     142.370     2.46700     2.49153     122.250
     113.000     92.8000     93.5000     151.722     2.43600     2.41436     122.072
     113.100     93.0000     93.3000     146.540     2.46500     2.45810     122.276
     113.200     92.7000     93.4001     140.979     2.44100     2.46648     122.225
     113.300     93.0001     94.0003     143.381     2.46800     2.45639     122.453
     113.400     93.7001     96.9000     139.083     2.44300     2.45250     122.530
     113.500     97.6999     99.4000     123.286     2.44300     2.42268     122.784
     113.600     101.300     99.4400     115.261     2.43600     2.44748     122.911
     113.700     101.740     97.5999     120.888     2.43301     2.43152     122.885
     113.800     97.6997     96.3999     155.197     2.49299     2.50729     122.758
     113.900     92.7002     95.7000     144.013     2.41500     2.38968     122.758
