#------------------------------------------------------------
~VERSION INFORMATION
VERS.               2.0  :CWLS LOG ASCII STANDARD-VERSION 2.0
WRAP.                NO  :ONE LINE PER DEPTH STEP
#------------------------------------------------------------
~WELL INFORMATION
STRT.M              0.0  :START DEPTH
STOP.M            234.0  :STOP DEPTH
STEP.M              0.1  :STEP
NULL.           -999.25  :NULL VALUE
COMP.               N/A  :COMPANY
WELL.               N/A  :WELL
 FLD.               N/A  :FIELD
 LOC.               N/A  :LOCATION
PROV.               N/A  :PROVINCE
SRVC.               N/A  :SERVICE COMPANY
DATE.               N/A  :LOG DATE
 UWI.               N/A  :UNIQUE WELL ID
#------------------------------------------------------------
~CURVE INFORMATION
DEPT.M                   :DEPTH
GRDE.API                 :GRDE
DENL.G/CC                :DENL
MC2F.USFT                :MC2F
MC4F.MS/F                :MC4F
MC6F.MS/F                :MC6F
CADE.MM                  :CADE
#------------------------------------------------------------
~OTHER
#------------------------------------------------------------
~A   DEPT[M]    GRDE[API    DENL[G/C    MC2F[uSF    MC4F[MS/    MC6F[MS/    CADE[mm]
# ...
     95.0000     136.060     2.38200     102.500     95.6000     96.0000     136.804
     95.1000     125.535     2.45000     98.5000     95.0000     96.2000     137.058
     95.2000     137.339     2.41700     94.5002     94.6998     96.0999     137.541
     95.3000     118.020     2.40300     95.6000     93.1002     95.2999     137.693
     95.4000     127.930     2.42200     96.8998     93.3000     93.7000     137.770
     95.5000     122.249     2.50400     94.7000     93.1000     94.8000     137.719
     95.6000     129.935     2.47700     94.5001     93.8000     95.8000     137.947
     95.7000     127.429     2.50600     97.0002     95.0003     96.8001     138.024
     95.8000     127.822     2.45400     98.7002     97.4000     97.5003     138.278
     95.9000     145.474     2.44700     100.700     99.1000     99.6000     138.430
     96.0000     154.496     2.47300     103.400     100.500     100.800     138.557
     96.1000     155.834     2.49200     103.020     101.700     102.300     138.633
     96.2000     138.342     2.40597     103.200     102.800     106.602     138.506
     96.3000     117.849     2.22200     105.301     108.300     112.520     138.430
     96.4000     107.435     1.96199     115.600     116.821     117.600     138.557
     96.5000     99.1361     1.72300     130.700     124.700     123.200     138.709
     96.6000     105.042     1.69199     139.200     131.800     127.000     138.887
     96.7000     119.306     1.85000     135.700     132.700     129.800     139.141
     96.8000     150.319     2.11699     134.200     128.900     129.300     139.370
     96.9000     167.417     2.30100     131.200     124.200     125.800     139.776
     97.0000     168.027     2.33300     124.000     120.700     123.700     140.030
     97.1000     147.367     2.26900     119.100     118.300     122.000     140.208
     97.2000     138.568     2.27100     121.800     117.100     120.900     140.437
     97.3000     135.339     2.26900     122.700     119.000     119.900     140.640
     97.4000     138.513     2.25200     123.200     120.200     122.800     141.351
     97.5000     149.038     2.25000     123.100     123.100     123.800     141.478
     97.6000     140.796     2.27500     125.700     124.700     125.600     141.554
     97.7000     136.563     2.11395     128.900     126.600     126.800     141.478
     97.8000     116.126     1.96197     129.840     128.900     128.700     141.605
     97.9000     114.062     1.80200     131.100     129.200     129.700     141.478
     98.0000     102.478     1.58800     134.200     129.700     131.540     141.122
     98.1000     98.2464     1.50899     134.200     132.240     132.800     141.021
     98.2000     86.2715     1.63803     136.400     133.400     132.300     141.097
     98.3000     93.6827     1.83102     139.900     131.100     129.500     141.224
     98.4000     120.968     2.06400     134.600     126.900     125.300     140.894
     98.5000     120.300     2.14500     121.800     119.400     124.000     140.564
     98.6000     123.478     2.14001     112.200     116.100     123.500     140.564
     98.7000     99.5292     2.07000     118.301     117.700     119.900     140.716
     98.8000     120.021     2.07201     128.799     118.800     115.900     141.046
     98.9000     125.591     2.21198     125.220     118.000     114.600     140.767
     99.0000     151.823     2.36600     111.000     112.300     113.000     140.792
     99.1000     141.464     2.44200     103.100     105.100     109.320     140.538
     99.2000     136.674     2.47600     102.900     101.720     105.000     140.360
     99.3000     129.603     2.44802     102.900     102.100     103.300     139.878
     99.4000     138.011     2.51600     104.100     102.600     103.000     138.963
     99.5000     143.580     2.46000     104.600     102.700     103.000     138.430
     99.6000     132.386     2.45100     104.620     102.800     103.000     138.125
     99.7000     135.727     2.50200     104.700     102.200     103.100     138.278
     99.8000     136.451     2.46002     103.100     102.200     102.620     138.328
     99.9000     132.441     2.50600     103.200     101.820     101.900     137.998
     100.000     123.085     2.45200     102.900     100.900     102.300     137.439
     100.100     115.676     2.46600     103.100     101.500     102.200     136.677
     100.200     126.987     2.40701     103.900     101.500     101.700     136.220
     100.300     142.968     2.48499     103.200     101.200     102.100     135.763
     100.400     153.438     2.46800     102.500     101.100     101.900     135.661
     100.500     156.724     2.41300     102.400     101.200     102.200     135.280
     100.600     145.084     2.47400     103.400     101.400     101.500     135.153
     100.700     145.582     2.46900     103.700     101.000     101.600     135.103
     100.800     131.996     2.43400     102.300     101.600     102.000     135.357
     100.900     127.708     2.44100     102.400     101.200     102.100     135.433
     101.000     118.184     2.47300     104.100     101.100     101.500     135.331
     101.100     125.090     2.44900     102.700     101.000     100.800     135.331
     101.200     123.365     2.49000     102.200     99.4998     100.300     135.382
     101.300     133.942     2.48600     100.020     98.6000     99.9000     135.509
     101.400     121.414     2.46400     98.8000     98.0000     99.5999     135.230
     101.500     125.368     2.44200     99.2000     98.8000     98.8200     135.407
     101.600     123.530     2.43800     101.000     98.0200     98.3000     135.230
     101.700     127.540     2.46602     99.8996     98.2000     98.1000     135.458
     101.800     126.814     2.52798     98.0001     97.3001     98.2000     135.458
     101.900     115.399     2.44800     98.0000     96.6000     98.5000     135.458
     102.000     109.272     2.45800     98.5002     98.0001     99.2000     135.357
     102.100     97.0200     2.43900     101.500     99.6999     98.6000     135.103
     102.200     95.8500     2.50099     105.100     98.4000     98.2000     135.331
     102.300     95.9628     2.45200     99.6997     97.8999     98.3002     135.331
     102.400     120.578     2.42300     95.1001     96.3000     100.000     135.280
     102.500     123.809     2.44100     97.2999     96.8000     99.5000     135.153
     102.600     136.618     2.39700     103.400     98.8000     99.2000     134.874
     102.700     131.606     2.44001     105.200     100.800     99.3997     134.010
     102.800     126.426     2.47800     103.300     100.100     97.6000     132.639
     102.900     123.864     2.45600     99.8002     94.5001     96.7001     131.166
     103.000     102.589     2.42699     91.0003     92.5000     94.3000     130.175
     103.100     101.364     2.36700     88.3103     89.5000     92.2001     129.489
     103.200     87.2732     2.39300     91.6997     88.4000     88.9995     129.540
     103.300     93.0080     2.37801     89.9995     88.0996     86.3102     129.946
     103.400     86.4930     2.44600     85.6998     85.1098     87.0000     130.759
     103.500     85.0449     2.41800     82.0000     84.2001     85.4000     131.318
     103.600     84.1540     2.39200     84.8002     83.1998     85.7000     131.775
     103.700     83.8759     2.44700     87.8001     85.4000     84.5000     132.080
     103.800     81.2573     2.43800     88.5995     85.3999     85.0000     131.953
     103.900     73.0710     2.43800     85.9999     84.8000     85.3000     131.877
     104.000     72.4030     2.47900     83.9000     83.9000     85.0000     131.597
     104.100     75.5217     2.46000     85.7000     83.4000     85.3000     131.851
     104.200     77.1368     2.47600     86.2002     84.9000     84.5999     132.029
     104.300     75.4647     2.43102     87.4997     84.6000     84.0001     132.232
     104.400     67.0000     2.48500     86.4999     83.5000     84.0000     132.080
