#------------------------------------------------------------
~VERSION INFORMATION
VERS.               2.0  :CWLS LOG ASCII STANDARD-VERSION 2.0
WRAP.                NO  :ONE LINE PER DEPTH STEP
#------------------------------------------------------------
~WELL INFORMATION
STRT.M              0.0  :START DEPTH
STOP.M            234.0  :STOP DEPTH
STEP.M              0.1  :STEP
NULL.           -999.25  :NULL VALUE
COMP.               N/A  :COMPANY
WELL.               N/A  :WELL
 FLD.               N/A  :FIELD
 LOC.               N/A  :LOCATION
PROV.               N/A  :PROVINCE
SRVC.               N/A  :SERVICE COMPANY
DATE.               N/A  :LOG DATE
 UWI.               N/A  :UNIQUE WELL ID
#------------------------------------------------------------
~CURVE INFORMATION
DEPT.M                   :DEPTH
GRDE.API                 :GRDE
DENL.G/CC                :DENL
MC2F.USFT                :MC2F
MC4F.MS/F                :MC4F
MC6F.MS/F                :MC6F
CADE.MM                  :CADE
#------------------------------------------------------------
~OTHER
#------------------------------------------------------------
~A   DEPT[M]    GRDE[API    DENL[G/C    MC2F[uSF    MC4F[MS/    MC6F[MS/    CADE[mm]
# ...
     199.500     105.541     2.51901     96.5999     95.5000     93.2001     116.942
     199.600     111.166     2.44000     93.4001     95.2001     96.6002     116.815
     199.700     115.286     2.43500     92.8001     94.0001     94.2001     116.789
     199.800     120.521     2.43700     96.6000     92.9998     94.4000     116.662
     199.900     112.167     2.44000     96.5005     95.0000     94.7000     116.662
     200.000     106.207     2.45600     98.7000     94.9000     94.4000     116.688
     200.100     116.847     2.49200     96.4997     93.2000     93.8998     116.815
     200.200     116.847     2.53600     93.9997     92.6001     95.9998     116.815
     200.300     124.309     2.50100     93.5000     92.5000     94.2002     116.789
     200.400     113.007     2.53000     93.9408     92.6002     93.6000     116.688
     200.500     127.150     2.52000     95.8001     93.1000     93.7002     116.815
     200.600     127.207     2.50897     97.1004     93.2000     93.1402     116.840
     200.700     123.864     2.40798     94.1003     93.2400     94.1001     116.916
     200.800     124.199     2.45500     93.9999     93.1001     94.0000     116.688
     200.900     126.373     2.47300     95.5001     92.5001     93.5002     116.789
     201.000     133.722     2.47900     95.9001     92.9999     94.4002     116.688
     201.100     134.001     2.48900     94.3999     93.8999     95.5000     116.789
     201.200     130.826     2.46300     96.5997     95.0998     96.0000     116.688
     201.300     128.153     2.46000     98.8000     96.2000     95.3000     116.840
     201.400     125.201     2.45501     99.0996     96.0994     94.9000     116.916
     201.500     126.427     2.49500     97.9003     94.1000     94.6000     116.637
     201.600     120.244     2.51200     95.3004     92.9000     94.4001     116.459
     201.700     118.351     2.47300     93.1003     92.1000     93.7001     116.383
     201.800     110.998     2.54700     92.2999     91.2000     92.8999     116.688
     201.900     121.748     2.52398     93.5000     91.3001     92.2000     116.815
     202.000     121.192     2.47500     94.4400     92.0000     92.4999     116.840
     202.100     127.262     2.51299     93.7000     92.9000     93.0999     116.916
     202.200     125.201     2.43799     93.7000     92.9000     93.9399     116.688
     202.300     123.252     2.44100     94.0999     93.1400     94.3000     116.789
     202.400     124.087     2.48802     95.9000     93.5999     93.5000     116.688
     202.500     124.867     2.53001     95.7001     93.2000     93.4000     116.789
     202.600     123.308     2.46300     94.2000     93.0000     94.4000     116.662
     202.700     123.419     2.49900     92.4000     93.5000     94.6000     116.586
     202.800     118.630     2.46500     94.4001     93.8000     94.4000     115.850
     202.900     110.605     2.44800     97.2999     94.1997     92.6000     113.562
     203.000     103.479     2.42100     96.6994     92.9002     92.9000     109.855
     203.100     108.547     2.40800     90.8998     92.1000     94.0000     106.629
     203.200     118.069     2.43801     89.6993     92.0000     94.1000     104.877
     203.300     134.893     2.51000     96.2000     92.2003     94.1000     104.750
     203.400     122.308     2.54599     97.2000     95.4002     93.8006     104.902
     203.500     130.879     2.50800     97.8000     95.9000     95.9000     104.902
     203.600     107.324     2.55901     97.7999     96.0002     95.7999     105.029
     203.700     113.227     2.50501     96.7402     94.8002     93.2999     104.902
     203.800     98.1346     2.54100     94.5001     91.1000     93.2998     104.877
     203.900     107.546     2.47703     90.0003     90.9999     92.4396     104.724
     204.000     100.751     2.56198     91.5001     90.2402     90.7000     104.750
     204.100     99.6370     2.48201     94.6002     88.4999     89.4001     104.902
     204.200     97.1312     2.53401     89.1003     89.3997     88.7000     104.902
     204.300     92.7872     2.52400     87.9000     87.0000     89.8001     105.029
     204.400     87.1052     2.48700     88.3003     86.9000     87.3998     104.902
     204.500     83.3755     2.55601     89.6002     86.9997     85.9000     104.877
     204.600     88.2760     2.51900     88.6005     84.7001     85.0001     104.750
     204.700     90.6145     2.53900     83.3008     83.3001     84.4000     104.902
     204.800     87.0508     2.56700     80.8000     81.7000     83.8000     104.877
     204.900     80.3151     2.57000     82.5003     81.3003     83.2000     104.699
     205.000     90.6145     2.55401     84.1000     82.8000     83.0000     104.419
     205.100     88.4431     2.49300     85.1000     84.3000     83.9999     104.445
     205.200     90.0024     2.48100     86.7999     84.4000     85.5000     104.572
     205.300     79.9219     2.49100     87.5201     86.1999     86.9000     104.572
     205.400     89.1676     2.47100     89.0003     87.2000     87.2000     104.572
     205.500     92.2860     2.52800     90.9999     87.0000     87.1200     104.597
     205.600     90.9542     2.49500     89.9999     87.2201     87.4000     104.750
     205.700     72.7986     2.53299     87.3999     86.7001     87.4000     104.877
     205.800     68.6714     2.48100     87.0998     85.6000     87.1000     104.750
     205.900     66.3375     2.44701     88.1000     85.5002     86.5999     104.851
     206.000     77.1372     2.48100     88.2000     86.3000     86.0000     104.623
     206.100     78.1391     2.46100     88.0000     85.9000     86.1999     104.877
     206.200     89.2231     2.45601     87.3000     85.1000     86.9000     104.750
     206.300     90.3334     2.53300     87.1999     86.0000     85.9003     104.902
     206.400     103.922     2.44402     87.7992     84.5998     84.6995     104.877
     206.500     95.1808     2.50600     85.9000     83.5004     82.8999     104.750
     206.600     88.5567     2.47102     83.6003     81.0005     81.0003     104.851
     206.700     72.2398     2.59101     79.2002     77.3004     76.1001     104.623
     206.800     62.1550     2.55201     75.2007     71.0993     72.6993     104.851
     206.900     53.5780     2.60001     68.9080     66.9997     68.6991     104.623
     207.000     53.5227     2.62100     63.6101     63.6002     65.5001     104.877
     207.100     47.8968     2.67602     63.3999     60.3000     63.4100     104.750
     207.200     51.2383     2.73602     62.3000     60.1101     61.9100     104.851
     207.300     46.5614     2.63500     61.1994     61.4102     64.5994     104.623
     207.400     59.8723     2.61100     64.2034     65.1014     68.6012     104.877
     207.500     63.2125     2.59400     72.7005     71.3997     72.2005     104.750
     207.600     77.8606     2.56600     81.2991     77.5993     76.1998     104.877
     207.700     72.5693     2.55100     85.8990     82.0993     80.1000     104.724
     207.800     78.0844     2.50900     85.2000     84.0000     82.6999     104.724
     207.900     69.2853     2.52201     85.8000     83.9000     84.2000     104.546
     208.000     71.5670     2.56800     86.0000     83.8000     84.2000     104.445
     208.100     72.4024     2.50500     85.9001     83.5006     82.8000     104.597
     208.200     78.6408     2.53199     84.2004     81.1004     83.0000     104.750
     208.300     82.0932     2.50100     80.8998     81.3000     82.9000     104.877
     208.400     76.6360     2.52700     81.7003     81.2000     82.2000     104.724
     208.500     76.7451     2.52600     84.2999     81.3001     82.1000     104.724
     208.600     70.3419     2.53002     84.7100     82.9000     82.6000     104.775
     208.700     73.3497     2.45401     84.6000     83.2000     83.4999     105.029
     208.800     67.8360     2.45199     85.2000     83.3000     83.7100     104.902
     208.900     68.1705     2.47903     85.2998     83.4098     83.6000     105.004
