#------------------------------------------------------------
~VERSION INFORMATION
VERS.               2.0  :CWLS LOG ASCII STANDARD-VERSION 2.0
WRAP.                NO  :ONE LINE PER DEPTH STEP
#------------------------------------------------------------
~WELL INFORMATION
STRT.M              0.0  :START DEPTH
STOP.M            185.2  :STOP DEPTH
STEP.M              0.1  :STEP
NULL.           -999.25  :NULL VALUE
COMP.               N/A  :COMPANY
WELL.               N/A  :WELL
 FLD.               N/A  :FIELD
 LOC.               N/A  :LOCATION
PROV.               N/A  :PROVINCE
SRVC.               N/A  :SERVICE COMPANY
DATE.               N/A  :DATE
 UWI.               N/A  :UNIQUE WELL ID
#------------------------------------------------------------
~CURVE INFORMATION
DEPT.M                   :DEPTH
MC2F.USFT                :MC2F
MC4F.MS/F                :MC4F
MC6F.MS/F                :MC6F
GRDE.API                 :GRDE
ADEN.GM/CC               :ADEN
DENL.G/CC                :DENL
CADE.MM                  :CADE
#------------------------------------------------------------
~OTHER
#------------------------------------------------------------
~A   DEPT[M]    MC2F[uSF    MC4F[MS/    MC6F[MS/    GRDE[API    ADEN[GM/    DENL[G/C    CADE[mm]
# ...
     83.0000     133.699     127.600     129.100     172.882     2.34823     2.39001     122.530
     83.1000     126.000     123.700     125.820     183.639     2.46144     2.44600     122.530
     83.2000     122.800     119.820     122.800     162.189     2.53327     2.51800     122.504
     83.3000     122.600     117.200     118.800     149.694     2.53005     2.49500     122.428
     83.4000     121.400     115.000     116.100     151.693     2.49096     2.47000     122.657
     83.5000     117.300     112.400     115.700     173.784     2.50232     2.49300     122.631
     83.6000     114.200     112.300     116.400     175.974     2.44774     2.47500     122.961
     83.7000     115.800     113.900     114.800     165.795     2.44114     2.44100     122.834
     83.8000     121.400     113.500     114.900     146.215     2.42426     2.44600     122.784
     83.9000     120.000     115.200     115.700     130.306     2.41937     2.44100     122.504
     84.0000     117.620     115.500     116.500     133.463     2.45720     2.39600     122.403
     84.1000     119.200     113.800     113.800     150.404     2.39751     2.43000     122.580
     84.2000     118.699     110.500     109.620     164.057     2.50387     2.48799     122.834
     84.3000     112.299     105.520     108.800     158.067     2.42039     2.41001     122.834
     84.4000     103.100     103.500     107.800     150.274     2.46287     2.45700     122.784
     84.5000     104.101     102.000     107.300     151.562     2.37756     2.42200     122.555
     84.6000     110.140     104.900     104.900     151.562     2.40422     2.41600     122.657
     84.7000     113.000     105.600     104.900     136.360     2.43712     2.41900     122.555
     84.8000     109.600     105.300     106.240     126.119     2.48367     2.48000     122.657
     84.9000     105.800     103.940     105.400     125.476     2.48248     2.45700     122.530
     85.0000     107.200     101.100     103.700     135.137     2.51620     2.53200     122.555
     85.1000     105.000     100.400     102.800     134.042     2.48319     2.49600     122.682
     85.2000     102.400     101.000     103.300     130.499     2.46907     2.42900     122.682
     85.3000     105.500     101.500     104.900     129.534     2.48518     2.47900     122.657
     85.4000     108.600     104.600     106.500     141.127     2.38052     2.42400     122.530
     85.5000     111.201     108.300     108.300     142.352     2.40248     2.38000     122.555
     85.6000     116.300     110.000     108.800     152.399     2.36371     2.38200     122.657
     85.7000     117.299     109.100     110.300     142.995     2.45694     2.44300     122.530
     85.8000     111.400     109.899     107.600     126.054     2.37413     2.48600     122.504
     85.9000     110.000     103.299     102.300     113.559     2.56609     2.49001     122.403
     86.0000     103.200     94.7001     101.200     118.262     2.61384     2.55400     122.530
     86.1000     86.9099     96.2000     100.500     145.056     2.47041     2.48400     122.555
     86.2000     94.4009     95.4003     101.400     142.610     2.47618     2.50799     122.657
     86.3000     111.420     100.000     99.7200     152.593     2.46108     2.43400     122.555
     86.4000     111.600     105.820     101.400     151.948     2.41280     2.39700     122.657
     86.5000     108.600     104.900     108.720     155.749     2.41939     2.40100     122.530
     86.6000     106.200     107.120     107.100     151.304     2.34381     2.43900     122.504
     86.7000     112.200     104.600     106.000     154.203     2.48221     2.44100     122.326
     86.8000     110.100     104.700     106.100     159.099     2.43253     2.44000     121.996
     86.9000     104.500     105.900     107.400     169.082     2.48489     2.42899     121.564
     87.0000     109.000     105.200     108.900     168.179     2.36574     2.38200     121.336
     87.1000     113.400     108.100     107.100     161.738     2.34135     2.36900     121.488
     87.2000     113.200     108.000     107.700     142.865     2.36918     2.36000     121.590
     87.3000     110.500     107.000     106.800     136.425     2.34639     2.37200     121.412
     87.4000     108.600     103.400     105.000     137.520     2.41974     2.37001     121.183
     87.5000     104.800     101.000     102.800     140.870     2.35087     2.42100     121.336
     87.6000     101.000     98.8000     101.200     145.507     2.46669     2.41000     121.514
     87.7000     100.400     97.0000     100.100     142.931     2.32822     2.36900     121.717
     87.8000     102.100     97.4001     99.0000     138.036     2.39779     2.37800     121.437
     87.9000     102.600     98.1000     98.9000     149.823     2.40140     2.41100     121.183
     88.0000     100.820     97.9000     99.1000     146.088     2.43863     2.44499     120.574
     88.1000     101.000     97.6000     100.000     152.077     2.43473     2.38100     119.964
     88.2000     101.800     98.6000     99.9201     131.142     2.35244     2.38500     119.355
     88.3000     103.100     99.2201     101.200     121.739     2.39496     2.36600     118.872
     88.4000     104.200     101.400     102.200     117.936     2.30133     2.33101     119.126
     88.5000     106.200     101.899     96.6993     93.6548     2.34922     2.41801     119.914
     88.6000     108.300     93.3004     89.6000     89.9187     2.46527     2.49800     120.828
     88.7000     85.8993     82.1994     85.2000     77.6820     2.56889     2.46001     121.463
     88.8000     64.0005     74.7000     85.7999     96.8123     2.61192     2.57400     121.463
     88.9000     69.5015     74.3005     83.8000     100.421     2.49418     2.54598     121.412
     89.0000     88.9013     82.8007     83.6003     125.799     2.45033     2.44400     121.107
     89.1000     102.000     93.1002     89.5002     144.670     2.45798     2.45200     120.777
     89.2000     102.400     99.4001     96.6003     152.206     2.41244     2.42500     120.498
     89.3000     102.200     100.100     101.200     145.635     2.46086     2.48201     120.345
     89.4000     104.020     100.700     96.6000     112.851     2.49000     2.53499     120.244
     89.5000     105.099     93.9999     95.9000     120.901     2.65089     2.49700     120.269
     89.6000     90.5102     92.8000     96.0200     111.884     2.46722     2.52700     119.710
     89.7000     85.6012     92.4200     96.9000     125.476     2.51109     2.51700     119.380
     89.8000     99.2002     92.2002     97.0200     136.103     2.46409     2.47800     119.024
     89.9000     103.200     100.020     97.3003     139.582     2.43217     2.42000     119.177
     90.0000     107.200     102.900     101.800     157.809     2.39341     2.35900     119.355
     90.1000     109.400     102.500     102.400     137.069     2.29619     2.36800     119.609
     90.2000     106.099     101.900     101.500     137.066     2.36973     2.40201     119.583
     90.3000     100.800     98.1995     96.4997     110.661     2.40185     2.46200     119.405
     90.4000     97.9993     89.6997     93.8997     125.090     2.70768     2.50300     119.126
     90.5000     84.6999     87.4997     89.7998     132.432     2.47794     2.59599     118.974
     90.6000     83.3999     84.1000     87.7000     136.683     2.59649     2.51700     118.847
     90.7000     89.1998     82.4004     86.1000     135.844     2.40056     2.48399     118.897
     90.8000     86.5005     86.7001     86.6003     127.795     2.48459     2.38400     119.177
     90.9000     91.9007     88.1003     92.1001     134.300     2.27137     2.29500     119.329
     91.0000     97.9003     93.2002     93.4000     126.247     2.24611     2.31301     119.405
     91.1000     102.300     96.6001     93.3999     114.074     2.35972     2.40000     119.151
     91.2000     101.799     94.1000     95.3001     113.172     2.47681     2.38600     119.126
