#------------------------------------------------------------
~VERSION INFORMATION
VERS.               2.0  :CWLS LOG ASCII STANDARD-VERSION 2.0
WRAP.                NO  :ONE LINE PER DEPTH STEP
#------------------------------------------------------------
~WELL INFORMATION
STRT.M              0.0  :START DEPTH
STOP.M            234.0  :STOP DEPTH
STEP.M              0.1  :STEP
NULL.           -999.25  :NULL VALUE
COMP.               N/A  :COMPANY
WELL.               N/A  :WELL
 FLD.               N/A  :FIELD
 LOC.               N/A  :LOCATION
PROV.               N/A  :PROVINCE
SRVC.               N/A  :SERVICE COMPANY
DATE.               N/A  :LOG DATE
 UWI.               N/A  :UNIQUE WELL ID
#------------------------------------------------------------
~CURVE INFORMATION
DEPT.M                   :DEPTH
GRDE.API                 :GRDE
DENL.G/CC                :DENL
MC2F.USFT                :MC2F
MC4F.MS/F                :MC4F
MC6F.MS/F                :MC6F
CADE.MM                  :CADE
#------------------------------------------------------------
~OTHER
#------------------------------------------------------------
~A   DEPT[M]    GRDE[API    DENL[G/C    MC2F[uSF    MC4F[MS/    MC6F[MS/    CADE[mm]
# ...
     38.0000     78.3615     1.90500     163.200     165.500     163.900     145.110
     38.1000     79.0865     1.90200     164.200     165.000     163.200     145.059
     38.2000     82.4273     1.89400     164.000     163.000     163.200     144.958
     38.3000     72.6262     1.92300     162.800     162.900     161.800     144.958
     38.4000     70.1743     2.02000     161.500     160.500     163.100     144.907
     38.5000     63.0458     2.10700     159.000     162.900     163.400     144.780
     38.6000     57.3642     2.09999     163.000     164.000     162.500     144.653
     38.7000     51.5731     1.99100     168.200     162.600     162.000     144.704
     38.8000     52.6875     1.87501     168.100     163.700     161.100     144.882
     38.9000     62.2111     1.91800     157.900     160.500     161.900     145.186
     39.0000     71.1222     1.98100     156.600     158.700     161.000     145.390
     39.1000     79.7533     2.03400     159.300     157.300     157.200     145.390
     39.2000     74.1850     2.03398     158.960     156.700     157.200     145.364
     39.3000     72.1796     1.92400     160.200     157.000     158.900     145.161
     39.4000     60.6510     1.84200     159.200     158.600     158.360     144.907
     39.5000     55.7504     1.85500     156.300     157.760     157.300     144.704
     39.6000     57.6445     1.84900     156.300     155.800     156.800     144.120
     39.7000     69.0613     1.90200     154.600     155.600     156.800     142.977
     39.8000     77.4146     1.89300     152.300     156.300     155.800     141.529
     39.9000     79.7525     1.85500     153.700     155.500     155.100     140.513
     40.0000     67.1685     1.82500     156.800     155.300     155.200     140.640
     40.1000     71.5112     1.79700     157.700     156.600     155.900     140.183
     40.2000     64.2731     1.79300     156.900     156.600     156.700     138.989
     40.3000     79.1415     1.83800     157.600     156.000     156.600     137.490
     40.4000     76.1339     1.83900     157.500     156.000     155.600     136.982
     40.5000     71.6232     1.79700     156.200     154.600     154.300     137.160
     40.6000     70.0644     1.81300     154.600     152.800     155.000     136.855
     40.7000     78.2514     1.85000     152.600     153.300     153.000     136.500
     40.8000     90.6146     1.83200     150.800     151.000     152.500     136.195
     40.9000     89.2771     1.87100     148.600     151.200     151.700     136.601
     41.0000     78.5843     1.88900     147.740     151.200     151.000     136.423
     41.1000     65.7748     1.86300     149.100     150.500     150.900     136.068
     41.2000     64.9409     1.89100     151.600     151.800     151.060     135.534
     41.3000     72.6272     1.91000     153.000     152.560     151.100     135.382
     41.4000     92.2866     1.98800     150.800     152.300     151.400     135.382
     41.5000     106.377     2.09600     152.700     151.200     151.100     134.341
     41.6000     120.190     2.14000     150.800     150.300     150.500     133.452
     41.7000     129.824     2.22999     148.500     150.200     150.400     133.655
     41.8000     136.728     2.14600     148.200     149.300     147.000     134.036
     41.9000     126.146     2.13300     144.500     144.900     144.000     133.858
     42.0000     96.4635     2.14300     136.800     141.800     142.900     132.715
     42.1000     72.2905     2.05900     133.800     140.200     141.800     132.258
     42.2000     57.7009     2.00200     137.100     140.400     140.900     132.309
     42.3000     73.7385     2.03300     140.400     143.200     143.500     132.537
     42.4000     83.7085     2.00400     146.100     148.400     145.900     132.588
     42.5000     84.4875     1.96200     155.700     150.200     147.300     132.639
     42.6000     80.0325     2.00200     154.900     150.400     148.200     132.436
     42.7000     71.5683     1.94000     150.300     149.100     148.600     132.664
     42.8000     82.8197     1.94000     144.240     145.000     150.100     133.375
     42.9000     95.8501     1.90800     143.900     147.700     148.600     134.391
     43.0000     99.8598     1.91900     146.000     147.200     147.240     134.595
     43.1000     100.250     1.93900     153.800     148.840     148.300     133.883
     43.2000     89.2788     1.99000     150.400     150.300     151.300     132.867
     43.3000     97.6881     2.02600     151.200     153.800     150.800     132.334
     43.4000     102.478     2.02500     149.900     149.000     148.900     132.131
     43.5000     105.875     2.09000     149.700     148.100     149.000     132.283
     43.6000     109.217     2.04800     141.300     147.700     149.700     132.664
     43.7000     101.197     1.99000     141.300     149.900     150.000     133.706
     43.8000     94.5679     1.97500     150.900     150.400     148.300     134.214
     43.9000     73.4614     1.95300     151.200     151.800     151.500     134.315
     44.0000     62.6565     1.88000     146.200     156.000     152.500     133.731
     44.1000     61.7093     1.85800     149.900     153.100     150.900     132.893
     44.2000     69.1730     1.82800     156.400     150.600     151.700     131.089
     44.3000     74.2420     1.81701     154.300     154.500     152.200     128.930
     44.4000     86.3821     1.93101     145.901     153.300     151.600     126.594
     44.5000     94.4035     2.03100     152.400     149.100     153.900     125.552
     44.6000     115.622     2.06900     149.760     153.700     151.200     124.841
     44.7000     121.081     2.09900     149.200     154.100     150.000     125.120
     44.8000     138.288     2.04200     151.999     148.700     149.040     126.060
     44.9000     134.558     2.00300     142.400     148.840     146.200     127.660
     45.0000     123.308     1.88701     140.020     144.700     144.700     128.829
     45.1000     107.711     1.84500     144.500     141.100     144.200     129.159
     45.2000     90.8366     1.77500     141.900     144.700     143.520     129.032
     45.3000     75.0754     1.70300     145.300     144.720     143.900     129.108
     45.4000     63.9932     1.71600     149.200     143.400     143.300     129.337
     45.5000     62.7132     1.77801     145.100     143.800     145.600     129.388
     45.6000     78.7526     1.87600     142.100     145.300     146.900     129.692
     45.7000     83.3186     1.91400     144.000     146.100     143.700     129.997
     45.8000     80.4226     1.90799     149.100     143.200     143.300     130.378
     45.9000     73.9612     1.79700     142.500     143.600     143.000     130.531
     46.0000     65.1625     1.78200     142.320     142.200     141.600     130.658
     46.1000     66.0546     1.80400     144.500     137.700     139.700     130.886
     46.2000     70.8999     1.94700     139.700     138.200     141.320     132.359
     46.3000     80.5348     2.01602     138.700     140.920     143.300     134.950
     46.4000     91.1724     2.13600     144.960     142.900     143.600     137.719
     46.5000     105.484     2.21700     149.400     145.700     144.500     139.192
     46.6000     113.951     2.27300     149.600     147.000     139.540     138.024
     46.7000     113.337     2.25300     149.898     136.740     135.300     135.763
     46.8000     98.6347     2.22200     133.918     128.000     133.200     133.477
     46.9000     83.8187     2.03099     112.900     125.000     131.200     131.851
     47.0000     66.8333     1.86099     111.502     121.800     130.720     130.683
     47.1000     61.5980     1.71000     132.500     128.721     129.300     129.794
     47.2000     62.0447     1.75101     142.200     137.400     133.300     130.073
     47.3000     84.4885     1.89100     139.300     143.800     140.200     130.531
     47.4000     101.309     2.03099     143.600     143.700     140.900     129.946
