#------------------------------------------------------------
~VERSION INFORMATION
VERS.               2.0  :CWLS LOG ASCII STANDARD-VERSION 2.0
WRAP.                NO  :ONE LINE PER DEPTH STEP
#------------------------------------------------------------
~WELL INFORMATION
STRT.M              0.0  :START DEPTH
STOP.M            234.0  :STOP DEPTH
STEP.M              0.1  :STEP
NULL.           -999.25  :NULL VALUE
COMP.               N/A  :COMPANY
WELL.               N/A  :WELL
 FLD.               N/A  :FIELD
 LOC.               N/A  :LOCATION
PROV.               N/A  :PROVINCE
SRVC.               N/A  :SERVICE COMPANY
DATE.               N/A  :LOG DATE
 UWI.               N/A  :UNIQUE WELL ID
#------------------------------------------------------------
~CURVE INFORMATION
DEPT.M                   :DEPTH
GRDE.API                 :GRDE
DENL.G/CC                :DENL
MC2F.USFT                :MC2F
MC4F.MS/F                :MC4F
MC6F.MS/F                :MC6F
CADE.MM                  :CADE
#------------------------------------------------------------
~OTHER
#------------------------------------------------------------
~A   DEPT[M]    GRDE[API    DENL[G/C    MC2F[uSF    MC4F[MS/    MC6F[MS/    CADE[mm]
# ...
     9.50000     251.348     1.49500     30.0000     30.0000     30.0000     144.958
     9.60000     240.657     1.50300     30.0000     30.0000     30.0000     144.958
     9.70000     246.615     1.49600     30.0000     30.0000     30.0000     144.907
     9.80000     256.304     1.48800     30.0000     30.0000     30.0000     144.805
     9.90000     240.377     1.47200     30.0000     30.0000     30.0000     144.805
     10.0000     242.380     1.47800     30.0000     30.0000     30.0000     144.882
     10.1000     224.951     1.47400     30.0000     30.0000     30.0000     145.110
     10.2000     225.674     1.48300     30.0000     30.0000     30.0000     145.186
     10.3000     227.568     1.50700     30.0000     30.0000     30.0000     145.313
     10.4000     231.856     1.51400     30.0000     30.0000     30.0000     145.059
     10.5000     226.955     1.51300     30.0000     30.0000     30.0000     144.907
     10.6000     224.783     1.50700     30.0000     30.0000     30.0000     144.856
     10.7000     216.765     1.53100     30.0000     30.0000     30.0000     144.983
     10.8000     231.298     1.53500     30.0000     30.0000     30.0000     145.110
     10.9000     229.183     1.52300     30.0000     30.0000     30.0000     145.110
     11.0000     229.907     1.52000     30.0000     30.0000     30.0000     145.136
     11.1000     219.826     1.52700     30.0000     30.0000     30.0000     145.212
     11.2000     208.854     1.50700     30.0000     30.0000     30.0000     145.136
     11.3000     206.125     1.51800     30.0000     30.0000     30.0000     145.161
     11.4000     198.384     1.52900     30.0000     30.0000     30.0000     145.034
     11.5000     202.951     1.52700     30.0000     30.0000     30.0000     145.212
     11.6000     212.029     1.52100     30.0000     30.0000     30.0000     145.110
     11.7000     217.264     1.52300     30.0000     30.0000     30.0000     145.059
     11.8000     222.221     1.52600     30.0000     30.0000     30.0000     144.958
     11.9000     217.320     1.51300     30.0000     30.0000     30.0000     144.958
     12.0000     211.583     1.51200     30.0000     30.0000     30.0000     144.907
     12.1000     209.411     1.51700     30.0000     30.0000     30.0000     144.856
     12.2000     204.679     1.51100     30.0000     30.0000     30.0000     144.958
     12.3000     220.327     1.50100     30.0000     30.0000     30.0000     144.983
     12.4000     222.833     1.49700     30.0000     30.0000     30.0000     145.034
     12.5000     225.563     1.49900     30.0000     30.0000     30.0000     144.856
     12.6000     230.742     1.51100     30.0000     30.0000     30.0000     144.907
     12.7000     238.708     1.50000     30.0000     30.0000     30.0000     144.805
     12.8000     263.989     1.51300     30.0000     30.0000     30.0000     144.729
     12.9000     247.674     1.56200     30.0000     30.0000     30.0000     144.551
     13.0000     259.369     1.57200     30.0000     30.0000     30.0000     144.653
     13.1000     250.792     1.59500     30.0000     30.0000     30.0000     144.704
     13.2000     252.741     1.62800     30.0000     30.0000     30.0000     144.805
     13.3000     262.377     1.60600     30.0000     30.0000     30.0000     145.009
     13.4000     259.761     1.63500     30.0000     30.0000     30.0000     145.567
     13.5000     277.189     1.64800     30.0000     30.0000     30.0000     145.847
     13.6000     253.631     1.57600     30.0000     30.0000     30.0000     146.177
     13.7000     233.583     1.48000     30.0000     30.0000     30.0000     145.898
     13.8000     218.100     1.39100     30.0000     30.0000     30.0000     145.567
     13.9000     221.722     1.35200     30.0000     30.0000     30.0000     145.212
     14.0000     240.989     1.37500     30.0000     30.0000     30.0000     145.110
     14.1000     228.180     1.36600     30.0000     30.0000     30.0000     145.034
     14.2000     224.114     1.40000     30.0000     30.0000     30.0000     144.805
     14.3000     216.819     1.38600     30.0000     30.0000     30.0000     144.856
     14.4000     227.511     1.39200     30.0000     30.0000     30.0000     144.983
     14.5000     222.666     1.42900     30.0000     30.0000     30.0000     145.110
     14.6000     226.956     1.43700     30.0000     30.0000     30.0000     145.136
     14.7000     240.266     1.47600     30.0000     30.0000     30.0000     145.288
     14.8000     239.597     1.46500     30.0000     30.0000     30.0000     145.466
     14.9000     227.400     1.48000     30.0000     30.0000     30.0000     145.644
     15.0000     223.559     1.46900     30.0000     30.0000     30.0000     145.491
     15.1000     242.548     1.45500     30.0000     30.0000     30.0000     145.313
     15.2000     240.266     1.41300     30.0000     30.0000     30.0000     145.136
     15.3000     233.582     1.38900     30.0000     30.0000     30.0000     145.288
     15.4000     235.755     1.39100     30.0000     30.0000     30.0000     145.466
     15.5000     247.005     1.39800     30.0000     30.0000     30.0000     145.694
     15.6000     249.177     1.42400     30.0000     30.0000     30.0000     145.720
     15.7000     243.607     1.40000     30.0000     30.0000     30.0000     145.796
     15.8000     247.841     1.37100     30.0000     30.0000     30.0000     145.720
     15.9000     260.815     1.32400     30.0000     30.0000     30.0000     145.872
     16.0000     250.737     1.30400     30.0000     30.0000     30.0000     145.948
     16.1000     266.497     1.28900     30.0000     30.0000     30.0000     145.821
     16.2000     264.716     1.31900     30.0000     30.0000     30.0000     145.796
     16.3000     256.582     1.31600     30.0000     30.0000     30.0000     145.720
     16.4000     235.922     1.33000     30.0000     30.0000     30.0000     145.745
     16.5000     237.036     1.32700     30.0000     30.0000     30.0000     145.542
     16.6000     249.011     1.32400     30.0000     30.0000     30.0000     145.491
     16.7000     265.552     1.31600     30.0000     30.0000     30.0000     145.466
     16.8000     282.984     1.30300     30.0000     30.0000     30.0000     145.618
     16.9000     300.082     1.32600     30.0000     30.0000     30.0000     145.542
     17.0000     303.477     1.34400     30.0000     30.0000     30.0000     145.974
     17.1000     284.820     1.31700     30.0000     30.0000     30.0000     145.948
     17.2000     264.661     1.30100     30.0000     30.0000     30.0000     145.644
     17.3000     263.379     1.28600     30.0000     30.0000     30.0000     145.110
     17.4000     263.658     1.27500     30.0000     30.0000     30.0000     145.136
     17.5000     286.992     1.31100     30.0000     30.0000     30.0000     145.212
     17.6000     287.103     1.40700     30.0000     30.0000     30.0000     145.034
     17.7000     254.577     1.45600     30.0000     30.0000     30.0000     144.780
     17.8000     195.484     1.47600     30.0000     30.0000     30.0000     144.704
     17.9000     130.159     1.48000     30.0000     30.0000     30.0000     144.780
     18.0000     113.393     1.47500     30.0000     30.0000     30.0000     144.729
     18.1000     98.6356     1.50900     30.0000     30.0000     30.0000     144.958
     18.2000     99.4692     1.53600     30.0000     30.0000     30.0000     144.958
     18.3000     87.5518     1.55300     30.0000     30.0000     30.0000     144.882
     18.4000     80.8125     1.55100     30.0000     30.0000     30.0000     144.653
     18.5000     64.2167     1.58700     30.0000     30.0000     30.0000     144.780
     18.6000     65.4976     1.56600     30.0000     30.0000     30.0000     145.110
     18.7000     75.0200     1.59200     30.0000     30.0000     30.0000     145.110
     18.8000     79.2528     1.54500     30.0000     30.0000     30.0000     145.034
     18.9000     78.4182     1.50500     30.0000     30.0000     30.0000     144.805
