#------------------------------------------------------------
~VERSION INFORMATION
VERS.               2.0  :CWLS LOG ASCII STANDARD-VERSION 2.0
WRAP.                NO  :ONE LINE PER DEPTH STEP
#------------------------------------------------------------
~WELL INFORMATION
STRT.M              0.0  :START DEPTH
STOP.M            234.0  :STOP DEPTH
STEP.M              0.1  :STEP
NULL.           -999.25  :NULL VALUE
COMP.               N/A  :COMPANY
WELL.               N/A  :WELL
 FLD.               N/A  :FIELD
 LOC.               N/A  :LOCATION
PROV.               N/A  :PROVINCE
SRVC.               N/A  :SERVICE COMPANY
DATE.               N/A  :LOG DATE
 UWI.               N/A  :UNIQUE WELL ID
#------------------------------------------------------------
~CURVE INFORMATION
DEPT.M                   :DEPTH
GRDE.API                 :GRDE
DENL.G/CC                :DENL
MC2F.USFT                :MC2F
MC4F.MS/F                :MC4F
MC6F.MS/F                :MC6F
CADE.MM                  :CADE
#------------------------------------------------------------
~OTHER
#------------------------------------------------------------
~A   DEPT[M]    GRDE[API    DENL[G/C    MC2F[uSF    MC4F[MS/    MC6F[MS/    CADE[mm]
# ...
     228.000     22.4449     1.34300     137.600     135.200     137.000     103.429
     228.100     24.9512     1.34000     139.400     135.000     136.300     103.022
     228.200     27.6799     1.34200     141.000     135.000     135.800     103.048
     228.300     30.2986     1.33700     139.100     135.000     136.000     103.353
     228.400     36.3141     1.34899     138.020     134.700     135.900     103.454
     228.500     43.6096     1.41901     138.100     133.100     134.600     103.276
     228.600     48.4543     1.46600     136.800     132.100     133.320     102.845
     228.700     51.2953     1.46600     135.100     131.220     133.400     102.895
     228.800     52.0727     1.49699     133.600     131.200     133.300     103.251
     228.900     60.3186     1.68298     136.800     131.500     131.000     103.759
     229.000     69.4520     1.64700     138.400     128.900     132.000     103.454
     229.100     83.2072     1.63800     131.200     131.400     134.000     103.302
     229.200     82.7626     1.64401     132.200     132.000     134.600     103.251
     229.300     61.2045     1.45600     141.400     132.400     134.100     103.784
     229.400     35.6975     1.30599     139.100     135.500     133.900     103.784
     229.500     21.1120     1.28600     137.200     134.600     135.900     103.784
     229.600     37.2588     1.27700     136.200     133.000     135.300     103.607
     229.700     44.1095     1.28400     137.800     133.300     134.700     103.505
     229.800     69.0044     1.36300     137.800     133.302     132.100     103.657
     229.900     83.3230     1.38600     137.499     129.700     132.100     103.810
     230.000     95.2404     1.42500     130.940     129.200     131.900     103.962
     230.100     83.6549     1.44498     128.900     129.000     132.200     103.861
     230.200     59.4294     1.37399     135.600     129.600     132.040     103.276
     230.300     44.5569     1.31500     137.200     132.440     132.100     102.845
     230.400     30.4086     1.28501     136.600     133.500     134.100     102.692
     230.500     33.6922     1.37599     137.200     133.401     132.700     103.735
     230.600     52.2439     1.65797     138.000     129.901     126.600     109.906
     230.700     82.9872     2.00195     131.100     121.601     120.300     109.017
     230.800     109.889     2.24607     112.302     111.800     113.302     107.645
     230.900     136.177     2.47197     98.1992     101.198     105.698     100.787
     231.000     145.864     2.09206     95.2000     93.0002     98.2008     100.736
     231.100     145.474     2.47800     91.9999     90.6000     92.3001     100.305
     231.200     142.132     2.51600     89.9999     89.4001     91.0001     100.457
     231.300     126.425     2.46800     90.1000     88.9000     90.1001     101.575
     231.400     149.874     2.51300     90.4200     89.1000     89.2000     101.727
     231.500     148.371     2.49600     90.5000     89.2001     89.0000     101.524
     231.600     162.409     2.40000     90.4999     88.4000     89.0098     100.127
     231.700     134.726     2.37899     89.1999     88.1100     88.0999     99.9998
     231.800     128.043     2.53800     89.8001     86.9003     86.7001     100.305
     231.900     119.964     2.50600     88.9989     84.6998     85.7000     100.432
     232.000     115.235     2.47099     85.2002     84.0000     85.2000     100.305
     232.100    -999.250    -999.250    -999.250     83.2000     85.0000     100.279
     232.200    -999.250    -999.250    -999.250     83.3999     85.1000     100.152
     232.300    -999.250    -999.250    -999.250     84.9000    -999.250     100.330
     232.400    -999.250    -999.250    -999.250    -999.250    -999.250     100.635
     232.500    -999.250    -999.250    -999.250    -999.250    -999.250     101.016
     232.600    -999.250    -999.250    -999.250    -999.250    -999.250     102.692
     232.700    -999.250    -999.250    -999.250    -999.250    -999.250     102.845
     232.800    -999.250    -999.250    -999.250    -999.250    -999.250     102.743
     232.900    -999.250    -999.250    -999.250    -999.250    -999.250     101.092
     233.000    -999.250    -999.250    -999.250    -999.250    -999.250     101.143
     233.100    -999.250    -999.250    -999.250    -999.250    -999.250     101.397
     233.200    -999.250    -999.250    -999.250    -999.250    -999.250     101.117
     233.300    -999.250    -999.250    -999.250    -999.250    -999.250    -999.250
     233.400    -999.250    -999.250    -999.250    -999.250    -999.250    -999.250
     233.500    -999.250    -999.250    -999.250    -999.250    -999.250    -999.250
     233.600    -999.250    -999.250    -999.250    -999.250    -999.250    -999.250
     233.700    -999.250    -999.250    -999.250    -999.250    -999.250    -999.250
     233.800    -999.250    -999.250    -999.250    -999.250    -999.250    -999.250
     233.900    -999.250    -999.250    -999.250    -999.250    -999.250    -999.250
     234.000    -999.250    -999.250    -999.250    -999.250    -999.250    -999.250
