#------------------------------------------------------------
~VERSION INFORMATION
VERS.               2.0  :CWLS LOG ASCII STANDARD-VERSION 2.0
WRAP.                NO  :ONE LINE PER DEPTH STEP
#------------------------------------------------------------
~WELL INFORMATION
STRT.M              0.0  :START DEPTH
STOP.M            234.0  :STOP DEPTH
STEP.M              0.1  :STEP
NULL.           -999.25  :NULL VALUE
COMP.               N/A  :COMPANY
WELL.               N/A  :WELL
 FLD.               N/A  :FIELD
 LOC.               N/A  :LOCATION
PROV.               N/A  :PROVINCE
SRVC.               N/A  :SERVICE COMPANY
DATE.               N/A  :LOG DATE
 UWI.               N/A  :UNIQUE WELL ID
#------------------------------------------------------------
~CURVE INFORMATION
DEPT.M                   :DEPTH
GRDE.API                 :GRDE
DENL.G/CC                :DENL
MC2F.USFT                :MC2F
MC4F.MS/F                :MC4F
MC6F.MS/F                :MC6F
CADE.MM                  :CADE
#------------------------------------------------------------
~OTHER
#------------------------------------------------------------
~A   DEPT[M]    GRDE[API    DENL[G/C    MC2F[uSF    MC4F[MS/    MC6F[MS/    CADE[mm]
# ...
     180.500     62.4898     2.48600     78.3107     80.6000     82.9000     120.701
     180.600     67.8353     2.43001     83.6001     81.2998     83.1002     121.895
     180.700     63.3798     2.49301     87.2000     85.2997     84.0102     121.260
     180.800     64.9400     2.46299     89.3000     86.7099     84.6000     119.888
     180.900     65.5008     2.37701     89.4987     84.9996     85.1000     119.253
     181.000     74.1289     2.40800     82.6003     84.1000     85.0000     120.675
     181.100     73.6841     2.42800     79.4993     83.1999     85.2003     121.818
     181.200     70.9550     2.42200     83.7995     82.9000     83.5002     120.650
     181.300     67.8365     2.41700     86.7998     84.0000     82.3998     118.567
     181.400     75.0755     2.37600     84.3091     84.0004     85.0005     117.297
     181.500     71.1770     2.39500     82.3995     85.3000     87.0000     117.500
     181.600     69.8412     2.41200     87.9001     87.1000     87.2100     117.932
     181.700     64.1031     2.34200     93.9001     88.7101     88.4000     118.059
     181.800     53.1879     2.26197     91.4003     91.4995     94.3988     118.034
     181.900     42.0498     2.12298     90.1034     97.8015     102.101     117.831
     182.000     43.8906     2.02400     104.399     106.000     105.400     117.399
     182.100     71.7325     1.97803     120.900     112.100     108.100     117.297
     182.200     114.340     2.13202     120.840     117.000     112.400     117.424
     182.300     147.924     2.29097     115.600     116.400     115.600     117.424
     182.400     151.157     2.45598     112.400     113.099     112.637     117.399
     182.500     156.500     2.36999     110.000     108.339     104.900     117.297
     182.600     139.625     2.41300     103.202     99.6004     99.7006     117.450
     182.700     149.650     2.38400     87.7007     93.0002     97.4003     117.577
     182.800     150.430     2.38000     82.9976     90.7999     96.8000     117.399
     182.900     164.800     2.43299     97.1015     93.3015     96.3004     117.272
     183.000     166.304     2.41600     104.600     100.600     97.6999     117.297
     183.100     163.463     2.41900     105.520     104.900     101.700     117.500
     183.200     164.967     2.40800     105.300     104.400     103.700     117.729
     183.300     173.209     2.43099     103.700     102.800     104.020     117.627
     183.400     177.500     2.35696     101.400     102.521     105.500     117.704
     183.500     191.143     2.28400     103.601     105.600     108.300     117.526
     183.600     188.860     2.33300     112.900     110.500     104.800     117.881
     183.700     165.299     2.28300     119.400     106.400     105.200     117.754
     183.800     127.042     2.16800     102.300     105.600     109.000     117.754
     183.900     102.751     2.13502     90.7265     107.100     110.900     117.754
     184.000     93.0612     2.16300     115.400     106.301     108.800     117.831
     184.100     117.904     2.23799     123.601     112.100     105.740     118.161
     184.200     123.864     2.35699     114.002     113.139     109.500     117.958
     184.300     135.340     2.38800     105.100     107.000     110.500     118.161
     184.400     121.923     2.43799     103.900     104.000     106.300     117.907
     184.500     139.627     2.41900     104.000     102.200     102.600     117.881
     184.600     129.712     2.41600     104.200     101.400     102.000     117.754
     184.700     126.259     2.32500     102.100     100.700     101.900     117.780
     184.800     114.675     2.43600     100.500     100.400     102.000     117.881
     184.900     115.789     2.41201     99.6002     101.200     101.400     117.729
     185.000     115.009     2.43800     101.300     101.300     100.900     117.551
     185.100     99.3583     2.42200     102.100     101.400     100.100     117.246
     185.200     109.383     2.43800     101.200     100.100     99.0000     117.196
     185.300     106.599     2.42500     98.6004     98.0003     98.1003     117.602
     185.400     108.326     2.42700     94.5999     95.9998     96.4000     117.678
     185.500     105.650     2.39400     94.1999     94.2000     96.1000     117.983
     185.600     112.950     2.39200     95.6401     94.7999     95.7000     117.653
     185.700     123.755     2.41600     97.1001     95.9999     95.0000     117.831
     185.800     125.368     2.48000     98.3000     95.7000     95.6400     117.450
     185.900     107.936     2.43700     94.4998     95.8401     95.6999     117.551
     186.000     107.212     2.42498     93.7999     95.0001     95.4997     117.297
     186.100     99.1358     2.51200     97.2000     93.7000     93.8999     117.424
     186.200     107.546     2.45700     97.6999     93.3000     93.1999     117.450
     186.300     100.194     2.45098     93.9002     93.0000     94.3001     117.602
     186.400     104.148     2.50998     92.8006     93.0000     95.0000     117.602
     186.500     110.831     2.44200     94.2002     93.1000     94.8000     117.551
     186.600     119.351     2.42801     96.9999     95.1000     94.4001     117.272
     186.700     109.772     2.39700     99.4001     95.4000     93.9000     117.246
     186.800     101.920     2.39801     95.9996     93.9999     91.9001     117.145
     186.900     90.1185     2.45300     90.4989     89.1990     90.2998     117.272
     187.000     98.2457     2.43500     85.7001     85.5000     89.2000     117.297
     187.100     104.259     2.39200     84.5006     85.8002     89.4000     117.399
     187.200     118.127     2.38800     88.7404     88.6999     90.5999     117.246
     187.300     122.806     2.33800     96.2998     93.0994     92.1000     117.119
     187.400     120.850     2.29400     98.8994     95.8999     93.0401     117.145
     187.500     105.152     2.30200     96.7001     95.3402     93.5000     117.297
     187.600     97.2430     2.32398     93.6004     92.2005     92.0003     117.373
     187.700     96.2400     2.40798     89.5006     88.3001     89.7003     117.145
     187.800     95.9059     2.44500     87.4000     85.9003     88.0000     117.221
     187.900     95.3496     2.47500     85.8002     84.9000     87.0000     117.018
     188.000     98.3563     2.44400     86.2000     85.3000     87.3000     117.221
     188.100     101.531     2.46400     87.4001     87.0999     88.0000     117.018
     188.200     101.809     2.47001     90.0001     88.7999     87.8000     117.272
     188.300     96.6306     2.41700     90.9002     88.4005     86.0003     117.348
     188.400     84.8211     2.46202     89.1986     85.2992     85.0000     117.729
     188.500     80.5338     2.48800     83.0000     82.6000     84.8000     117.602
     188.600     82.2625     2.46500     79.3995     81.3000     84.4000     117.602
     188.700     101.924     2.45900     84.2997     81.9000     84.6000     117.704
     188.800     103.313     2.40900     89.1999     85.3995     85.4999     118.415
     188.900     99.6929     2.38500     90.3402     88.4000     87.8003     119.456
     189.000     97.2429     2.37598     90.9999     89.5999     88.9000     120.091
     189.100     96.5739     2.46600     90.4000     88.9000     89.1200     119.913
     189.200     95.9054     2.43800     90.7000     88.5200     89.0000     118.847
     189.300     89.6120     2.46500     92.0000     87.6000     89.0000     117.983
     189.400     96.2414     2.47100     90.5997     87.8999     88.5000     117.577
     189.500     101.531     2.45400     88.8000     87.2000     88.2000     117.424
     189.600     97.5224     2.46000     89.0001     86.7001     87.3999     117.424
     189.700     82.4818     2.52400     86.4001     85.8000     85.8999     117.450
     189.800     67.5570     2.42700     84.5000     84.1001     85.0003     117.551
     189.900     67.3919     2.42300     84.3000     83.2000     84.1000     117.272
