#------------------------------------------------------------
~VERSION INFORMATION
VERS.               2.0  :CWLS LOG ASCII STANDARD-VERSION 2.0
WRAP.                NO  :ONE LINE PER DEPTH STEP
#------------------------------------------------------------
~WELL INFORMATION
STRT.M              0.0  :START DEPTH
STOP.M            225.0  :STOP DEPTH
STEP.M              0.1  :STEP
NULL.           -999.25  :NULL VALUE
COMP.               N/A  :COMPANY
WELL.               N/A  :WELL
 FLD.               N/A  :FIELD
 LOC.               N/A  :LOCATION
PROV.               N/A  :PROVINCE
SRVC.               N/A  :SERVICE COMPANY
DATE.               N/A  :DATE
 UWI.               N/A  :UNIQUE WELL ID
#------------------------------------------------------------
~CURVE INFORMATION
DEPT.M                   :DEPTH
GRDE.API                 :GRDE
CADE.MM                  :CADE
DENL.G/CC                :DENL
ADEN.G/C3                :ADEN
MC2F.USFT                :MC2F
MC4F.MS/F                :MC4F
MC6F.MS/F                :MC6F
#------------------------------------------------------------
~OTHER
#------------------------------------------------------------
~A   DEPT[M]    GRDE[API    CADE[mm]    DENL[G/C    ADEN[G/C    MC2F[uSF    MC4F[MS/    MC6F[MS/
# ...
     66.4000     114.820     116.920     2.51000     2.50001     102.300     103.130     103.520
     66.5000     102.800     117.010     2.52000     2.56000     100.150     101.730     102.690
     66.6000     98.9199     116.920     2.54000     2.59000     99.8000     101.430     102.470
     66.7000     104.551     117.030     2.51000     2.54000     100.650     102.550     100.900
     66.8000     111.380     117.010     2.49000     2.47000     98.6499     101.280     98.1802
     66.9000     122.698     116.890     2.47000     2.44000     95.7502     97.3804     98.0801
     67.0000     118.159     116.890     2.48000     2.46000     95.8000     96.8002     99.6001
     67.1000     109.729     116.940     2.50000     2.51000     98.2000     100.070     102.320
     67.2000     94.3300     117.140     2.51000     2.56000     100.950     105.600     101.700
     67.3000     93.9305     117.010     2.52000     2.57000     100.950     104.650     99.6200
     67.4000     97.3199     116.890     2.50000     2.48001     98.9496     100.320     97.3301
     67.5000     97.7700     116.890     2.51000     2.47000     94.1099     95.5301     96.0001
     67.6000     99.2102     116.920     2.51000     2.53000     89.7600     93.5300     95.3500
     67.7000     93.4302     117.010     2.54000     2.60000     91.1005     93.5502     95.5700
     67.8000     102.499     116.920     2.54000     2.59000     97.1998     96.2999     95.1701
     67.9000     107.041     117.030     2.53000     2.54000     101.499     97.8699     96.2697
     68.0000     114.220     117.060     2.51000     2.50000     96.9001     98.8502     93.9700
     68.1000     108.690     117.170     2.50000     2.51000     94.3500     92.3500     95.1800
     68.2000     109.380     117.140     2.49000     2.52000     94.4504     92.0203     95.9203
     68.3000     107.890     116.980     2.49000     2.53000     99.7998     95.4201     99.0299
     68.4000     113.969     116.710     2.49000     2.54000     101.800     101.380     100.570
     68.5000     112.180     116.510     2.48000     2.53000     102.650     103.630     101.530
     68.6000     120.550     116.650     2.46000     2.48000     104.500     102.400     102.850
     68.7000     125.839     116.810     2.45000     2.45000     104.550     103.380     101.770
     68.8000     118.810     116.980     2.44000     2.45000     102.950     101.330     101.820
     68.9000     112.580     116.780     2.45000     2.49000     100.400     100.480     100.540
     69.0000     105.100     116.890     2.48000     2.52000     99.8001     98.5299     98.3900
     69.1000     108.091     116.920     2.49000     2.52000     101.250     96.1101     99.0198
     69.2000     116.219     117.010     2.49000     2.51999     103.850     98.3303     101.500
     69.3000     112.081     116.870     2.47000     2.48000     106.550     102.350     103.900
     69.4000     127.629     116.780     2.47000     2.46000     106.100     105.219     100.869
     69.5000     122.450     116.890     2.48000     2.45000     103.200     99.3700     89.0299
     69.6000     125.140     116.920     2.50000     2.53000     98.1500     99.2699     90.8300
     69.7000     115.771     117.030     2.51000     2.58000     99.4004     102.200     94.3807
     69.8000     125.539     117.060     2.50000     2.56000     104.150     108.970     105.979
     69.9000     125.140     117.140     2.48000     2.47001     109.310     109.900     107.030
     70.0000     129.230     117.030     2.47000     2.44000     109.560     110.850     108.620
     70.1000     124.990     117.080     2.47000     2.49000     108.150     110.850     110.400
     70.2000     138.800     117.480     2.48000     2.52000     108.250     110.960     110.590
     70.3000     142.490     118.360     2.48000     2.51000     109.700     111.110     107.890
     70.4000     147.079     118.880     2.48000     2.48000     106.700     107.760     105.870
     70.5000     143.690     119.190     2.48000     2.47000     105.650     104.680     103.970
     70.6000     132.820     119.160     2.49000     2.48000     102.600     101.100     103.570
     70.7000     129.579     119.510     2.53000     2.54000     99.4499     102.000     101.850
     70.8000     120.250     119.680     2.55000     2.56000     84.1014     99.9504     102.000
     70.9000     120.500     119.850     2.57000     2.60999     84.4003     101.700     101.880
     71.0000     116.120     119.650     2.56000     2.58000     89.7506     103.100     102.780
     71.1000     111.729     119.740     2.57000     2.56000     101.700     112.130     102.200
     71.2000     103.100     119.650     2.56000     2.57000     98.7500     111.100     102.920
     71.3000     98.4709     119.710     2.56000     2.59000     98.6003     109.500     103.150
     71.4000     102.360     119.440     2.54000     2.55999     102.300     103.880     102.510
     71.5000     114.370     119.220     2.56000     2.50000     106.150     104.380     102.890
     71.6000     114.970     119.220     2.55000     2.50999     104.200     105.030     103.730
     71.7000     118.159     119.270     2.59000     2.66001     98.7500     104.450     105.170
     71.8000     114.871     119.460     2.61000     2.68999     98.9502     104.670     105.270
     71.9000     124.439     119.350     2.60000     2.63000     101.650     105.800     105.330
     72.0000     122.750     119.330     2.55000     2.51000     107.050     108.630     106.220
     72.1000     126.690     119.220     2.50000     2.47000     106.950     109.850     106.730
     72.2000     123.491     119.220     2.49000     2.48000     106.650     109.280     107.000
     72.3000     131.319     119.220     2.50000     2.48001     106.250     106.970     106.150
     72.4000     128.730     119.220     2.52000     2.54000     105.560     105.750     105.730
     72.5000     119.411     119.220     2.55000     2.59000     104.360     105.280     105.470
     72.6000     107.391     119.240     2.55000     2.59000     103.800     105.080     105.560
     72.7000     97.1704     119.350     2.54000     2.53000     104.700     105.560     105.240
     72.8000     107.140     119.330     2.52000     2.48001     105.550     105.680     104.870
     72.9000     116.759     119.190     2.52000     2.51000     104.800     105.410     104.970
     73.0000     132.320     119.080     2.55000     2.56000     102.750     105.100     105.720
     73.1000     134.260     119.110     2.56000     2.60000     103.000     105.800     105.900
     73.2000     133.270     119.170     2.58000     2.58000     106.100     106.450     105.730
     73.3000     134.609     118.820     2.59000     2.57001     107.750     107.220     105.830
     73.4000     126.241     118.160     2.60000     2.63000     106.600     107.250     106.830
     73.5000     130.920     117.640     2.60000     2.66000     104.800     107.200     107.220
     73.6000     119.010     117.210     2.57000     2.61000     105.360     106.950     103.550
     73.7000     125.438     116.660     2.55000     2.51000     106.110     102.030     99.6800
     73.8000     109.331     116.090     2.53000     2.51000     102.560     97.1303     98.8104
     73.9000     108.390     115.500     2.55000     2.57999     98.5504     95.5403     101.390
     74.0000     110.680     115.370     2.56000     2.62000     98.1002     99.0300     103.830
     74.1000     110.880     115.260     2.56000     2.60000     102.200     104.460     103.800
     74.2000     115.270     115.260     2.53999     2.53999     106.500     106.420     104.400
     74.3000     103.451     115.230     2.51000     2.48000     107.300     107.550     105.520
     74.4000     107.890     115.120     2.50000     2.48000     105.050     107.170     106.180
     74.5000     117.010     115.120     2.51000     2.54000     104.150     106.020     106.330
     74.6000     120.900     115.140     2.54000     2.59000     104.550     105.850     104.370
