#------------------------------------------------------------
~VERSION INFORMATION
VERS.               2.0  :CWLS LOG ASCII STANDARD-VERSION 2.0
WRAP.                NO  :ONE LINE PER DEPTH STEP
#------------------------------------------------------------
~WELL INFORMATION
STRT.M              0.0  :START DEPTH
STOP.M            185.2  :STOP DEPTH
STEP.M              0.1  :STEP
NULL.           -999.25  :NULL VALUE
COMP.               N/A  :COMPANY
WELL.               N/A  :WELL
 FLD.               N/A  :FIELD
 LOC.               N/A  :LOCATION
PROV.               N/A  :PROVINCE
SRVC.               N/A  :SERVICE COMPANY
DATE.               N/A  :DATE
 UWI.               N/A  :UNIQUE WELL ID
#------------------------------------------------------------
~CURVE INFORMATION
DEPT.M                   :DEPTH
MC2F.USFT                :MC2F
MC4F.MS/F                :MC4F
MC6F.MS/F                :MC6F
GRDE.API                 :GRDE
ADEN.GM/CC               :ADEN
DENL.G/CC                :DENL
CADE.MM                  :CADE
#------------------------------------------------------------
~OTHER
#------------------------------------------------------------
~A   DEPT[M]    MC2F[uSF    MC4F[MS/    MC6F[MS/    GRDE[API    ADEN[GM/    DENL[G/C    CADE[mm]
# ...
     8.30000     200.000     38.0000     183.000     80.7739     1.81874     1.77600     130.962
     8.40000     200.000     38.0000     183.000     98.1646     1.79173     1.76999     129.515
     8.50000     200.000     38.0000     183.000     106.924     1.62409     1.69500     128.956
     8.60000     200.000     38.0000     183.000     99.3229     1.73380     1.68999     128.829
     8.70000     200.000     38.0000     183.000     80.7083     1.58393     1.56500     128.829
     8.80000     200.000     38.0000     183.000     68.5344     1.54585     1.50900     128.829
     8.90000     200.000     38.0000     183.000     56.6180     1.32136     1.55200     128.829
     9.00000     200.000     38.0000     183.000     57.2615     1.66242     1.59100     128.803
     9.10000     200.000     38.0000     183.000     47.7294     1.64594     1.63800     128.524
     9.20000     200.000     38.0000     183.000     54.0418     1.73903     1.66100     127.838
     9.30000     200.000     38.0000     183.000     50.1135     1.62020     1.62700     127.025
     9.40000     200.000     38.0000     183.000     58.8730     1.61804     1.63000     126.390
     9.50000     200.000     38.0000     183.060     58.1001     1.57711     1.59700     126.187
     9.60000     200.000     38.0200     183.000     59.8389     1.62172     1.59500     124.968
     9.70000     200.000     38.0000     183.000     57.6491     1.62243     1.56600     123.088
     9.80000     200.000     38.0000     183.000     59.7103     1.56074     1.54000     121.310
     9.90000     200.000     38.4001     183.000     65.3142     1.47706     1.56100     120.879
     10.0000     200.000     39.9001     183.000     68.2124     1.50243     1.58000     121.844
     10.1000     200.000     40.8000     182.900     58.4214     1.65648     1.58200     122.199
     10.2000     200.000     40.9997     183.000     47.8574     1.60098     1.53800     122.047
     10.3000     200.000     35.0011     183.000     36.9097     1.49632     1.58500     122.479
     10.4000     200.000     52.0020     183.000     68.1494     1.53527     1.64300     125.832
     10.5000     200.000     83.0000     183.000     90.1138     1.80420     1.70300     130.328
     10.6000     200.000     83.0000     183.000     103.445     1.79400     1.79300     133.198
     10.7000     200.000     83.0000     183.000     86.5055     1.83866     1.78600     132.486
     10.8000     200.000     83.0000     183.000     76.7790     1.72300     1.71200     130.886
     10.9000     200.000     83.0000     183.000     77.2948     1.73935     1.75401     129.311
     11.0000     200.000     83.0000     183.000     74.2666     1.88641     1.94801     129.362
     11.1000     200.000     83.0000     183.060     67.4398     2.07431     2.06000     129.616
     11.2000     200.000     83.0200     183.000     64.5409     2.12301     2.09500     130.200
     11.3000     200.000     83.0000     183.000     62.2876     2.15122     2.14400     130.251
     11.4000     200.000     83.0000     183.000     71.5623     2.10014     2.13800     129.946
     11.5000     200.000     83.0000     183.000     76.1353     2.17706     2.13600     129.972
     11.6000     200.000     83.0000     183.000     82.6409     2.13593     2.12500     130.658
     11.7000     200.000     83.0000     183.000     80.9662     2.17350     2.14500     131.445
     11.8000     200.000     83.0000     183.000     84.4436     2.11255     2.14700     131.902
     11.9000     200.000     83.0000     183.000     78.3897     2.07169     2.12400     131.496
     12.0000     200.000     83.0000     183.000     74.1379     2.14279     2.08700     130.607
     12.1000     200.000     83.0000     183.000     71.7554     2.07284     2.08000     128.829
     12.2000     200.000     83.0062     183.000     79.8072     2.02801     2.04000     127.279
     12.3000     200.000     200.000     183.000     82.3185     2.02817     2.02700     126.390
     12.4000     200.000     200.000     183.000     72.7856     2.00130     2.01300     127.559
     12.5000     200.000     200.000     183.000     67.6970     2.04298     2.05700     129.947
     12.6000     200.000     200.000     183.000     67.9558     2.09394     2.07700     131.699
     12.7000     199.999     200.000     183.000     83.1560     2.14531     2.10400     131.521
     12.8000     182.901     200.000     183.030     83.9952     2.08940     2.11900     129.515
     12.9000     200.000     200.000     182.998     105.828     2.12705     2.14000     128.524
     13.0000     200.000     200.000     146.402     93.7838     2.16306     2.15900     129.972
     13.1000     200.000     199.999     183.000     90.1755     2.15486     2.15500     133.350
     13.2000     200.000     180.801     183.000     65.9577     2.17270     2.16000     137.084
     13.3000     200.000     200.000     183.000     60.8706     2.16110     2.17700     139.522
     13.4000     200.000     200.000     183.000     72.8507     2.20336     2.18500     140.894
     13.5000     200.000     200.000     183.000     84.1230     2.11409     2.13800     141.326
     13.6000     200.000     200.000     183.000     99.4513     2.19632     2.13900     141.199
     13.7000     200.000     200.000     183.000     83.6712     2.05935     2.11600     140.233
     13.8000     200.000     200.000     183.000     69.6292     2.14336     2.12500     139.446
     13.9000     200.000     200.000     183.000     52.6251     2.12286     2.13400     139.141
     14.0000     200.000     200.000     183.000     53.9134     2.12056     2.09900     139.573
     14.1000     200.000     200.000     183.000     62.0932     2.11480     2.10100     138.684
     14.2000     200.000     200.000     183.000     66.4730     2.06251     2.09400     137.287
     14.3000     200.000     200.000     183.000     66.2798     2.04756     2.07200     135.509
     14.4000     200.000     200.000     183.000     62.7376     2.08594     2.04300     134.798
     14.5000     200.000     200.000     183.060     56.4253     1.98074     1.97800     133.248
     14.6000     200.000     200.000     183.000     62.9313     1.97398     1.96900     131.343
     14.7000     200.000     200.000     183.000     68.2135     1.90606     1.96100     129.286
     14.8000     200.000     200.000     183.000     77.5515     2.01775     1.98900     127.711
     14.9000     200.000     200.000     183.000     68.2131     2.01538     2.03900     127.000
     15.0000     200.000     200.000     183.000     70.7891     2.11538     2.10200     126.187
     15.1000     200.000     200.000     183.000     72.0780     2.13827     2.14400     125.984
     15.2000     200.000     200.000     183.000     88.2453     2.20166     2.17600     125.578
     15.3000     200.000     200.000     185.400     93.6557     2.19663     2.18300     125.933
     15.4000     200.000     200.000     191.000     105.895     2.20457     2.20500     128.829
     15.5000     200.000     200.000     191.000     119.614     2.13052     2.17401     132.537
     15.6000     200.000     200.000     190.800     118.132     2.26850     2.28800     133.274
     15.7000     200.000     200.000     191.000     111.240     2.32349     2.26200     131.419
     15.8000     200.000     200.000     191.000     102.287     2.24242     2.26800     128.956
     15.9000     200.000     200.000     191.000     97.6493     2.29572     2.23000     128.905
     16.0000     200.000     200.000     191.000     102.030     2.19559     2.22200     129.134
     16.1000     200.000     200.000     191.000     115.363     2.15202     2.21600     128.981
     16.2000     200.000     200.000     191.060     124.445     2.22803     2.22400     128.930
     16.3000     200.000     200.000     191.000     139.903     2.33446     2.28401     128.626
     16.4000     200.000     200.000     191.000     136.489     2.29018     2.35900     128.473
     16.5000     200.000     200.000     191.000     127.857     2.36088     2.35700     128.397
