#------------------------------------------------------------
~VERSION INFORMATION
VERS.               2.0  :CWLS LOG ASCII STANDARD-VERSION 2.0
WRAP.                NO  :ONE LINE PER DEPTH STEP
#------------------------------------------------------------
~WELL INFORMATION
STRT.M              0.0  :START DEPTH
STOP.M            185.2  :STOP DEPTH
STEP.M              0.1  :STEP
NULL.           -999.25  :NULL VALUE
COMP.               N/A  :COMPANY
WELL.               N/A  :WELL
 FLD.               N/A  :FIELD
 LOC.               N/A  :LOCATION
PROV.               N/A  :PROVINCE
SRVC.               N/A  :SERVICE COMPANY
DATE.               N/A  :DATE
 UWI.               N/A  :UNIQUE WELL ID
#------------------------------------------------------------
~CURVE INFORMATION
DEPT.M                   :DEPTH
MC2F.USFT                :MC2F
MC4F.MS/F                :MC4F
MC6F.MS/F                :MC6F
GRDE.API                 :GRDE
ADEN.GM/CC               :ADEN
DENL.G/CC                :DENL
CADE.MM                  :CADE
#------------------------------------------------------------
~OTHER
#------------------------------------------------------------
~A   DEPT[M]    MC2F[uSF    MC4F[MS/    MC6F[MS/    GRDE[API    ADEN[GM/    DENL[G/C    CADE[mm]
# ...
     33.2000     100.400     95.9000     98.6400     106.217     2.53781     2.56400     124.892
     33.3000     99.4000     96.0400     98.8000     115.684     2.58085     2.52000     125.222
     33.4000     98.6003     96.7001     98.8000     115.554     2.49592     2.51399     125.451
     33.5000     102.600     97.9000     99.2000     93.8489     2.42088     2.44500     125.501
     33.6000     104.400     98.9001     100.200     91.7233     2.51420     2.49100     125.578
     33.7000     104.000     100.700     100.900     96.1038     2.52255     2.52699     125.527
     33.8000     104.000     100.100     101.900     106.216     2.45457     2.44500     125.705
     33.9000     105.000     99.9999     101.000     110.403     2.46385     2.49100     125.451
     34.0000     104.400     99.1000     100.600     114.783     2.49119     2.47500     125.425
     34.1000     102.800     98.7999     99.9999     108.084     2.47493     2.50400     125.222
     34.2000     101.000     97.3999     99.4999     101.707     2.51706     2.52300     124.790
     34.3000     100.800     96.3000     98.6000     102.351     2.63451     2.55900     124.511
     34.4000     99.8000     96.1000     97.1999     105.958     2.55161     2.57200     124.358
     34.5000     99.1000     95.4999     95.8000     110.144     2.56491     2.57100     124.257
     34.6000     99.3997     93.1000     95.7000     94.4934     2.49613     2.51200     124.333
     34.7000     95.2200     93.5001     96.2001     100.097     2.46881     2.46500     124.206
     34.8000     95.6002     94.9000     97.5000     105.830     2.43694     2.43000     124.943
     34.9000     102.000     96.2002     97.5200     119.485     2.43563     2.48000     125.425
     35.0000     103.400     98.5200     97.8000     124.058     2.51232     2.48300     125.959
     35.1000     102.700     98.6999     98.9999     127.021     2.46445     2.47900     126.086
     35.2000     102.000     97.3999     98.1000     123.477     2.56391     2.53900     126.086
     35.3000     99.3000     95.9000     97.7000     112.463     2.47516     2.49000     126.111
     35.4000     98.6000     95.1000     97.6000     97.9711     2.51983     2.50300     126.238
     35.5000     99.1001     95.5000     97.7001     99.6463     2.54720     2.54500     126.238
     35.6000     101.800     96.6002     98.9001     111.884     2.48176     2.49500     126.162
     35.7000     104.000     99.0001     99.6000     107.568     2.49391     2.49800     125.984
     35.8000     105.900     99.7000     100.200     104.411     2.49210     2.52900     126.238
     35.9000     105.500     99.2998     98.9000     87.4723     2.58776     2.54300     126.238
     36.0000     100.400     96.4000     98.7000     94.5570     2.55026     2.51400     126.162
     36.1000     93.6002     95.0999     97.9999     95.9104     2.51853     2.56400     125.959
     36.2000     95.3004     94.3001     97.4999     100.676     2.62722     2.62299     126.111
     36.3000     100.600     95.9000     95.7000     105.185     2.46567     2.50100     126.263
     36.4000     101.240     96.6998     94.8000     96.8757     2.61703     2.56700     126.390
     36.5000     97.7998     94.2000     95.0000     91.0136     2.58542     2.57300     126.365
     36.6000     93.1999     92.4000     95.7400     81.8688     2.56423     2.57100     126.162
     36.7000     91.3004     92.9402     96.2001     93.9131     2.50960     2.54600     125.755
     36.8000     98.0002     95.1001     96.9000     95.2679     2.56256     2.55000     124.943
     36.9000     102.300     98.5000     96.2001     122.575     2.53690     2.52800     124.638
     37.0000     102.800     98.4000     97.4000     111.176     2.54543     2.53600     124.409
     37.1000     101.320     97.0999     97.9000     118.324     2.53631     2.54200     124.511
     37.2000     97.0000     95.5000     98.1000     104.284     2.56711     2.54800     124.384
     37.3000     96.6001     96.0000     98.1199     114.589     2.54038     2.57700     124.358
     37.4000     98.9002     96.2200     96.4999     115.361     2.49395     2.48900     124.231
     37.5000     101.000     96.2000     95.8000     106.151     2.50712     2.50000     124.231
     37.6000     98.4999     95.5999     95.5999     95.4577     2.51553     2.50301     124.231
     37.7000     96.3999     93.8998     94.4997     76.9730     2.51570     2.58900     124.257
     37.8000     94.9999     91.6999     90.4000     76.6513     2.60075     2.56000     124.384
     37.9000     91.5992     86.3000     89.3999     86.9572     2.67643     2.61100     124.384
     38.0000     81.7001     86.0000     88.6000     90.1784     2.53482     2.58400     124.333
     38.1000     84.7107     84.9002     88.7001     112.335     2.57329     2.56300     123.952
     38.2000     93.4002     87.1004     90.0001     109.759     2.59291     2.55199     123.342
     38.3000     96.0001     94.0000     91.7201     120.063     2.41339     2.44300     122.707
     38.4000     99.0999     95.3200     94.9999     88.3077     2.41834     2.52800     121.971
     38.5000     98.1999     95.6999     93.8000     73.4301     2.57094     2.48500     121.437
     38.6000     96.3995     92.8999     93.9000     77.4888     2.56534     2.50100     121.285
     38.7000     89.4001     91.5000     93.2001     92.4336     2.54137     2.56499     121.158
     38.8000     90.1002     90.9001     93.9000     118.647     2.47806     2.45500     121.158
     38.9000     98.3003     92.5003     94.3001     112.335     2.39070     2.45500     121.183
     39.0000     102.100     96.5001     95.6001     114.073     2.40340     2.41600     121.310
     39.1000     102.120     98.4999     96.7997     104.992     2.40652     2.45601     121.285
     39.2000     102.500     97.2992     91.6997     101.964     2.58981     2.59500     121.133
     39.3000     99.1995     87.6996     87.5098     89.5323     2.65115     2.57500     121.006
     39.4000     82.6990     80.2093     82.6997     72.7208     2.62833     2.61200     121.006
     39.5000     70.1999     72.7999     79.3000     70.5310     2.55334     2.55900     120.904
     39.6000     67.4005     69.2003     77.2999     71.3701     2.57940     2.59199     120.396
     39.7000     72.9107     74.1004     75.9001     81.9970     2.59823     2.47200     119.736
     39.8000     84.1005     79.0002     77.6001     81.6103     2.32276     2.41300     119.812
     39.9000     95.7993     82.4001     79.7104     87.6025     2.37722     2.41800     120.980
     40.0000     87.1997     83.1100     84.4001     108.213     2.41969     2.43200     122.580
     40.1000     81.1005     84.4002     87.9001     117.167     2.40083     2.44100     123.571
     40.2000     88.2005     86.5002     88.9001     124.958     2.46364     2.46100     124.130
     40.3000     96.3000     89.2001     89.8001     108.148     2.50177     2.41000     124.460
     40.4000     97.0001     94.0001     93.0003     115.491     2.40170     2.42800     124.841
     40.5000     98.5001     95.5000     96.4000     111.626     2.41562     2.43000     124.866
     40.6000     99.8000     96.4000     97.2000     114.331     2.35762     2.40501     124.841
     40.7000     99.5001     96.6999     96.6000     104.733     2.58688     2.52600     124.028
     40.8000     100.400     95.9000     96.4000     91.6590     2.49869     2.52100     122.885
     40.9000     99.5999     94.3000     96.1001     92.1740     2.48212     2.46500     121.666
     41.0000     98.0000     94.3000     97.1000     92.1096     2.50410     2.49300     121.183
     41.1000     99.5002     95.7999     96.8000     102.608     2.33660     2.38000     121.336
     41.2000     103.200     95.1002     97.3001     93.4624     2.45884     2.32101     121.641
     41.3000     98.8002     97.0000     98.3999     97.1345     2.27370     2.40800     122.733
     41.4000     101.420     97.7997     96.2999     104.864     2.42472     2.47500     123.825
