#------------------------------------------------------------
~VERSION INFORMATION
VERS.               2.0  :CWLS LOG ASCII STANDARD-VERSION 2.0
WRAP.                NO  :ONE LINE PER DEPTH STEP
#------------------------------------------------------------
~WELL INFORMATION
STRT.M              0.0  :START DEPTH
STOP.M            204.0  :STOP DEPTH
STEP.M              0.1  :STEP
NULL.           -999.25  :NULL VALUE
COMP.               N/A  :COMPANY
WELL.               N/A  :WELL
 FLD.               N/A  :FIELD
 LOC.               N/A  :LOCATION
PROV.               N/A  :PROVINCE
SRVC.               N/A  :SERVICE COMPANY
DATE.               N/A  :DATE
 UWI.               N/A  :UNIQUE WELL ID
#------------------------------------------------------------
~CURVE INFORMATION
DEPT.M                   :DEPTH
MC4F.MS/F                :MC4F
MC6F.MS/F                :MC6F
GRDE.API                 :GRDE
DENL.G/CC                :DENL
ADEN.GM/CC               :ADEN
CADE.MM                  :CADE
#------------------------------------------------------------
~OTHER
#------------------------------------------------------------
~A   DEPT[M]    MC4F[MS/    MC6F[MS/    GRDE[API    DENL[G/C    ADEN[GM/    CADE[mm]
# ...
     85.5000     90.0000     91.0000     92.3850     2.45600     2.44596     122.631
     85.6000     90.1100     90.9999     83.2227     2.43700     2.42725     122.834
     85.7000     90.0000     99.0001     89.3518     2.53800     2.55914     123.038
     85.8000     90.0000     100.980     87.1414     2.45100     2.46616     122.911
     85.9000     89.7900     101.000     93.2698     2.47700     2.45982     122.911
     86.0000     88.5000     101.000     95.7978     2.50300     2.49705     122.911
     86.1000     88.1000     101.000     101.422     2.46100     2.49057     122.936
     86.2000     87.3999     88.8999     103.064     2.54600     2.50392     123.012
     86.3000     85.5998     86.4999     91.3106     2.52000     2.56378     122.733
     86.4000     83.8001     85.1100     85.4980     2.56400     2.55814     122.530
     86.5000     82.2099     85.6000     85.9402     2.58900     2.56187     122.174
     86.6000     83.1000     85.5000     93.0175     2.55000     2.55781     122.123
     86.7000     85.5002     87.8002     103.507     2.52800     2.51466     121.971
     86.8000     88.3004     90.1997     92.8913     2.48000     2.49461     121.844
     86.9000     92.0001     86.0000     96.8092     2.45700     2.43094     121.666
     87.0000     88.9001     86.0000     78.8629     2.45000     2.55964     121.387
     87.1000     83.6001     86.0000     70.3318     2.50400     2.45688     121.260
     87.2000     79.1999     86.0000     58.1363     2.53100     2.49569     121.310
     87.3000     77.6003     86.0000     62.4336     2.55900     2.48645     121.615
     87.4000     80.8001     86.0000     71.7219     2.56700     2.60615     121.895
     87.5000     85.2999     86.0000     81.3902     2.53800     2.57942     122.072
     87.6000     88.9000     86.0000     76.9040     2.56400     2.59448     122.352
     87.7000     87.1000     86.0000     74.3134     2.53300     2.48725     122.453
     87.8000     86.6999     86.0000     78.9897     2.56400     2.56847     122.453
     87.9000     85.4000     86.0000     90.8691     2.59900     2.67999     122.504
     88.0000     84.2001     86.0100     98.7675     2.63300     2.58605     122.631
     88.1000     86.7100     86.0000     89.0362     2.55100     2.41034     122.707
     88.2000     87.2001     86.0000     92.5754     2.54100     2.63260     122.428
     88.3000     89.2000     86.0000     95.7347     2.55699     2.55873     122.276
     88.4000     89.1999     86.0000     91.6898     2.48000     2.52369     122.225
     88.5000     86.7000     86.0000     87.6460     2.54200     2.48108     122.403
     88.6000     84.7000     86.0000     84.6760     2.49200     2.52310     122.098
     88.7000     82.9001     86.0000     85.5617     2.50900     2.55928     121.768
     88.8000     84.5002     86.3001     93.7119     2.47400     2.39777     121.412
     88.9000     86.3000     87.5000     91.8797     2.52700     2.53051     121.361
     89.0000     89.0000     88.6000     102.876     2.44900     2.47770     121.107
     89.1000     91.3998     86.8000     85.9400     2.49700     2.48613     121.031
     89.2000     86.4999     87.0001     88.5308     2.54201     2.63628     120.675
     89.3000     84.2001     88.2000     84.5505     2.63200     2.61646     120.828
     89.4000     85.3000     89.2000     92.3222     2.59300     2.40059     121.006
     89.5000     86.8002     88.8000     102.559     2.60700     2.67919     121.158
     89.6000     91.9001     89.4102     108.120     2.54900     2.57940     120.548
     89.7000     93.9201     93.8003     117.282     2.49399     2.51794     120.040
     89.8000     95.7000     96.4000     111.848     2.40001     2.39320     120.117
     89.9000     96.4000     96.0000     110.458     2.49200     2.49815     120.625
     90.0000     97.1001     94.1000     102.243     2.52100     2.53484     121.183
     90.1000     93.2000     93.7000     93.9649     2.54300     2.62065     120.726
     90.2000     91.3000     94.5000     90.9942     2.55199     2.47031     120.167
     90.3000     91.6000     94.0000     82.4638     2.47600     2.33748     119.202
     90.4000     92.2000     93.6000     74.7551     2.48500     2.57701     118.847
     90.5000     96.4000     93.9999     70.4580     2.46500     2.47161     118.948
     90.6000     97.0000     97.2000     79.7467     2.36500     2.42154     119.558
     90.7000     96.0001     98.0000     87.0145     2.39800     2.36395     120.269
     90.8000     97.5001     98.3001     94.7872     2.48000     2.52811     120.701
     90.9000     98.6001     99.4000     99.2092     2.51900     2.47014     121.056
     91.0000     100.100     99.3000     115.450     2.51900     2.53027     121.590
     91.1000     99.7000     100.500     113.681     2.48100     2.45763     121.666
     91.2000     100.600     100.220     118.231     2.48100     2.49838     121.361
     91.3000     98.8199     99.5998     114.629     2.48900     2.47100     121.107
     91.4000     97.4001     98.0000     125.561     2.46000     2.49671     121.158
     91.5000     96.0000     98.0001     117.472     2.51800     2.53510     121.463
     91.6000     96.1000     96.5001     119.875     2.48200     2.42398     121.818
     91.7000     93.8998     95.0001     103.064     2.54400     2.58253     122.403
     91.8000     91.8001     95.5999     97.2508     2.55500     2.59748     122.733
     91.9000     93.6000     94.8000     90.6160     2.54400     2.39665     122.555
     92.0000     92.5000     93.3000     100.537     2.50300     2.58787     122.276
     92.1000     91.7000     91.9000     102.811     2.57400     2.58284     122.225
     92.2000     91.8999     91.6001     91.1216     2.49101     2.49992     122.403
     92.3000     89.9000     93.0000     85.6879     2.58600     2.57306     122.022
     92.4000     89.8999     92.2000     97.7567     2.53700     2.47071     121.285
     92.5000     92.3000     91.3000     106.477     2.55500     2.64251     120.828
     92.6000     92.2000     92.2000     112.102     2.53900     2.53635     121.056
     92.7000     92.1000     93.5001     100.032     2.48500     2.45370     121.615
     92.8000     92.8000     94.2000     104.077     2.51700     2.53764     121.895
     92.9000     93.3999     95.0400     117.409     2.54200     2.48467     122.047
     93.0000     95.8400     95.2000     130.553     2.50600     2.56646     122.123
     93.1000     96.5999     95.3000     142.117     2.46900     2.44715     121.945
     93.2000     95.5998     95.3000     137.884     2.49600     2.50004     121.717
     93.3000     93.5000     95.8000     145.340     2.46000     2.45905     121.768
     93.4000     93.1000     95.4000     147.046     2.47400     2.46037     122.098
     93.5000     93.7000     95.5000     141.043     2.56501     2.59652     122.428
     93.6000     95.6999     96.6000     145.087     2.41000     2.41178     122.250
     93.7000     98.6000     97.6000     149.070     2.44900     2.39809     121.895
     93.8000     98.0000     98.1001     163.033     2.45500     2.51260     121.361
     93.9000     97.9000     99.0000     156.461     2.46900     2.43427     121.056
     94.0000     98.7000     99.3200     148.689     2.47800     2.50195     120.828
     94.1000     98.0200     100.200     148.057     2.46600     2.46497     120.955
     94.2000     99.6002     100.300     154.186     2.50800     2.50610     120.955
     94.3000     101.200     101.500     160.316     2.49600     2.47936     120.929
     94.4000     102.000     103.500     159.621     2.47200     2.45932     120.802
     94.5000     102.800     103.420     152.986     2.44100     2.47664     120.802
     94.6000     102.720     103.400     150.079     2.43700     2.43225     120.802
     94.7000     102.900     104.500     142.434     2.41900     2.40343     120.777
     94.8000     103.600     106.000     157.537     2.48900     2.51157     120.650
     94.9000     105.500     107.300     165.877     2.39800     2.31969     120.650
