#------------------------------------------------------------
~VERSION INFORMATION
VERS.               2.0  :CWLS LOG ASCII STANDARD-VERSION 2.0
WRAP.                NO  :ONE LINE PER DEPTH STEP
#------------------------------------------------------------
~WELL INFORMATION
STRT.M              0.0  :START DEPTH
STOP.M            234.0  :STOP DEPTH
STEP.M              0.1  :STEP
NULL.           -999.25  :NULL VALUE
COMP.               N/A  :COMPANY
WELL.               N/A  :WELL
 FLD.               N/A  :FIELD
 LOC.               N/A  :LOCATION
PROV.               N/A  :PROVINCE
SRVC.               N/A  :SERVICE COMPANY
DATE.               N/A  :LOG DATE
 UWI.               N/A  :UNIQUE WELL ID
#------------------------------------------------------------
~CURVE INFORMATION
DEPT.M                   :DEPTH
GRDE.API                 :GRDE
DENL.G/CC                :DENL
MC2F.USFT                :MC2F
MC4F.MS/F                :MC4F
MC6F.MS/F                :MC6F
CADE.MM                  :CADE
#------------------------------------------------------------
~OTHER
#------------------------------------------------------------
~A   DEPT[M]    GRDE[API    DENL[G/C    MC2F[uSF    MC4F[MS/    MC6F[MS/    CADE[mm]
# ...
     209.000     70.2857     2.54299     84.9001     82.6999     83.1000     104.724
     209.100     71.7340     2.50700     83.2002     81.6000     83.2000     104.724
     209.200     71.9019     2.53499     82.0001     81.6000     82.9000     104.572
     209.300     73.3503     2.48300     84.0998     81.3999     83.1000     104.572
     209.400     68.8948     2.49500     85.0000     82.5001     82.8000     104.597
     209.500     71.2892     2.45800     85.2000     82.9000     83.1001     104.750
     209.600     61.4870     2.47499     84.7000     82.6000     84.1000     104.877
     209.700     61.8216     2.50300     84.4000     83.1000     84.2000     104.724
     209.800     56.0309     2.49800     85.4999     83.7000     84.1000     104.546
     209.900     64.5521     2.49000     86.5000     84.2000     84.1000     104.445
     210.000     68.0586     2.49300     86.6000     84.1001     84.0000     104.572
     210.100     66.4411     2.50600     87.1004     83.1001     83.9000     104.597
     210.200     56.7504     2.50900     84.5104     82.7000     82.9000     104.724
     210.300     48.4528     2.53300     84.0999     81.1000     82.9000     104.724
     210.400     53.1882     2.52000     81.8999     80.8005     82.8100     104.546
     210.500     55.1928     2.52100     81.2001     81.8100     83.1000     104.318
     210.600     52.1297     2.53000     84.4999     82.1997     84.0000     104.572
     210.700     48.6765     2.51100     88.1999     84.6998     84.0000     104.597
     210.800     51.7942     2.53800     87.6001     85.8001     84.3000     104.724
     210.900     62.8790     2.53396     87.0998     84.1997     84.8000     104.724
     211.000     61.2081     2.45499     85.0002     82.9002     83.5002     104.724
     211.100     53.9680     2.51200     83.1003     80.8003     81.8002     104.699
     211.200     52.4641     2.50701     80.5003     79.0004     80.5001     104.445
     211.300     58.7586     2.57099     79.9000     78.0000     80.2003     104.572
     211.400     63.6036     2.51400     79.8006     78.2000     79.1003     104.597
     211.500     68.1700     2.54100     81.0101     78.2999     80.1001     104.724
     211.600     68.2810     2.52999     81.4901     79.7998     80.7001     104.597
     211.700     66.7775     2.59102     83.2000     81.1999     81.9102     104.724
     211.800     52.1318     2.46901     85.6000     82.0100     82.6900     104.597
     211.900     59.7029     2.49600     85.7200     86.1901     83.4003     104.724
     212.000     56.1976     2.48300     85.7998     83.8000     84.3999     104.546
     212.100     65.9977     2.48700     87.0000     84.1000     84.9200     104.419
     212.200     61.0402     2.48200     87.0000     84.0200     85.0000     104.394
     212.300     70.1752     2.46900     87.0000     84.0000     85.0000     104.292
     212.400     67.3312     2.41104     86.2000     84.0000     85.0000     104.445
     212.500     54.8590     2.49200     85.9999     84.0000     85.0001     104.597
     212.600     53.4674     2.54001     87.0001     84.0000     84.0000     104.724
     212.700     49.3456     2.46300     84.6002     83.3000     83.9001     104.724
     212.800     60.5401     2.53800     84.2000     82.3997     83.0002     104.572
     212.900     56.8097     2.56197     83.7996     80.9999     81.7997     104.597
     213.000     65.2185     2.51000     81.9000     80.5001     80.6000     104.699
     213.100     63.5470     2.57200     81.4003     78.9000     80.6999     104.445
     213.200     63.2137     2.54300     79.4003     78.7999     80.4000     104.546
     213.300     59.2590     2.51800     80.8999     79.4998     80.7000     104.419
     213.400     59.3174     2.47201     82.8005     80.3003     81.0000     104.419
     213.500     67.6692     2.52500     84.0100     81.2000     81.4000     104.419
     213.600     67.0563     2.50300     84.1100     81.4000     82.2000     104.470
     213.700     64.2710     2.49500     85.2997     81.6000     82.2100     104.724
     213.800     58.4219     2.48500     83.1999     81.2100     82.9095     104.572
     213.900     54.4760     2.53900     84.5000     81.8100     84.8994     104.546
     214.000     69.3955     2.49801     84.4000     82.8001     82.7000     104.419
     214.100     66.2212     2.53200     84.0000     82.2000     82.8000     104.419
     214.200     64.3844     2.50900     84.0200     81.3000     82.6000     104.445
     214.300     46.8944     2.50500     83.9900     81.2000     82.0000     104.572
     214.400     59.9298     2.50300     83.5997     81.0000     82.0200     104.546
     214.500     68.1716     2.52400     82.7000     81.0200     81.9900     104.394
     214.600     74.7985     2.54601     81.8001     80.9900     82.0000     104.267
     214.700     66.7790     2.50801     82.7999     81.0000     82.0000     104.318
     214.800     61.6539     2.55900     84.0001     81.3000     81.9000     104.546
     214.900     62.1578     2.51103     83.4002     81.2000     82.1002     104.445
     215.000     68.7856     2.56700     84.0000     81.5001     82.9000     104.546
     215.100     81.3138     2.55800     84.0000     81.9002     82.0000     104.445
     215.200     83.3744     2.54899     84.4197     81.2001     81.5000     104.546
     215.300     72.8479     2.49701     82.0001     80.4002     81.0000     104.267
     215.400     67.4457     2.58496     81.2000     79.6000     81.0200     104.292
     215.500     56.3612     2.50000     81.4001     79.5200     80.7000     104.419
     215.600     49.9585     2.48200     82.2000     79.8000     80.5000     104.419
     215.700     54.2477     2.47300     82.0000     80.3000     81.0000     104.394
     215.800     63.2155     2.45500     83.6001     80.8000     81.3000     104.292
     215.900     72.2343     2.51300     83.1999     81.0000     81.9999     104.419
     216.000     66.1085     2.51400     82.8000     81.0000     81.3000     104.470
     216.100     59.9835     2.49800     84.3002     80.3000     81.1000     104.699
     216.200     63.8270     2.53501     82.0002     80.1000     81.1000     104.445
     216.300     59.8159     2.49000     78.9995     79.9002     80.5000     104.546
     216.400     73.0121     2.51700     81.4000     78.2004     80.5998     104.292
     216.500     64.4393     2.53099     81.6001     79.7000     80.0001     104.394
     216.600     75.2398     2.57600     80.9999     80.1000     80.6000     104.267
     216.700     65.4945     2.49600     81.8998     80.0000     81.0000     104.267
     216.800     62.9880     2.52600     82.4200     80.4000     80.7000     104.267
     216.900     55.1936     2.51200     82.0000     80.7000     81.0000     104.267
     217.000     62.1562     2.46900     82.0000     80.8000     81.0200     104.267
     217.100     75.6329     2.54800     82.0100     80.3001     81.0000     104.267
     217.200     83.2069     2.51700     81.8000     80.6000     81.0000     104.267
     217.300     83.5958     2.59801     81.7000     80.3000     81.0100     104.292
     217.400     73.4582     2.53299     82.0001     80.3103     81.0000     104.394
     217.500     67.1153     2.49600     82.6000     81.0000     81.0000     104.216
     217.600     58.4790     2.53800     83.4000     80.8000     81.9000     103.937
     217.700     69.5078     2.50200     84.0000     81.0000     82.0000     103.810
     217.800     64.6053     2.48800     84.0000     81.1999     82.5000     103.988
     217.900     70.7328     2.52598     84.3001     81.6004     83.0001     104.292
     218.000     72.8469     2.50000     84.9000     82.6003     83.6000     104.419
     218.100     84.6561     2.50100     85.3999     83.6000     84.0000     104.394
     218.200     90.2246     2.50600     85.8000     84.0000     84.0000     104.242
     218.300     81.3143     2.51199     86.0003     83.6000     84.0000     104.115
     218.400     81.9778     2.58401     84.8997     83.2998     83.6996     104.115
