#------------------------------------------------------------
~VERSION INFORMATION
VERS.               2.0  :CWLS LOG ASCII STANDARD-VERSION 2.0
WRAP.                NO  :ONE LINE PER DEPTH STEP
#------------------------------------------------------------
~WELL INFORMATION
STRT.M              0.0  :START DEPTH
STOP.M            234.0  :STOP DEPTH
STEP.M              0.1  :STEP
NULL.           -999.25  :NULL VALUE
COMP.               N/A  :COMPANY
WELL.               N/A  :WELL
 FLD.               N/A  :FIELD
 LOC.               N/A  :LOCATION
PROV.               N/A  :PROVINCE
SRVC.               N/A  :SERVICE COMPANY
DATE.               N/A  :LOG DATE
 UWI.               N/A  :UNIQUE WELL ID
#------------------------------------------------------------
~CURVE INFORMATION
DEPT.M                   :DEPTH
GRDE.API                 :GRDE
DENL.G/CC                :DENL
MC2F.USFT                :MC2F
MC4F.MS/F                :MC4F
MC6F.MS/F                :MC6F
CADE.MM                  :CADE
#------------------------------------------------------------
~OTHER
#------------------------------------------------------------
~A   DEPT[M]    GRDE[API    DENL[G/C    MC2F[uSF    MC4F[MS/    MC6F[MS/    CADE[mm]
# ...
     123.500     77.2479     1.54201     139.700     134.600     131.600     141.021
     123.600     81.0352     1.51300     140.919     135.400     134.600     140.564
     123.700     78.9171     1.50800     137.100     134.800     136.000     140.767
     123.800     67.6688     1.50400     134.400     134.100     136.020     141.402
     123.900     63.3794     1.51999     135.200     133.220     134.600     141.808
     124.000     73.5719     1.66600     137.100     133.000     133.700     141.554
     124.100     107.052     1.74099     136.800     133.000     133.100     139.573
     124.200     138.459     1.81800     135.200     132.100     132.400     137.007
     124.300     160.786     1.84697     132.000     129.900     131.900     134.163
     124.400     138.739     1.72702     129.100     129.400     131.400     133.045
     124.500     108.217     1.60501     130.000     129.100     131.000     132.690
     124.600     68.6697     1.53100     134.100     130.400     131.000     132.766
     124.700     50.0140     1.51300     135.000     132.000     132.500     132.944
     124.800     52.0208     1.53300     135.300     133.500     134.400     132.842
     124.900     64.6578     1.53900     135.620     134.300     134.500     132.766
     125.000     78.1960     1.55900     137.400     134.500     135.000     132.588
     125.100     73.6846     1.58200     135.800     134.900     134.520     132.715
     125.200     69.9497     1.52500     138.300     133.820     135.000     132.740
     125.300     53.5224     1.52300     137.640     134.100     135.000     132.207
     125.400     47.2300     1.51199     135.700     134.900     136.000     131.369
     125.500     33.6953     1.45000     138.200     134.700     137.040     130.912
     125.600     35.5890     1.41200     139.600     136.240     136.400     131.572
     125.700     35.5329     1.40800     139.400     136.700     137.000     132.309
     125.800     34.8102     1.39300     139.800     135.900     136.700     132.410
     125.900     43.2194     1.37800     138.700     135.100     136.400     131.902
     126.000     38.0401     1.36800     137.400     134.900     136.600     131.648
     126.100     41.3804     1.35200     138.000     135.000     136.200     131.597
     126.200     28.6270     1.30900     139.400     134.800     135.000     131.826
     126.300     26.1215     1.30902     138.920     133.800     134.300     131.978
     126.400     32.9172     1.44496     136.000     132.300     132.800     132.791
     126.500     57.7014     1.75796     133.000     129.300     130.120     133.883
     126.600     86.0495     2.04899     131.999     125.220     126.500     134.671
     126.700     100.809     2.33102     124.699     121.800     121.900     135.433
     126.800     118.238     2.44000     119.199     116.300     118.099     135.585
     126.900     115.120     2.44500     113.900     110.800     114.100     136.525
     127.000     122.752     2.43800     109.320     108.600     111.100     136.754
     127.100     115.734     2.47500     107.400     106.900     109.100     137.084
     127.200     127.318     2.46902     108.500     106.400     105.220     136.601
     127.300     124.643     2.52898     107.199     103.020     102.700     136.525
     127.400     120.523     2.46601     99.6995     99.8997     101.100     136.906
     127.500     109.553     2.41400     91.9002     97.2000     99.6999     138.354
     127.600     101.142     2.47700     95.1998     96.0000     96.9999     140.792
     127.700     90.8381     2.35800     100.500     95.3992     90.8995     143.002
     127.800     91.5060     2.34000     98.7975     89.7999     87.3005     143.612
     127.900     91.8431     2.28200     84.0998     83.3003     87.3000     142.723
     128.000     105.708     2.27800     73.2998     80.6000     87.0000     141.630
     128.100     104.204     2.29901     82.9009     80.8014     84.9002     141.605
     128.200     106.878     2.36799     92.2995     85.1998     84.5002     142.799
     128.300     103.703     2.37200     90.6000     90.0001     89.3000     144.170
     128.400     113.282     2.41202     91.0014     92.4991     90.2998     145.364
     128.500     111.110     2.46801     96.6998     88.9000     89.7002     145.872
     128.600     113.672     2.49800     89.7992     89.0012     92.0999     146.380
     128.700     113.839     2.51600     86.5094     92.6002     92.6000     146.279
     128.800     113.785     2.51200     98.8000     90.5995     93.8001     145.948
     128.900     117.962     2.50599     99.2986     95.7010     94.7205     145.110
     129.000     123.586     2.43499     95.6001     98.4200     96.3000     144.856
     129.100     128.820     2.54397     100.399     94.6008     96.4995     143.992
     129.200     128.041     2.45800     96.3003     95.1000     95.2000     143.154
     129.300     115.900     2.46301     91.2998     95.0001     94.5000     142.723
     129.400     110.438     2.43200     94.6998     91.4005     95.0000     143.231
     129.500     97.6880     2.39500     93.8000     93.7000     94.5000     143.561
     129.600     98.3557     2.46899     95.2010     95.9991     94.3003     142.494
     129.700     97.9110     2.49200     100.200     93.7000     95.3999     140.945
     129.800     104.708     2.41200     97.2000     95.9000     96.2001     139.700
     129.900     122.867     2.41802     96.0011     96.1992     95.7996     139.192
     130.000     135.282     2.47301     101.200     93.5000     94.3000     139.116
     130.100     134.611     2.36703     96.8189     92.5004     94.0005     139.903
     130.200     128.097     2.40300     91.9997     93.0000     96.0999     141.072
     130.300     124.978     2.42400     97.5009     93.2001     96.3199     141.224
     130.400     121.470     2.42994     104.940     96.0204     95.6004     140.614
     130.500     120.300     2.30300     102.300     97.4001     97.0001     139.395
     130.600     116.797     2.39099     99.4998     96.6994     98.4395     139.548
     130.700     130.716     2.37800     97.1202     94.8400     96.8002     139.929
     130.800     130.993     2.39400     93.6000     93.9000     96.3000     139.624
     130.900     131.940     2.39898     93.8008     94.4009     96.7200     139.217
     131.000     128.987     2.36101     98.0999     96.5197     96.7000     138.989
     131.100     121.192     2.42897     100.500     98.1999     97.1002     140.030
     131.200     120.634     2.37400     99.4000     98.9000     97.9999     140.030
     131.300     119.075     2.36800     98.3000     98.2999     97.2999     139.522
     131.400     114.952     2.37100     98.3994     95.8993     94.2998     138.887
     131.500     111.723     2.39500     96.4002     91.7000     93.6001     138.963
     131.600     113.728     2.41500     84.8998     90.8000     93.0000     139.903
     131.700     117.237     2.40000     86.5997     90.0000     92.8000     140.132
     131.800     121.191     2.40000     95.7000     90.8997     92.1000     139.624
     131.900     117.234     2.43900     96.0995     95.8000     92.4000     137.541
     132.000     107.880     2.41900     94.2000     95.4999     92.5012     136.144
     132.100     103.705     2.43600     93.7400     90.8998     85.5003     136.271
     132.200     84.1013     2.45000     86.0006     80.0996     82.4003     137.592
     132.300     90.0015     2.43600     67.3000     76.3000     83.9200     139.548
     132.400     102.598     2.46200     68.6087     78.3211     84.4002     140.742
     132.500     123.976     2.44400     93.4002     83.6001     85.2002     141.681
     132.600     126.872     2.39900     101.700     93.7995     88.5994     141.376
     132.700     125.591     2.35800     97.1999     98.5997     95.4998     140.919
     132.800     129.267     2.37800     96.0998     96.7005     95.2001     140.030
     132.900     124.141     2.43000     98.7978     91.7988     89.8000     139.725
