#------------------------------------------------------------
~VERSION INFORMATION
VERS.               2.0  :CWLS LOG ASCII STANDARD-VERSION 2.0
WRAP.                NO  :ONE LINE PER DEPTH STEP
#------------------------------------------------------------
~WELL INFORMATION
STRT.M              0.0  :START DEPTH
STOP.M            185.2  :STOP DEPTH
STEP.M              0.1  :STEP
NULL.           -999.25  :NULL VALUE
COMP.               N/A  :COMPANY
WELL.               N/A  :WELL
 FLD.               N/A  :FIELD
 LOC.               N/A  :LOCATION
PROV.               N/A  :PROVINCE
SRVC.               N/A  :SERVICE COMPANY
DATE.               N/A  :DATE
 UWI.               N/A  :UNIQUE WELL ID
#------------------------------------------------------------
~CURVE INFORMATION
DEPT.M                   :DEPTH
MC2F.USFT                :MC2F
MC4F.MS/F                :MC4F
MC6F.MS/F                :MC6F
GRDE.API                 :GRDE
ADEN.GM/CC               :ADEN
DENL.G/CC                :DENL
CADE.MM                  :CADE
#------------------------------------------------------------
~OTHER
#------------------------------------------------------------
~A   DEPT[M]    MC2F[uSF    MC4F[MS/    MC6F[MS/    GRDE[API    ADEN[GM/    DENL[G/C    CADE[mm]
# ...
     107.900     89.3000     85.6998     86.8999     93.4629     2.66091     2.58599     121.615
     108.000     88.9998     83.3000     85.5000     104.413     2.48327     2.50800     121.590
     108.100     82.8199     84.2000     85.8000     112.077     2.55888     2.56600     121.488
     108.200     84.9006     84.0001     87.4000     113.688     2.51001     2.48500     121.615
     108.300     90.4002     86.5004     87.3201     107.632     2.43809     2.51800     121.641
     108.400     93.8999     89.9400     88.0000     102.865     2.60196     2.57000     121.793
     108.500     92.8998     89.2999     87.9999     93.2046     2.58063     2.58700     121.869
     108.600     89.8997     86.9000     86.8000     81.6099     2.62874     2.60500     121.590
     108.700     84.4099     82.9999     85.1999     80.1929     2.61339     2.60900     121.437
     108.800     82.3999     80.4999     83.1999     74.3321     2.70198     2.66700     121.387
     108.900     81.5000     79.6000     80.5098     75.1043     2.52427     2.60500     121.768
     109.000     81.0997     78.3097     78.3000     69.8871     2.72289     2.60000     121.793
     109.100     78.1998     76.3000     78.2000     70.7891     2.50998     2.59200     121.666
     109.200     74.5004     76.4001     79.0000     76.1349     2.57238     2.54198     120.269
     109.300     78.8006     78.0001     79.1008     70.8527     2.44658     2.41000     118.720
     109.400     84.2000     79.7003     86.8014     64.9279     2.36296     2.36499     117.399
     109.500     83.8001     83.8002     99.9990     63.6394     2.28204     2.31400     117.246
     109.600     85.3998     86.7000     86.3000     71.1114     2.28946     2.29701     117.881
     109.700     92.8001     87.8998     85.5000     75.7498     2.26344     2.37500     118.593
     109.800     93.9396     86.1999     84.6001     84.8955     2.52053     2.39301     118.821
     109.900     86.1997     84.2998     85.6000     92.8828     2.37037     2.47100     118.948
     110.000     79.8002     81.7999     85.2199     107.697     2.44669     2.46901     121.032
     110.100     83.5000     80.9198     84.0999     101.127     2.60022     2.52100     125.451
     110.200     86.6002     83.0000     81.8999     92.0425     2.52151     2.51501     129.566
     110.300     88.6997     82.4998     80.6999     72.5927     2.53838     2.57200     131.547
     110.400     85.8990     79.2996     78.3001     70.6606     2.57455     2.58400     131.039
     110.500     76.8996     74.4000     79.7001     75.4286     2.72077     2.61200     130.404
     110.600     69.5997     75.0000     81.1000     89.8538     2.54346     2.60100     129.235
     110.700     83.7008     78.7003     82.0001     102.801     2.56547     2.54900     127.914
     110.800     96.1400     84.4003     83.4001     95.7167     2.50512     2.45199     126.670
     110.900     92.6800     90.3001     87.3004     92.9469     2.33379     2.38400     125.857
     111.000     92.4001     91.0999     90.8399     84.4448     2.33476     2.33801     126.543
     111.100     93.3000     89.6200     89.9900     94.8790     2.32837     2.39400     128.067
     111.200     89.6998     88.4899     89.3000     94.7522     2.43636     2.45700     129.692
     111.300     87.6000     87.6999     89.0001     115.040     2.52247     2.54000     130.023
     111.400     88.2004     86.7003     89.9001     118.196     2.65030     2.51399     127.609
     111.500     90.5203     89.5001     91.7002     116.199     2.43787     2.43100     124.206
     111.600     94.7001     93.9000     94.2000     105.700     2.36971     2.34700     120.142
     111.700     100.300     97.1000     95.2199     105.894     2.18364     2.23500     118.212
     111.800     103.400     97.7198     94.1000     107.762     2.11603     2.21000     117.551
     111.900     102.299     93.6998     93.7001     109.179     2.33011     2.25400     118.161
     112.000     95.0994     90.3000     95.0000     108.213     2.26330     2.24800     118.466
     112.100     88.1999     90.3000     95.2000     100.225     2.23230     2.28500     117.907
     112.200     93.0003     91.6001     93.9998     92.8179     2.30445     2.26200     117.348
     112.300     101.020     93.3999     91.4998     83.9940     2.20597     2.36201     119.050
     112.400     98.7993     92.6987     83.6999     83.8006     2.40601     2.44200     123.063
     112.500     91.6042     78.9995     83.0100     91.5316     2.73563     2.53000     126.873
     112.600     121.200     74.5100     82.3999     105.958     2.55606     2.49200     126.949
     112.700     121.200     74.5005     84.3001     118.069     2.42386     2.48400     124.536
     112.800     124.798     80.7008     85.4045     127.665     2.41485     2.38699     122.174
     112.900     105.000     95.0006     114.000     135.460     2.23907     2.28899     121.336
     113.000     105.000     102.000     117.999     145.636     2.24626     2.20200     121.463
     113.100     104.400     102.100     103.000     149.178     2.14707     2.17700     121.463
     113.200     105.820     102.500     103.300     133.075     2.12087     2.18300     121.437
     113.300     106.000     102.200     101.500     125.024     2.16989     2.18700     121.336
     113.400     105.299     99.9999     101.220     120.515     2.30890     2.26100     121.463
     113.500     99.0999     98.9197     99.9999     127.022     2.28817     2.35901     121.387
     113.600     97.2000     96.6000     98.6000     135.781     2.45924     2.40600     120.828
     113.700     100.100     95.6001     98.8000     133.720     2.38449     2.38199     119.837
     113.800     98.5001     98.3001     98.8002     137.003     2.35356     2.31999     118.465
     113.900     100.900     99.4005     103.100     121.417     2.26159     2.19699     117.424
     114.000     105.601     104.400     108.500     121.931     2.04832     2.10799     117.119
     114.100     115.500     113.600     113.700     117.424     1.95235     2.01900     116.027
     114.200     128.400     120.300     118.700     129.662     2.07432     2.04600     114.986
     114.300     131.600     124.900     122.700     121.996     1.97867     2.02300     115.291
     114.400     127.900     126.100     127.200     106.086     2.09336     1.96899     116.332
     114.500     129.600     126.500     129.900     81.2881     1.86761     1.89000     116.688
     114.600     132.500     129.100     131.000     82.5761     1.77594     1.85900     115.138
     114.700     135.400     132.200     131.300     90.2449     1.89477     1.95701     115.164
     114.800     138.400     132.099     127.200     113.623     2.18408     2.13300     115.189
     114.900     137.539     124.699     122.100     112.981     2.38735     2.27700     114.376
     115.000     119.018     115.600     118.100     131.981     2.24721     2.30399     112.497
     115.100     102.600     108.000     112.040     132.496     2.22678     2.22600     111.811
     115.200     100.900     99.0400     105.919     135.523     2.26041     2.33501     114.503
     115.300     103.500     98.9200     100.100     134.816     2.49674     2.41701     119.101
     115.400     104.700     98.8000     100.100     141.515     2.45166     2.50301     123.343
     115.500     98.9003     99.4003     102.900     149.114     2.58585     2.55400     125.730
     115.600     101.900     102.400     104.800     144.863     2.54940     2.54100     126.136
     115.700     108.700     105.000     102.000     152.335     2.56812     2.57499     125.400
     115.800     109.300     108.299     102.100     155.556     2.50284     2.48700     123.393
     115.900     105.000     102.000     104.400     156.843     2.54042     2.50900     121.361
     116.000     102.300     101.800     103.200     144.863     2.46419     2.49600     119.075
     116.100     106.200     100.100     99.9000     145.056     2.46352     2.46900     116.738
