#------------------------------------------------------------
~VERSION INFORMATION
VERS.               2.0  :CWLS LOG ASCII STANDARD-VERSION 2.0
WRAP.                NO  :ONE LINE PER DEPTH STEP
#------------------------------------------------------------
~WELL INFORMATION
STRT.M              0.0  :START DEPTH
STOP.M            225.0  :STOP DEPTH
STEP.M              0.1  :STEP
NULL.           -999.25  :NULL VALUE
COMP.               N/A  :COMPANY
WELL.               N/A  :WELL
 FLD.               N/A  :FIELD
 LOC.               N/A  :LOCATION
PROV.               N/A  :PROVINCE
SRVC.               N/A  :SERVICE COMPANY
DATE.               N/A  :DATE
 UWI.               N/A  :UNIQUE WELL ID
#------------------------------------------------------------
~CURVE INFORMATION
DEPT.M                   :DEPTH
GRDE.API                 :GRDE
CADE.MM                  :CADE
DENL.G/CC                :DENL
ADEN.G/C3                :ADEN
MC2F.USFT                :MC2F
MC4F.MS/F                :MC4F
MC6F.MS/F                :MC6F
#------------------------------------------------------------
~OTHER
#------------------------------------------------------------
~A   DEPT[M]    GRDE[API    CADE[mm]    DENL[G/C    ADEN[G/C    MC2F[uSF    MC4F[MS/    MC6F[MS/
# ...
     107.900     89.3902     116.920     2.49000     2.53000     95.5000     95.2498     93.8500
     108.000     86.6989     117.010     2.49000     2.52000     96.2000     93.5300     93.3199
     108.100     80.0695     116.890     2.50000     2.51000     95.9000     92.5999     92.1700
     108.200     89.7396     116.870     2.49000     2.49001     93.9997     90.5000     92.0500
     108.300     85.7504     116.810     2.51000     2.52000     89.9502     89.9799     90.9300
     108.400     76.9292     117.030     2.53000     2.59000     86.5000     88.4500     90.3200
     108.500     67.7501     117.030     2.55000     2.62000     86.9501     88.4800     90.0200
     108.600     66.2107     116.910     2.54000     2.58000     90.7000     90.0502     90.3000
     108.700     73.7401     116.270     2.53000     2.53999     94.3001     92.2000     90.2001
     108.800     78.9697     115.820     2.51000     2.51000     95.5999     91.8299     90.6300
     108.900     82.6100     115.210     2.50000     2.50000     94.8000     90.5998     90.5201
     109.000     83.0616     114.980     2.51000     2.51000     91.4000     88.6300     90.9500
     109.100     74.0394     115.100     2.53000     2.56000     87.6500     88.6300     90.9300
     109.200     69.9500     115.810     2.55000     2.61000     87.5999     89.0001     90.6699
     109.300     72.4401     116.530     2.55000     2.57000     91.0597     90.3000     90.1800
     109.400     84.0099     116.780     2.54000     2.52000     93.8100     91.4500     90.2000
     109.500     82.5604     116.890     2.54000     2.52000     92.2599     91.5001     90.8400
     109.600     88.4489     116.970     2.56000     2.59000     89.9000     90.7300     91.3500
     109.700     81.3206     117.330     2.59000     2.64000     89.2501     90.1300     91.2900
     109.800     95.7178     117.440     2.60000     2.64999     90.7000     90.8000     91.1701
     109.900     90.8899     117.420     2.60000     2.61000     92.7000     91.8000     92.0000
     110.000     92.5300     117.280     2.57999     2.57000     93.8000     93.3800     93.0300
     110.100     81.5699     117.170     2.55000     2.55000     94.7500     94.2001     92.4701
     110.200     81.0200     117.220     2.54000     2.54000     95.2500     92.3496     90.9298
     110.300     81.4198     117.340     2.56000     2.54000     93.9100     89.4999     89.5000
     110.400     79.9200     116.790     2.59000     2.55999     90.4499     86.8799     88.8999
     110.500     78.3200     116.250     2.63000     2.65000     86.7500     85.7200     89.4200
     110.600     77.6290     115.920     2.64000     2.72000     86.8395     87.1797     89.6000
     110.700     85.6506     116.560     2.64000     2.70000     90.5003     89.1704     90.6001
     110.800     95.4690     116.920     2.61000     2.61001     94.3998     92.5199     91.3800
     110.900     96.9205     116.960     2.56000     2.52000     95.2000     93.6501     91.9499
     111.000     85.4504     116.650     2.56000     2.55000     93.5500     92.6800     90.5500
     111.100     76.6302     116.780     2.56000     2.55999     91.1999     88.6302     88.9997
     111.200     70.9501     116.940     2.60000     2.63000     88.2499     85.8999     86.9799
     111.300     72.8385     117.140     2.62000     2.65000     85.7502     83.7003     86.4500
     111.400     64.3600     117.060     2.65000     2.67000     84.0600     84.0800     85.6700
     111.500     64.4105     117.140     2.65000     2.67000     83.7099     84.3802     86.0799
     111.600     60.3300     117.030     2.65000     2.66000     85.2499     86.2500     87.5199
     111.700     59.0800     117.010     2.63000     2.66999     88.8999     89.2500     89.4201
     111.800     59.0301     116.890     2.59000     2.60000     93.0096     92.2798     90.9899
     111.900     60.8703     116.870     2.56000     2.52000     95.7100     93.8500     91.8500
     112.000     66.9100     116.490     2.55000     2.49000     94.6599     93.3300     91.4401
     112.100     65.7100     115.040     2.57000     2.56000     91.7496     90.6500     90.1398
     112.200     66.1600     113.810     2.62001     2.66000     87.1498     87.3496     88.0700
     112.300     68.1498     112.770     2.65000     2.68999     83.4503     84.7802     86.6501
     112.400     62.9199     112.640     2.66000     2.66000     82.3499     84.1001     86.4000
     112.500     67.9501     112.520     2.65000     2.65000     85.0500     86.0197     87.3200
     112.600     62.8698     112.550     2.63000     2.65000     90.0500     89.2500     87.2502
     112.700     68.2501     112.640     2.59000     2.60999     94.0001     89.6998     89.2700
     112.800     71.0002     112.570     2.56000     2.55000     94.9499     91.3796     88.5800
     112.900     77.1797     112.910     2.53000     2.50000     93.8000     87.8499     88.0000
     113.000     82.6592     113.640     2.53000     2.49000     92.1499     84.9999     86.9202
     113.100     75.5299     114.650     2.52000     2.50999     91.2000     82.9004     89.0302
     113.200     73.2900     115.760     2.54000     2.58000     91.7002     86.6504     91.9001
     113.300     72.5402     116.360     2.56000     2.58999     93.2500     91.7796     92.8899
     113.400     74.2900     116.910     2.55000     2.55000     93.7500     93.7300     92.0900
     113.500     72.9900     116.250     2.53000     2.54000     93.4500     92.2800     92.4300
     113.600     76.1799     115.610     2.53000     2.57000     93.4000     92.0300     92.2800
     113.700     75.1800     114.640     2.54000     2.56999     93.3999     91.5500     92.5700
     113.800     73.1888     114.280     2.55000     2.54000     92.3500     92.1199     92.3700
     113.900     65.1602     114.310     2.56000     2.57000     90.1500     91.8500     92.0000
     114.000     68.9003     115.120     2.56000     2.65000     90.1002     91.2998     92.8000
     114.100     72.9904     115.970     2.57000     2.63999     92.7498     93.0300     92.5300
     114.200     80.4701     116.660     2.56000     2.57999     95.5500     93.7300     92.5799
     114.300     82.7595     116.090     2.55000     2.52000     94.5998     93.8297     92.0300
     114.400     73.0402     115.410     2.54000     2.54000     90.5000     91.6700     91.6400
     114.500     66.9598     114.800     2.55000     2.57000     87.9000     89.6799     91.0000
     114.600     71.8412     114.600     2.56000     2.59000     88.5499     89.2000     90.0200
     114.700     87.2997     114.690     2.55000     2.58000     90.3001     89.7800     90.0000
     114.800     100.058     114.620     2.56000     2.56000     90.9500     91.0500     90.8700
     114.900     97.3192     114.850     2.55000     2.57000     91.3999     92.0200     91.8800
     115.000     106.490     114.890     2.56000     2.56999     92.9000     92.6700     92.6500
     115.100     98.1189     115.100     2.53000     2.54000     94.0000     93.5000     93.1300
     115.200     109.329     115.130     2.53000     2.52000     94.1000     94.0001     93.9800
     115.300     102.701     115.870     2.52000     2.51000     94.1501     94.5300     94.7999
     115.400     109.190     116.380     2.52000     2.54000     94.9999     95.2001     95.7200
     115.500     107.689     117.140     2.52000     2.52000     96.8999     96.5299     96.4300
     115.600     118.510     117.030     2.51000     2.51000     98.7000     97.5700     96.9300
     115.700     120.100     117.010     2.52000     2.52001     98.9999     97.8999     97.2700
     115.800     117.860     116.920     2.54000     2.56000     98.0500     97.4500     97.4000
     115.900     115.920     117.030     2.55000     2.57000     97.2500     96.7500     97.3700
     116.000     112.230     117.030     2.55000     2.55000     96.9000     96.5500     97.0000
     116.100     106.591     117.010     2.54000     2.55000     96.9500     96.4700     96.4800
