#------------------------------------------------------------
~VERSION INFORMATION
VERS.               2.0  :CWLS LOG ASCII STANDARD-VERSION 2.0
WRAP.                NO  :ONE LINE PER DEPTH STEP
#------------------------------------------------------------
~WELL INFORMATION
STRT.M              0.0  :START DEPTH
STOP.M            234.0  :STOP DEPTH
STEP.M              0.1  :STEP
NULL.           -999.25  :NULL VALUE
COMP.               N/A  :COMPANY
WELL.               N/A  :WELL
 FLD.               N/A  :FIELD
 LOC.               N/A  :LOCATION
PROV.               N/A  :PROVINCE
SRVC.               N/A  :SERVICE COMPANY
DATE.               N/A  :LOG DATE
 UWI.               N/A  :UNIQUE WELL ID
#------------------------------------------------------------
~CURVE INFORMATION
DEPT.M                   :DEPTH
GRDE.API                 :GRDE
DENL.G/CC                :DENL
MC2F.USFT                :MC2F
MC4F.MS/F                :MC4F
MC6F.MS/F                :MC6F
CADE.MM                  :CADE
#------------------------------------------------------------
~OTHER
#------------------------------------------------------------
~A   DEPT[M]    GRDE[API    DENL[G/C    MC2F[uSF    MC4F[MS/    MC6F[MS/    CADE[mm]
# ...
     57.0000     91.1157     2.20200     108.401     119.700     122.600     135.458
     57.1000     96.1840     2.21700     116.000     122.500     126.000     135.534
     57.2000     96.5745     2.17799     132.940     129.400     129.100     135.560
     57.3000     102.979     2.10600     137.300     139.000     130.000     134.696
     57.4000     108.826     2.11300     140.598     137.000     133.140     134.036
     57.5000     92.7303     2.08900     130.300     133.340     131.500     134.315
     57.6000     82.4280     2.16500     121.000     128.600     129.699     134.849
     57.7000     82.6521     2.22701     121.100     124.000     120.800     134.468
     57.8000     100.918     2.35000     123.500     116.000     113.800     133.350
     57.9000     127.261     2.41200     108.499     110.400     113.700     132.486
     58.0000     147.981     2.40699     95.2030     109.600     114.900     132.258
     58.1000     168.917     2.27000     111.102     110.900     113.000     132.283
     58.2000     136.616     2.20499     125.399     115.300     111.200     132.410
     58.3000     109.997     2.11200     117.300     119.100     115.800     132.461
     58.4000     67.4495     2.03000     111.500     118.100     119.900     132.639
     58.5000     77.5828     2.05100     114.300     117.300     122.700     132.563
     58.6000     102.033     2.10900     120.202     125.600     122.600     133.350
     58.7000     131.660     2.09300     131.900     128.700     125.900     134.239
     58.8000     129.599     2.10300     134.300     131.500     130.400     134.493
     58.9000     113.449     2.09000     128.921     135.200     135.200     133.807
     59.0000     101.865     2.08800     133.841     137.100     134.800     132.334
     59.1000     96.0169     2.03900     145.800     135.000     132.320     131.267
     59.2000     94.6795     2.00899     142.598     133.620     131.740     130.226
     59.3000     68.7263     1.89400     125.100     130.540     130.600     129.870
     59.4000     60.1486     1.80500     124.000     123.000     126.900     130.429
     59.5000     40.7139     1.76202     124.200     118.800     119.000     131.775
     59.6000     60.1519     1.91300     117.500     116.100     119.900     134.239
     59.7000     78.5326     2.14001     110.301     117.700     121.000     136.576
     59.8000     128.989     2.26200     117.800     119.700     119.700     138.557
     59.9000     158.618     2.40399     126.700     120.800     118.300     139.141
     60.0000     163.183     2.45000     123.600     122.300     118.200     139.294
     60.1000     148.370     2.42900     116.000     118.100     118.000     139.421
     60.2000     147.036     2.46699     109.600     113.900     120.800     139.421
     60.3000     176.827     2.40100     108.700     118.800     122.200     139.192
     60.4000     204.118     2.44000     122.100     125.100     122.500     138.278
     60.5000     207.348     2.39000     140.099     128.700     120.500     137.058
     60.6000     167.806     2.30299     134.698     126.400     122.800     135.255
     60.7000     128.376     2.25198     108.601     122.800     124.700     133.706
     60.8000     101.197     2.14500     106.619     117.100     121.800     132.690
     60.9000     94.5133     2.09400     120.199     115.200     117.900     132.944
     61.0000     95.2930     2.12900     120.800     122.600     120.220     134.087
     61.1000     95.7945     2.16200     120.101     126.520     124.200     135.001
     61.2000     104.035     2.24800     131.099     126.400     123.100     135.458
     61.3000     89.6118     2.21500     125.800     124.000     120.200     135.509
     61.4000     84.0434     2.15700     111.300     120.100     121.000     135.788
     61.5000     93.8492     2.14600     111.600     116.100     120.100     136.500
     61.6000     135.896     2.27200     114.700     118.000     118.000     137.287
     61.7000     166.193     2.33900     121.500     122.200     118.800     137.973
     61.8000     181.620     2.40400     124.800     123.000     120.400     137.947
     61.9000     163.686     2.40300     123.800     123.300     121.300     137.312
     62.0000     158.451     2.33499     119.420     120.900     121.600     136.271
     62.1000     140.348     2.21499     117.400     119.800     119.900     134.696
     62.2000     115.733     2.09000     117.800     117.600     120.820     133.299
     62.3000     90.6715     1.98500     118.600     121.520     122.800     132.156
     62.4000     73.0713     1.93200     124.700     125.500     122.200     131.089
     62.5000     60.6512     1.93700     131.299     124.200     122.100     130.505
     62.6000     52.0178     1.92400     122.420     123.700     122.000     130.759
     62.7000     44.4451     1.93100     117.500     120.600     123.800     132.004
     62.8000     61.4874     1.98800     120.100     120.000     123.020     133.299
     62.9000     55.0275     2.01900     123.300     123.420     121.800     133.350
     63.0000     66.1084     2.02600     129.500     123.600     122.800     132.918
     63.1000     64.3844     2.09700     127.400     124.600     123.600     132.055
     63.2000     81.8712     2.05700     119.700     123.600     123.900     131.851
     63.3000     90.8374     2.16000     118.700     120.700     119.400     132.029
     63.4000     100.306     2.22700     121.299     115.300     115.200     132.258
     63.5000     117.236     2.29100     108.401     113.100     115.300     132.156
     63.6000     131.941     2.32500     102.802     113.700     116.800     131.851
     63.7000     146.196     2.26000     120.500     114.400     116.400     132.004
     63.8000     131.717     2.14200     127.000     120.600     116.000     132.359
     63.9000     114.226     2.07300     122.500     122.700     121.700     133.274
     64.0000     88.4441     1.96200     118.200     122.200     122.800     133.299
     64.1000     83.4307     1.98400     122.900     120.100     121.900     133.579
     64.2000     72.5165     2.07500     122.200     121.300     121.900     134.442
     64.3000     91.4515     2.11600     119.400     123.100     121.800     135.661
     64.4000     110.833     2.14499     121.640     122.100     122.900     136.144
     64.5000     123.252     2.07101     119.500     122.900     123.500     135.230
     64.6000     100.028     1.94499     120.600     125.300     126.340     134.214
     64.7000     80.8122     1.83600     129.700     128.740     128.500     133.223
     64.8000     74.9102     1.81300     135.300     133.100     129.800     132.131
     64.9000     82.3147     1.79800     136.100     134.400     132.600     130.353
     65.0000     78.3060     1.83701     135.500     134.100     134.200     129.184
     65.1000     77.6940     1.91500     132.000     133.200     131.900     129.591
     65.2000     79.4758     1.89500     131.600     129.600     130.100     131.775
     65.3000     77.4715     1.86002     128.800     127.400     127.900     134.925
     65.4000     81.2574     1.94800     123.800     126.000     126.500     137.439
     65.5000     79.8102     1.96801     123.400     123.700     124.600     138.811
     65.6000     87.9423     1.91200     123.100     122.600     124.800     139.268
     65.7000     79.6428     1.85700     120.300     125.201     128.500     139.167
     65.8000     76.9155     1.83398     122.502     131.200     130.300     138.379
     65.9000     83.7091     1.74901     136.299     133.600     131.700     136.322
     66.0000     89.2780     1.78300     142.500     137.200     135.400     133.756
     66.1000     89.1674     1.82900     136.240     141.500     138.500     131.445
     66.2000     85.3797     1.88300     135.400     139.400     139.600     129.769
     66.3000     83.8770     1.86800     140.199     138.100     138.040     128.524
     66.4000     89.5013     1.88101     139.800     138.340     134.800     128.143
