#------------------------------------------------------------
~VERSION INFORMATION
VERS.               2.0  :CWLS LOG ASCII STANDARD-VERSION 2.0
WRAP.                NO  :ONE LINE PER DEPTH STEP
#------------------------------------------------------------
~WELL INFORMATION
STRT.M              0.0  :START DEPTH
STOP.M            204.0  :STOP DEPTH
STEP.M              0.1  :STEP
NULL.           -999.25  :NULL VALUE
COMP.               N/A  :COMPANY
WELL.               N/A  :WELL
 FLD.               N/A  :FIELD
 LOC.               N/A  :LOCATION
PROV.               N/A  :PROVINCE
SRVC.               N/A  :SERVICE COMPANY
DATE.               N/A  :DATE
 UWI.               N/A  :UNIQUE WELL ID
#------------------------------------------------------------
~CURVE INFORMATION
DEPT.M                   :DEPTH
MC4F.MS/F                :MC4F
MC6F.MS/F                :MC6F
GRDE.API                 :GRDE
DENL.G/CC                :DENL
ADEN.GM/CC               :ADEN
CADE.MM                  :CADE
#------------------------------------------------------------
~OTHER
#------------------------------------------------------------
~A   DEPT[M]    MC4F[MS/    MC6F[MS/    GRDE[API    DENL[G/C    ADEN[GM/    CADE[mm]
# ...
     152.000     86.8000     87.0000     118.547     2.41500     2.40666     120.015
     152.100     86.7000     87.3000     113.934     2.45400     2.45293     119.913
     152.200     86.7000     87.0000     105.276     2.43000     2.44772     119.990
     152.300     86.7000     86.7000     99.1469     2.44500     2.45603     119.609
     152.400     86.3998     86.1998     96.1760     2.46200     2.40890     118.872
     152.500     84.2999     85.0999     82.0851     2.45300     2.48175     118.364
     152.600     83.4000     83.7000     85.2450     2.46500     2.45422     118.262
     152.700     81.5000     82.6000     84.8030     2.45800     2.48377     118.389
     152.800     80.2000     81.5000     110.269     2.43200     2.43183     118.389
     152.900     79.9999     81.0000     110.143     2.41701     2.39246     118.364
     153.000     79.7000     81.3000     117.092     2.49300     2.51460     118.237
     153.100     80.6000     81.9999     108.562     2.50500     2.49277     118.161
     153.200     81.9000     83.4999     110.585     2.46200     2.46229     117.831
     153.300     84.6000     85.1101     110.141     2.39399     2.39425     118.085
     153.400     86.4101     85.9000     95.1657     2.45299     2.43900     118.161
     153.500     86.9000     85.9000     93.2699     2.40900     2.44001     118.491
     153.600     85.9000     85.4000     90.1121     2.44900     2.45090     118.237
     153.700     83.4000     85.9000     102.939     2.46300     2.48435     118.237
     153.800     83.2001     86.2000     110.774     2.46600     2.38481     118.262
     153.900     85.5003     86.3002     110.775     2.44199     2.46954     118.339
     154.000     87.5001     87.6000     115.134     2.39800     2.43042     118.085
     154.100     90.2000     89.9000     116.652     2.48100     2.45420     118.034
     154.200     91.7000     91.7000     128.153     2.47800     2.48023     117.831
     154.300     92.2002     90.3000     124.992     2.46100     2.46422     118.034
     154.400     89.3996     89.3999     111.088     2.48699     2.52921     117.831
     154.500     87.1999     88.5000     98.3888     2.43000     2.36959     118.034
     154.600     85.5000     87.9000     93.3330     2.46500     2.46500     117.831
     154.700     84.4000     87.0000     92.1330     2.46400     2.48767     118.059
     154.800     86.6000     85.6100     90.9951     2.43900     2.45370     117.983
     154.900     86.5100     86.6000     86.3833     2.45800     2.46985     118.212
     155.000     86.0000     87.0000     104.076     2.48500     2.48219     118.085
     155.100     86.2000     86.4000     101.611     2.45000     2.41337     118.059
     155.200     85.6000     85.3000     104.202     2.46900     2.45041     117.932
     155.300     83.8002     81.9998     87.4571     2.45900     2.49340     117.958
     155.400     79.0992     79.1998     83.2223     2.51999     2.53676     118.085
     155.500     74.7000     76.1999     75.7029     2.47900     2.47466     118.059
     155.600     70.1999     72.6999     77.1560     2.47300     2.43455     117.932
     155.700     66.6999     69.6999     77.4090     2.50200     2.52790     117.907
     155.800     66.4000     67.8000     79.8103     2.48000     2.47844     117.805
     155.900     66.5000     67.0000     67.4252     2.51400     2.54492     117.907
     156.000     66.6000     67.1000     68.4989     2.48000     2.45922     117.831
     156.100     66.4000     68.0000     66.2880     2.52400     2.49989     118.085
     156.200     66.8000     67.9000     66.0980     2.59500     2.62565     118.085
     156.300     67.8000     68.1100     62.3059     2.53600     2.52122     118.085
     156.400     68.2101     69.6003     70.6491     2.51100     2.48329     118.059
     156.500     69.9000     71.9999     76.5878     2.52000     2.49655     117.958
     156.600     72.9000     74.4000     79.6847     2.52200     2.56933     118.085
     156.700     75.9000     75.9000     68.0577     2.44700     2.43523     118.085
     156.800     78.8000     78.1001     71.9119     2.43500     2.45234     118.085
     156.900     79.9000     79.8001     72.7348     2.49099     2.49550     118.059
     157.000     80.1000     80.7000     91.1220     2.44300     2.43421     118.008
     157.100     80.0000     81.0000     93.2696     2.49200     2.49002     118.364
     157.200     80.3000     81.0000     97.5666     2.46200     2.46043     118.237
     157.300     79.7000     80.7000     94.5346     2.52300     2.52961     118.212
     157.400     79.6999     80.1000     101.549     2.52800     2.54158     118.085
     157.500     79.1001     79.8000     105.972     2.49700     2.48849     118.085
     157.600     78.4000     79.0000     105.087     2.52700     2.50069     118.034
     157.700     78.0000     79.0000     90.1738     2.47400     2.49820     117.780
     157.800     78.0000     79.4000     89.5421     2.43400     2.41137     117.805
     157.900     78.4004     80.0101     84.2343     2.47700     2.47456     117.932
     158.000     80.4099     80.7000     85.8140     2.44000     2.45028     117.907
     158.100     81.3999     81.8000     84.8660     2.44600     2.47222     117.754
     158.200     82.3999     82.7000     86.0660     2.46300     2.43149     117.627
     158.300     82.4000     82.9000     85.3080     2.46500     2.47615     117.678
     158.400     81.5997     81.3996     85.0547     2.47600     2.50259     117.932
     158.500     79.5998     79.1001     80.1259     2.48600     2.46180     117.932
     158.600     76.6002     76.8000     77.7877     2.49300     2.52798     117.881
     158.700     73.0002     76.6000     69.0047     2.56100     2.57273     117.627
     158.800     73.0000     76.9000     57.5673     2.51300     2.45328     117.602
     158.900     75.5003     76.8002     60.8543     2.51200     2.44310     117.500
     159.000     78.2001     78.3000     67.8682     2.50300     2.56817     117.577
     159.100     81.4000     79.6999     84.2969     2.49700     2.50167     117.348
     159.200     81.9000     81.7999     86.4449     2.45000     2.45913     117.450
     159.300     81.0000     82.3000     92.1332     2.49700     2.50629     117.348
     159.400     80.4998     80.8100     86.1928     2.49000     2.48220     117.526
     159.500     78.9100     80.8000     84.6767     2.50700     2.54632     117.805
     159.600     79.4000     80.3000     91.9430     2.46700     2.42021     118.008
     159.700     79.6000     81.0000     96.5560     2.48600     2.47060     118.415
     159.800     80.7000     81.0000     99.1466     2.48300     2.50145     118.542
     159.900     81.5999     80.7998     84.2340     2.43700     2.45083     118.491
     160.000     81.0000     79.6001     83.7285     2.45000     2.42270     118.135
     160.100     77.8999     77.6000     76.9042     2.47800     2.50910     117.627
     160.200     74.2999     76.8000     72.9862     2.49500     2.49318     117.627
     160.300     73.8000     78.9997     78.7975     2.50000     2.50726     117.627
     160.400     77.8007     81.9003     92.0759     2.48199     2.42864     117.526
     160.500     84.7996     84.8004     127.583     2.42400     2.41222     116.840
     160.600     91.7997     90.9000     124.992     2.43400     2.47703     115.875
     160.700     98.5997     96.0000     132.891     2.32500     2.28890     115.418
     160.800     100.000     98.3000     111.785     2.36200     2.39694     115.824
     160.900     98.7003     100.220     124.486     2.38200     2.44174     116.865
     161.000     100.220     100.800     118.041     2.36700     2.25295     117.627
     161.100     100.000     100.400     116.651     2.39400     2.45401     117.653
     161.200     98.4001     102.700     109.637     2.38500     2.47309     117.780
     161.300     104.300     106.000     100.412     2.19301     1.92463     117.831
     161.400     108.300     109.800     107.301     2.09900     2.20883     118.186
