#------------------------------------------------------------
~VERSION INFORMATION
VERS.               2.0  :CWLS LOG ASCII STANDARD-VERSION 2.0
WRAP.                NO  :ONE LINE PER DEPTH STEP
#------------------------------------------------------------
~WELL INFORMATION
STRT.M              0.0  :START DEPTH
STOP.M            225.0  :STOP DEPTH
STEP.M              0.1  :STEP
NULL.           -999.25  :NULL VALUE
COMP.               N/A  :COMPANY
WELL.               N/A  :WELL
 FLD.               N/A  :FIELD
 LOC.               N/A  :LOCATION
PROV.               N/A  :PROVINCE
SRVC.               N/A  :SERVICE COMPANY
DATE.               N/A  :DATE
 UWI.               N/A  :UNIQUE WELL ID
#------------------------------------------------------------
~CURVE INFORMATION
DEPT.M                   :DEPTH
GRDE.API                 :GRDE
CADE.MM                  :CADE
DENL.G/CC                :DENL
ADEN.G/C3                :ADEN
MC2F.USFT                :MC2F
MC4F.MS/F                :MC4F
MC6F.MS/F                :MC6F
#------------------------------------------------------------
~OTHER
#------------------------------------------------------------
~A   DEPT[M]    GRDE[API    CADE[mm]    DENL[G/C    ADEN[G/C    MC2F[uSF    MC4F[MS/    MC6F[MS/
# ...
     49.8000     54.0908     129.920     1.55000     1.61000    -999.250    -999.250    -999.250
     49.9000     45.7703     129.820     1.54000     1.61000    -999.250    -999.250    -999.250
     50.0000     29.5109     129.850     1.50000     1.54999    -999.250    -999.250    -999.250
     50.1000     25.7300     129.940     1.44000     1.43000    -999.250    -999.250    -999.250
     50.2000     31.6599     129.920     1.40000     1.38000    -999.250    -999.250    -999.250
     50.3000     36.4497     129.820     1.39000     1.41000    -999.250    -999.250    -999.250
     50.4000     42.0299     129.790     1.42000     1.41000    -999.250    -999.250    -999.250
     50.5000     43.1300     129.700     1.45000     1.47000    -999.250    -999.250    -999.250
     50.6000     44.9700     129.700     1.49000     1.53000    -999.250    -999.250    -999.250
     50.7000     50.5995     129.750     1.50000     1.58000    -999.250    -999.250    -999.250
     50.8000     45.9702     129.940     1.49000     1.57000    -999.250    -999.250    -999.250
     50.9000     46.5197     129.920     1.45000     1.49000    -999.250    -999.250    -999.250
     51.0000     40.2799     129.770     1.39000     1.42000    -999.250    -999.250    -999.250
     51.1000     34.3996     129.600     1.36000     1.34000    -999.250    -999.250    -999.250
     51.2000     29.5100     129.700     1.34000     1.33000    -999.250    -999.250    -999.250
     51.3000     29.1698     129.700     1.38000     1.38000    -999.250    -999.250    -999.250
     51.4000     35.4008     129.700     1.46001     1.48000    -999.250    -999.250    -999.250
     51.5000     55.1399     129.700     1.58000     1.65999    -999.250    -999.250    -999.250
     51.6000     82.4609     129.730     1.68001     1.83000    -999.250    -999.250    -999.250
     51.7000     117.759     129.820     1.74000     1.91000    -999.250    -999.250    -999.250
     51.8000     126.390     129.820     1.74000     1.88000    -999.250    -999.250    -999.250
     51.9000     130.970     129.850     1.72000     1.81001    -999.250    -999.250    -999.250
     52.0000     126.440     129.970     1.71000     1.82000    -999.250    -999.250    -999.250
     52.1000     123.790     130.070     1.71000     1.84000    -999.250    -999.250    -999.250
     52.2000     121.450     130.070     1.72000     1.83000    -999.250    -999.250    -999.250
     52.3000     114.220     130.040     1.75000     1.87000    -999.250    -999.250    -999.250
     52.4000     118.460     129.970     1.77000     1.93000    -999.250    -999.250    -999.250
     52.5000     116.270     130.040     1.77000     1.94999    -999.250    -999.250    -999.250
     52.6000     124.490     129.940     1.79000     1.85000    -999.250    -999.250    -999.250
     52.7000     130.130     129.940     1.83000     1.84000    -999.250    -999.250    -999.250
     52.8000     136.810     129.940     1.89000     2.00000    -999.250    -999.250    -999.250
     52.9000     127.280     129.970     1.93000     2.16999    -999.250    -999.250    -999.250
     53.0000     118.460     130.070     1.95000     2.16000    -999.250    -999.250    -999.250
     53.1000     103.200     130.070     1.92000     2.04999    -999.250    -999.250    -999.250
     53.2000     100.110     130.070     1.90000     1.95000    -999.250    -999.250    -999.250
     53.3000     96.5700     130.100     1.86000     1.95000    -999.250    -999.250    -999.250
     53.4000     95.8695     130.220     1.86000     2.00000    -999.250    -999.250    -999.250
     53.5000     88.7401     130.290     1.86000     2.02000    -999.250    -999.250    -999.250
     53.6000     86.6997     130.220     1.85000     2.04000    -999.250    -999.250    -999.250
     53.7000     81.5201     130.290     1.80000     1.99000    -999.250    -999.250    -999.250
     53.8000     79.1700     130.190     1.71000     1.85000    -999.250    -999.250    -999.250
     53.9000     75.0305     130.130     1.61000     1.69000    -999.250    -999.250    -999.250
     54.0000     86.3500     129.970     1.54000     1.60000    -999.250    -999.250    -999.250
     54.1000     91.8401     130.070     1.51000     1.58000    -999.250    -999.250    -999.250
     54.2000     81.0703     130.070     1.53000     1.61000    -999.250    -999.250    -999.250
     54.3000     75.0300     130.040     1.58000     1.67000    -999.250    -999.250    -999.250
     54.4000     75.1803     129.970     1.65000     1.78000    -999.250    -999.250    -999.250
     54.5000     81.8099     130.070     1.71000     1.87000    -999.250    -999.250    -999.250
     54.6000     84.7598     130.070     1.73000     1.89000    -999.250    -999.250    -999.250
     54.7000     82.0098     130.040     1.71000     1.85000    -999.250    -999.250    -999.250
     54.8000     78.6203     129.970     1.68000     1.80000    -999.250    -999.250    -999.250
     54.9000     70.8497     130.100     1.65000     1.73000    -999.250    -999.250    -999.250
     55.0000     61.9200     130.160     1.62000     1.68000    -999.250    -999.250    -999.250
     55.1000     57.7803     130.070     1.62000     1.60000    -999.250    -999.250    -999.250
     55.2000     62.8704     130.040     1.65000     1.63001    -999.250    -999.250    -999.250
     55.3000     70.4496     130.000     1.73000     1.75000    -999.250    -999.250    -999.250
     55.4000     86.0988     130.160     1.82000     1.88999    -999.250    -999.250    -999.250
     55.5000     82.2105     130.100     1.92000     1.98000    -999.250    -999.250    -999.250
     55.6000     92.3803     130.160     2.01001     2.06000    -999.250    -999.250    -999.250
     55.7000     98.2200     130.070     2.07000     2.15000    -999.250    -999.250    -999.250
     55.8000     104.300     130.070     2.09000     2.17000    -999.250    -999.250    -999.250
     55.9000     96.3696     130.100     2.06000     2.11000    -999.250    -999.250    -999.250
     56.0000     84.1603     130.160     1.99000     2.00000    -999.250    -999.250    -999.250
     56.1000     77.6293     130.040     1.92999     1.92000    -999.250    -999.250    -999.250
     56.2000     70.2502     129.940     1.86999     1.87000    -999.250    -999.250    -999.250
     56.3000     77.3800     129.970     1.81000     1.80000    -999.250    -999.250    -999.250
     56.4000     72.4903     130.100     1.79000     1.75000    -999.250    -999.250    -999.250
     56.5000     75.0793     130.190     1.78000     1.74000    -999.250    -999.250    -999.250
     56.6000     65.0103     130.220     1.81000     1.80000    -999.250    -999.250    -999.250
     56.7000     70.7503     130.260     1.84000     1.88000    -999.250    -999.250    -999.250
     56.8000     78.0299     130.040     1.85000     1.91000    -999.250    -999.250    -999.250
     56.9000     82.1595     129.940     1.83000     1.83000    -999.250    -999.250    -999.250
     57.0000     78.1198     129.970     1.81000     1.74001    -999.250    -999.250    -999.250
     57.1000     74.5400     130.100     1.83000     1.80000    -999.250    -999.250    -999.250
     57.2000     73.8402     130.160     1.90000     1.93999    -999.250    -999.250    -999.250
     57.3000     78.7200     130.100     1.97000     2.03000    -999.250    -999.250    -999.250
     57.4000     76.1807     130.140     2.02000     2.05000    -999.250    -999.250    -999.250
     57.5000     92.7296     129.970     2.05000     2.09000    -999.250    -999.250    -999.250
     57.6000     89.4404     130.070     2.06000     2.11000    -999.250    -999.250    -999.250
     57.7000     93.0300     130.120     2.06000     2.10000    -999.250    -999.250    -999.250
     57.8000     85.5004     130.290     2.04000     2.04000    -999.250    -999.250    -999.250
     57.9000     99.7599     130.190     2.05000     2.06000    -999.250    -999.250    -999.250
     58.0000     104.700     130.160     2.07000     2.10000    -999.250    -999.250    -999.250
