#------------------------------------------------------------
~VERSION INFORMATION
VERS.               2.0  :CWLS LOG ASCII STANDARD-VERSION 2.0
WRAP.                NO  :ONE LINE PER DEPTH STEP
#------------------------------------------------------------
~WELL INFORMATION
STRT.M              0.0  :START DEPTH
STOP.M            185.2  :STOP DEPTH
STEP.M              0.1  :STEP
NULL.           -999.25  :NULL VALUE
COMP.               N/A  :COMPANY
WELL.               N/A  :WELL
 FLD.               N/A  :FIELD
 LOC.               N/A  :LOCATION
PROV.               N/A  :PROVINCE
SRVC.               N/A  :SERVICE COMPANY
DATE.               N/A  :DATE
 UWI.               N/A  :UNIQUE WELL ID
#------------------------------------------------------------
~CURVE INFORMATION
DEPT.M                   :DEPTH
MC2F.USFT                :MC2F
MC4F.MS/F                :MC4F
MC6F.MS/F                :MC6F
GRDE.API                 :GRDE
ADEN.GM/CC               :ADEN
DENL.G/CC                :DENL
CADE.MM                  :CADE
#------------------------------------------------------------
~OTHER
#------------------------------------------------------------
~A   DEPT[M]    MC2F[uSF    MC4F[MS/    MC6F[MS/    GRDE[API    ADEN[GM/    DENL[G/C    CADE[mm]
# ...
     16.6000     200.000     200.000     191.000     112.206     2.39261     2.34500     128.626
     16.7000     200.000     200.000     191.000     106.088     2.36411     2.39400     128.422
     16.8000     200.000     200.000     191.000     118.842     2.39035     2.39500     127.965
     16.9000     200.000     200.000     191.000     127.923     2.48850     2.43900     127.178
     17.0000     200.000     200.000     191.000     125.024     2.42119     2.41400     127.279
     17.1000     200.000     200.000     191.000     116.908     2.42494     2.42000     127.864
     17.2000     200.000     200.000     191.000     110.918     2.34142     2.36700     128.702
     17.3000     192.698     200.000     191.000     104.992     2.39828     2.39700     128.854
     17.4000     157.601     200.000     191.000     106.151     2.31873     2.39000     128.956
     17.5000     165.699     199.999     192.200     103.382     2.48160     2.40200     128.854
     17.6000     151.000     181.298     186.099     105.185     2.37615     2.39600     128.981
     17.7000     151.060     138.000     175.000     98.4863     2.48559     2.48300     128.981
     17.8000     147.500     134.401     173.100     105.056     2.42892     2.40700     128.981
     17.9000     152.200     143.102     171.960     106.023     2.37221     2.37000     128.956
     18.0000     145.000     176.060     166.200     115.362     2.35862     2.36300     128.854
     18.1000     139.099     175.199     159.800     116.071     2.34259     2.33700     128.956
     18.2000     128.600     164.600     162.900     118.390     2.33205     2.33600     128.829
     18.3000     121.600     171.700     163.400     124.316     2.34456     2.39900     128.727
     18.4000     128.600     174.900     163.800     127.794     2.39035     2.39700     128.219
     18.5000     133.600     181.400     164.400     126.827     2.41853     2.37900     127.762
     18.6000     134.700     185.499     160.299     116.585     2.37665     2.34900     127.432
     18.7000     142.900     175.598     142.000     101.127     2.31406     2.32100     127.229
     18.8000     146.899     147.000     140.100     107.826     2.32911     2.34000     127.432
     18.9000     137.599     142.400     143.399     113.043     2.29686     2.35500     127.305
     19.0000     128.700     141.199     133.500     119.742     2.40161     2.37200     127.965
     19.1000     129.500     123.001     134.801     120.000     2.41517     2.38300     128.702
     19.2000     135.399     141.801     153.100     119.743     2.37450     2.36600     129.489
     19.3000     124.300     167.400     153.399     129.469     2.33268     2.35200     129.489
     19.4000     115.940     165.200     131.301     123.736     2.36349     2.34100     129.464
     19.5000     117.100     159.500     141.600     119.613     2.35579     2.37600     129.388
     19.6000     117.500     162.000     146.140     103.124     2.38381     2.40100     129.667
     19.7000     125.900     161.360     142.800     102.481     2.39728     2.41400     129.616
     19.8000     125.499     155.800     139.600     116.844     2.44465     2.40800     129.184
     19.9000     112.919     150.500     142.098     116.457     2.41220     2.40800     127.711
     20.0000     102.820     150.099     119.100     116.006     2.42949     2.49200     126.263
     20.1000     100.200     139.198     112.820     110.661     2.59807     2.46500     125.552
     20.2000     108.200     113.920     111.620     127.858     2.35819     2.43701     125.476
     20.3000     115.220     116.020     113.000     127.535     2.50560     2.53399     126.467
     20.4000     117.900     119.600     115.000     110.015     2.43461     2.46300     127.635
     20.5000     122.500     117.700     112.420     92.3024     2.49783     2.44200     128.727
     20.6000     118.099     110.820     109.700     82.8340     2.47760     2.49600     128.981
     20.7000     99.9997     106.203     106.201     83.2849     2.48960     2.46900     128.981
     20.8000     95.5003     165.000     123.001     82.0618     2.50441     2.50800     128.981
     20.9000     100.800     165.000     142.000     96.6839     2.53146     2.49100     128.880
     21.0000     103.700     165.000     142.700     111.111     2.46270     2.47000     128.499
     21.1000     113.821     165.700     143.200     119.034     2.45979     2.46100     128.499
     21.2000     124.500     164.192     143.401     120.515     2.39387     2.40800     128.448
     21.3000     126.500     30.0000     153.029     109.179     2.40183     2.38700     128.219
     21.4000     121.404     30.0000     128.199     109.113     2.29450     2.33400     127.660
     21.5000     200.000     30.0000     117.000     91.2083     2.33303     2.33001     127.000
     21.6000     200.000     30.0000     117.000     95.7170     2.40068     2.44800     126.975
     21.7000     200.000     30.0058     117.000     95.3303     2.49556     2.49200     126.898
     21.8000     200.000     111.020     117.000     102.093     2.53208     2.47600     127.000
     21.9000     191.301     111.020     117.020     100.997     2.47600     2.49400     127.178
     22.0000     200.000     111.020     117.000     88.4384     2.52813     2.47700     127.965
     22.1000     193.899     111.000     117.000     93.7845     2.40914     2.41900     128.702
     22.2000     174.000     111.000     116.900     103.318     2.40715     2.41900     129.591
     22.3000     173.999     111.000     117.000     119.871     2.30667     2.37100     130.099
     22.4000     156.200     111.000     117.000     112.464     2.47264     2.43500     130.556
     22.5000     150.398     111.000     117.000     105.700     2.38846     2.36700     130.759
     22.6000     116.800     111.000     117.001     106.151     2.41590     2.41800     130.378
     22.7000     116.800     111.000     128.700     110.725     2.34813     2.40200     129.616
     22.8000     111.840     105.200     131.599     114.847     2.53796     2.50700     127.864
     22.9000     104.500     96.2990     121.998     112.077     2.48907     2.46900     126.213
     23.0000     101.199     81.0000     89.0200     104.799     2.45694     2.44100     124.536
     23.1000     87.1985     81.0200     89.0000     99.9680     2.45788     2.42600     123.977
     23.2000     64.1003     81.0002     89.9000     99.8400     2.35251     2.42400     124.409
     23.3000     70.1015     84.2003     89.5000     115.492     2.44600     2.39800     125.425
     23.4000     96.1008     90.4006     88.8003     125.024     2.37461     2.41300     126.771
     23.5000     112.320     100.800     94.7006     129.339     2.42006     2.45600     127.838
     23.6000     109.000     107.400     102.800     119.420     2.46438     2.42200     128.549
     23.7000     103.600     106.600     105.220     112.464     2.41540     2.44700     128.803
     23.8000     105.300     101.120     101.800     110.146     2.45105     2.44600     128.702
     23.9000     104.200     98.1998     98.4000     120.579     2.44625     2.45500     128.829
     24.0000     100.100     95.2999     97.8000     113.688     2.52468     2.47700     128.854
     24.1000     96.4000     93.4000     97.5000     118.519     2.45604     2.45700     128.956
     24.2000     96.2000     93.8001     97.1000     109.372     2.46540     2.47900     128.803
     24.3000     97.0002     95.5001     96.9001     109.500     2.40803     2.40600     128.651
     24.4000     101.100     96.6002     98.3001     89.4045     2.42710     2.40500     128.549
     24.5000     104.240     99.4002     100.500     96.2966     2.44364     2.46200     128.041
     24.6000     107.100     102.100     102.500     105.766     2.45822     2.47100     127.356
     24.7000     108.600     102.700     103.740     114.461     2.43662     2.39200     126.670
     24.8000     106.900     103.140     100.600     107.440     2.33421     2.40000     126.441
