#------------------------------------------------------------
~VERSION INFORMATION
VERS.               2.0  :CWLS LOG ASCII STANDARD-VERSION 2.0
WRAP.                NO  :ONE LINE PER DEPTH STEP
#------------------------------------------------------------
~WELL INFORMATION
STRT.M              0.0  :START DEPTH
STOP.M            185.2  :STOP DEPTH
STEP.M              0.1  :STEP
NULL.           -999.25  :NULL VALUE
COMP.               N/A  :COMPANY
WELL.               N/A  :WELL
 FLD.               N/A  :FIELD
 LOC.               N/A  :LOCATION
PROV.               N/A  :PROVINCE
SRVC.               N/A  :SERVICE COMPANY
DATE.               N/A  :DATE
 UWI.               N/A  :UNIQUE WELL ID
#------------------------------------------------------------
~CURVE INFORMATION
DEPT.M                   :DEPTH
MC2F.USFT                :MC2F
MC4F.MS/F                :MC4F
MC6F.MS/F                :MC6F
GRDE.API                 :GRDE
ADEN.GM/CC               :ADEN
DENL.G/CC                :DENL
CADE.MM                  :CADE
#------------------------------------------------------------
~OTHER
#------------------------------------------------------------
~A   DEPT[M]    MC2F[uSF    MC4F[MS/    MC6F[MS/    GRDE[API    ADEN[GM/    DENL[G/C    CADE[mm]
# ...
     41.5000     105.499     92.9000     94.4997     117.874     2.50109     2.46800     124.943
     41.6000     92.1997     92.1992     89.9100     118.518     2.46649     2.44002     125.400
     41.7000     88.3999     83.8100     90.2997     110.659     2.65908     2.60500     125.832
     41.8000     87.3999     83.7000     86.3999     100.870     2.51303     2.58100     126.009
     41.9000     85.3003     83.1998     83.6003     89.9195     2.53313     2.50100     125.654
     42.0000     89.2999     80.9003     87.6001     97.3272     2.56524     2.53300     125.044
     42.1000     86.3005     87.5003     89.8004     111.178     2.54787     2.60100     124.511
     42.2000     92.9410     91.7004     94.4004     127.859     2.57585     2.54599     124.358
     42.3000     104.700     96.6003     98.8001     136.232     2.43330     2.41700     124.257
     42.4000     108.400     104.700     101.440     139.259     2.45305     2.47800     124.358
     42.5000     110.900     105.740     107.100     143.510     2.41374     2.43900     124.155
     42.6000     111.900     108.100     110.500     136.360     2.51051     2.49600     123.673
     42.7000     112.701     111.400     111.200     127.858     2.43763     2.46200     123.241
     42.8000     118.600     111.200     113.200     123.285     2.57539     2.46700     122.809
     42.9000     119.100     113.700     115.600     129.469     2.35463     2.43800     121.666
     43.0000     115.600     117.000     115.100     133.333     2.40777     2.42400     120.396
     43.1000     120.040     113.100     111.500     142.930     2.41558     2.39700     119.736
     43.2000     118.299     107.800     111.600     132.433     2.46611     2.41800     119.685
     43.3000     103.200     109.800     112.940     144.798     2.40193     2.37500     120.244
     43.4000     110.002     109.540     113.700     130.564     2.27889     2.31700     121.234
     43.5000     128.900     111.300     112.000     129.081     2.28388     2.34900     122.479
     43.6000     121.000     116.600     112.100     111.111     2.33855     2.39501     122.911
     43.7000     119.999     113.800     115.100     115.943     2.54254     2.46700     122.479
     43.8000     113.800     111.800     116.700     129.212     2.43317     2.43900     122.199
     43.9000     111.001     114.300     118.000     139.391     2.51409     2.51299     122.072
     44.0000     122.600     116.900     119.300     171.014     2.38396     2.32500     122.072
     44.1000     132.200     121.600     121.100     178.228     2.34581     2.32700     122.149
     44.2000     130.200     126.000     122.700     170.819     2.22868     2.36400     122.580
     44.3000     131.100     122.200     122.600     148.662     2.40201     2.40400     122.809
     44.4000     128.399     117.700     120.000     138.937     2.55591     2.42800     122.657
     44.5000     118.800     114.800     118.900     140.676     2.39275     2.42100     122.555
     44.6000     117.620     112.600     119.100     144.027     2.48605     2.44600     122.860
     44.7000     117.620     114.400     115.900     151.821     2.23789     2.42800     123.774
     44.8000     121.700     114.400     114.720     162.513     2.58669     2.43300     124.689
     44.9000     118.599     113.120     116.320     179.323     2.49162     2.47500     125.400
     45.0000     111.900     115.620     116.500     159.807     2.41462     2.50600     125.654
     45.1000     120.800     113.899     111.800     140.995     2.59504     2.53799     125.044
     45.2000     125.798     108.200     108.700     104.930     2.52354     2.46800     124.333
     45.3000     104.500     106.700     110.600     131.531     2.40057     2.47000     123.495
     45.4000     98.0016     105.400     112.500     146.088     2.41003     2.43800     123.571
     45.5000     113.500     105.800     110.600     165.089     2.46541     2.39200     123.520
     45.6000     122.700     113.600     111.700     166.506     2.34674     2.39300     123.749
     45.7000     120.600     118.500     118.200     161.096     2.38929     2.38101     123.622
     45.8000     121.600     120.400     121.400     167.987     2.37319     2.46100     123.647
     45.9000     125.500     120.800     118.200     156.135     2.55809     2.48500     123.749
     46.0000     124.600     117.000     119.000     154.847     2.54362     2.48800     123.647
     46.1000     113.400     117.000     119.200     135.137     2.48641     2.48499     123.749
     46.2000     113.901     116.400     119.500     129.984     2.34544     2.37700     123.647
     46.3000     126.000     116.800     118.700     132.367     2.35330     2.36700     123.774
     46.4000     127.220     121.400     117.300     137.907     2.38459     2.39000     123.774
     46.5000     126.100     118.900     120.300     141.514     2.38062     2.40400     123.774
     46.6000     118.800     117.300     121.320     146.861     2.40815     2.39900     123.825
     46.7000     119.101     118.220     121.800     165.605     2.42804     2.39100     124.231
     46.8000     128.200     119.100     122.100     175.910     2.34579     2.37500     124.993
     46.9000     127.200     124.200     123.000     182.737     2.44351     2.43600     125.730
     47.0000     127.900     124.400     125.800     169.403     2.43434     2.44800     126.263
     47.1000     128.000     124.900     124.500     155.490     2.42095     2.40600     126.238
     47.2000     129.900     122.700     125.200     137.841     2.49007     2.45300     125.476
     47.3000     126.200     123.400     125.800     128.760     2.40277     2.43700     124.663
     47.4000     126.800     124.600     126.400     127.280     2.43464     2.44300     123.927
     47.5000     128.300     124.100     124.300     139.646     2.45295     2.44800     123.774
     47.6000     129.900     123.400     128.200     136.619     2.44040     2.39599     123.114
     47.7000     126.801     128.900     132.300     145.314     2.27856     2.31400     122.911
     47.8000     134.901     133.900     133.900     140.162     2.34833     2.33300     122.504
     47.9000     147.600     135.500     134.400     150.596     2.23167     2.24800     122.301
     48.0000     147.820     137.900     136.200     145.573     2.30286     2.30500     121.818
     48.1000     141.399     136.600     138.500     164.831     2.29316     2.28600     121.336
     48.2000     134.600     134.100     138.520     170.178     2.32637     2.33199     121.285
     48.3000     136.300     133.820     135.700     182.544     2.26829     2.27800     120.421
     48.4000     141.300     132.900     135.000     169.854     2.26667     2.22899     119.685
     48.5000     139.600     135.100     137.200     159.806     2.12174     2.11100     118.466
     48.6000     139.201     137.500     140.300     141.899     1.93863     1.91999     117.958
     48.7000     153.305     139.600     141.400     133.205     1.74983     1.78300     117.500
     48.8000     199.499     142.500     143.201     135.201     1.72121     1.73100     117.805
     48.9000     169.899     144.800     161.001     140.483     1.68839     1.70700     118.212
     49.0000     147.100     144.000     170.499     141.063     1.76486     1.69900     118.847
     49.1000     147.900     143.500     152.099     132.109     1.56832     1.65400     118.872
     49.2000     147.300     141.200     143.100     116.329     1.64159     1.67600     118.923
     49.3000     147.400     140.800     142.000     117.553     1.69309     1.72400     118.516
     49.4000     145.300     139.000     142.100     139.712     1.93677     1.86401     118.339
     49.5000     144.200     139.300     142.700     165.539     1.97502     2.00800     118.135
     49.6000     145.800     140.300     143.800     164.831     2.09304     2.06300     118.415
     49.7000     145.140     142.800     142.400     160.965     2.17782     2.09400     118.669
