#------------------------------------------------------------
~VERSION INFORMATION
VERS.               2.0  :CWLS LOG ASCII STANDARD-VERSION 2.0
WRAP.                NO  :ONE LINE PER DEPTH STEP
#------------------------------------------------------------
~WELL INFORMATION
STRT.M              0.0  :START DEPTH
STOP.M            234.0  :STOP DEPTH
STEP.M              0.1  :STEP
NULL.           -999.25  :NULL VALUE
COMP.               N/A  :COMPANY
WELL.               N/A  :WELL
 FLD.               N/A  :FIELD
 LOC.               N/A  :LOCATION
PROV.               N/A  :PROVINCE
SRVC.               N/A  :SERVICE COMPANY
DATE.               N/A  :LOG DATE
 UWI.               N/A  :UNIQUE WELL ID
#------------------------------------------------------------
~CURVE INFORMATION
DEPT.M                   :DEPTH
GRDE.API                 :GRDE
DENL.G/CC                :DENL
MC2F.USFT                :MC2F
MC4F.MS/F                :MC4F
MC6F.MS/F                :MC6F
CADE.MM                  :CADE
#------------------------------------------------------------
~OTHER
#------------------------------------------------------------
~A   DEPT[M]    GRDE[API    DENL[G/C    MC2F[uSF    MC4F[MS/    MC6F[MS/    CADE[mm]
# ...
     114.000     119.019     2.39800     102.600     101.000     95.7999     133.782
     114.100     111.611     2.39800     105.600     102.700     98.6997     133.909
     114.200     117.571     2.48600     104.200     101.300     101.000     133.604
     114.300     121.195     2.47800     98.8204     99.9000     100.900     133.680
     114.400     136.118     2.47901     97.2995     99.0000     101.100     133.528
     114.500     132.330     2.53200     101.700     99.5000     99.7201     133.452
     114.600     126.148     2.49500     104.000     99.7201     98.7000     133.502
     114.700     129.157     2.49402     100.800     99.0000     100.300     133.248
     114.800     140.575     2.57198     96.2009     99.1000     100.900     133.172
     114.900     162.851     2.45300     99.6998     99.3001     101.600     133.223
     115.000     157.448     2.42401     104.800     101.600     103.100     133.045
     115.100     150.096     2.35200     105.940     106.400     105.400     133.426
     115.200     139.068     2.38000     110.800     108.000     105.800     134.137
     115.300     128.045     2.46399     112.898     106.400     104.840     134.595
     115.400     134.669     2.45700     104.621     103.940     105.000     134.341
     115.500     135.393     2.49300     95.1997     101.600     104.400     133.401
     115.600     126.259     2.49500     98.8997     100.100     103.020     133.248
     115.700     125.313     2.40000     103.600     102.020     100.900     133.121
     115.800     129.270     2.40500     105.300     103.500     101.200     133.096
     115.900     157.169     2.41399     103.400     102.100     102.200     132.994
     116.000     149.040     2.52600     100.800     101.500     102.000     133.045
     116.100     137.735     2.48000     99.4001     100.300     102.000     133.248
     116.200     122.696     2.50800     101.700     101.300     100.900     133.198
     116.300     125.702     2.49400     104.600     101.400     99.2003     133.553
     116.400     125.647     2.50900     102.900     99.1000     100.300     134.036
     116.500     122.249     2.49500     94.8000     99.2000     100.800     134.061
     116.600     122.753     2.50100     96.3997     98.7999     101.200     133.528
     116.700     139.349     2.50800     103.600     100.201     101.300     132.944
     116.800     145.139     2.45300     105.720     104.400     101.000     133.350
     116.900     145.750     2.44400     106.800     103.000     103.300     133.604
     117.000     125.090     2.49200     103.700     102.600     103.220     133.579
     117.100     124.033     2.49000     101.200     101.720     102.600     133.096
     117.200     117.462     2.46200     102.200     100.200     101.600     132.944
     117.300     130.213     2.43101     102.100     100.300     100.300     132.867
     117.400     126.371     2.49300     100.300     99.7000     100.000     133.071
     117.500     136.953     2.46600     99.8001     98.9999     98.4001     133.553
     117.600     129.267     2.48600     98.6000     96.4999     96.4000     134.061
     117.700     132.052     2.48400     94.9997     94.2997     94.9998     134.341
     117.800     126.372     2.48900     93.5001     92.6001     94.0001     134.544
     117.900     138.456     2.47400     93.0000     91.9001     94.0000     135.052
     118.000     140.461     2.50300     93.5196     93.3000     95.2000     135.636
     118.100     151.210     2.49000     95.9001     95.9000     95.7000     135.738
     118.200     137.898     2.50900     100.800     96.7001     96.0200     135.585
     118.300     132.329     2.47301     100.600     97.5194     94.9997     135.509
     118.400     111.111     2.52400     96.5994     94.8001     93.0000     135.611
     118.500     95.6829     2.67001     87.0203     89.1999     90.7999     135.534
     118.600     89.4455     2.51500     85.6000     85.8998     88.7999     135.153
     118.700     99.0254     2.54300     84.3004     88.4000     89.7398     134.366
     118.800     103.479     2.55098     87.9006     90.0399     89.0002     133.426
     118.900     97.6320     2.45800     94.5001     90.4001     90.1999     133.045
     119.000     96.8519     2.44300     95.1000     93.0000     91.6000     133.579
     119.100     114.452     2.48900     94.6002     93.2002     92.5000     134.696
     119.200     124.587     2.50000     96.8995     91.4000     92.5000     135.026
     119.300     112.893     2.53698     94.4000     91.1000     92.3002     134.798
     119.400     109.272     2.46200     92.2000     91.2000     93.9000     134.010
     119.500     107.267     2.49500     95.3000     92.0001     94.2000     134.036
     119.600     121.470     2.49199     97.8000     93.6999     94.0000     134.290
     119.700     123.141     2.44100     97.7998     94.9999     94.6000     134.696
     119.800     131.549     2.49600     96.4998     93.9000     94.7000     134.569
     119.900     127.763     2.53800     94.8000     93.0000     94.7000     134.468
     120.000     121.358     2.45400     94.4000     93.2000     93.8000     134.645
     120.100     113.895     2.48300     95.3999     92.3000     93.0000     134.950
     120.200     118.742     2.50500     93.9200     92.1998     92.1000     135.052
     120.300     122.861     2.47800     93.3001     91.0000     92.2000     134.493
     120.400     119.186     2.47100     93.4000     90.4999     92.6200     133.960
     120.500     116.179     2.47400     93.6000     91.7200     92.5000     133.299
     120.600     118.741     2.51700     93.9000     92.1999     93.3000     133.401
     120.700     121.748     2.47700     94.0005     93.3000     93.3997     133.426
     120.800     120.189     2.50200     96.1998     92.9996     92.0003     133.909
     120.900     110.943     2.49300     95.1003     90.1000     92.9001     133.528
     121.000     117.125     2.49200     89.1002     92.1003     94.9002     133.452
     121.100     114.842     2.44600     91.6994     94.3998     98.0000     133.629
     121.200     126.815     2.40601     103.100     99.3011     100.600     133.985
     121.300     120.634     2.44200     109.699     106.100     101.800     134.315
     121.400     123.920     2.40500     110.800     106.600     104.100     133.858
     121.500     120.576     2.43000     106.200     104.400     105.800     133.731
     121.600     132.441     2.38800     99.9002     104.100     107.700     133.172
     121.700     132.497     2.35801     105.002     106.300     106.600     132.740
     121.800     129.600     2.41000     113.900     106.600     104.800     132.334
     121.900     126.203     2.38900     109.620     107.100     107.200     132.131
     122.000     133.277     2.31200     102.000     108.000     108.800     132.715
     122.100     129.435     2.38200     107.800     105.900     107.920     135.177
     122.200     121.580     2.37600     111.700     106.720     106.400     139.065
     122.300     111.837     2.37500     108.300     108.200     107.300     142.748
     122.400     126.649     2.42000     107.800     106.900     107.900     144.907
     122.500     131.884     2.41600     108.100     105.300     106.500     146.329
     122.600     128.153     2.45900     106.100     105.300     105.900     147.574
     122.700     125.480     2.45000     104.100     105.000     107.000     148.260
     122.800     123.309     2.41900     105.300     106.300     108.800     147.955
     122.900     130.492     2.37900     108.000     109.900     109.600     147.244
     123.000     118.852     2.39501     113.800     112.200     111.400     146.558
     123.100     116.123     2.23801     115.300     114.200     115.700     145.974
     123.200     100.248     2.10297     116.001     119.600     120.401     145.161
     123.300     85.1005     1.87998     123.799     124.001     125.000     143.764
     123.400     72.9042     1.68699     133.900     129.800     128.600     142.469
