#------------------------------------------------------------
~VERSION INFORMATION
VERS.               2.0  :CWLS LOG ASCII STANDARD-VERSION 2.0
WRAP.                NO  :ONE LINE PER DEPTH STEP
#------------------------------------------------------------
~WELL INFORMATION
STRT.M              0.0  :START DEPTH
STOP.M            225.0  :STOP DEPTH
STEP.M              0.1  :STEP
NULL.           -999.25  :NULL VALUE
COMP.               N/A  :COMPANY
WELL.               N/A  :WELL
 FLD.               N/A  :FIELD
 LOC.               N/A  :LOCATION
PROV.               N/A  :PROVINCE
SRVC.               N/A  :SERVICE COMPANY
DATE.               N/A  :DATE
 UWI.               N/A  :UNIQUE WELL ID
#------------------------------------------------------------
~CURVE INFORMATION
DEPT.M                   :DEPTH
GRDE.API                 :GRDE
CADE.MM                  :CADE
DENL.G/CC                :DENL
ADEN.G/C3                :ADEN
MC2F.USFT                :MC2F
MC4F.MS/F                :MC4F
MC6F.MS/F                :MC6F
#------------------------------------------------------------
~OTHER
#------------------------------------------------------------
~A   DEPT[M]    GRDE[API    CADE[mm]    DENL[G/C    ADEN[G/C    MC2F[uSF    MC4F[MS/    MC6F[MS/
# ...
     74.7000     126.340     115.260     2.53000     2.56999     105.500     104.030     103.670
     74.8000     122.800     115.260     2.54000     2.54000     102.150     103.430     102.130
     74.9000     120.300     115.230     2.53000     2.54000     100.150     100.930     102.750
     75.0000     112.081     115.240     2.53000     2.57000     98.4501     101.380     102.520
     75.1000     100.061     115.900     2.52000     2.54000     100.350     102.700     102.910
     75.2000     108.040     116.470     2.49000     2.51999     100.800     104.280     101.610
     75.3000     118.509     116.910     2.48000     2.48000     102.800     103.180     100.940
     75.4000     117.460     116.300     2.50000     2.48000     102.450     101.230     99.6202
     75.5000     110.980     116.070     2.52000     2.53000     100.250     99.0300     100.550
     75.6000     99.2094     116.220     2.54000     2.59000     99.3000     99.4301     98.7504
     75.7000     109.780     117.090     2.53000     2.57000     100.500     96.8987     90.2487
     75.8000     109.879     118.140     2.53000     2.50000     94.0994     85.2493     76.4298
     75.9000     99.1604     118.930     2.54000     2.47000     78.7000     65.0005     60.8012
     76.0000     82.0107     119.490     2.59000     2.60000     65.5501     60.2002     62.6198
     76.1000     71.9906     119.410     2.63000     2.70000     64.6099     66.1302     68.4800
     76.2000     85.6508     118.930     2.64000     2.73998     74.6608     82.6301     79.0306
     76.3000     98.1694     118.160     2.59000     2.61999     85.3099     85.7803     82.8704
     76.4000     113.568     117.610     2.55000     2.54000     93.4495     91.9998     88.7394
     76.5000     123.240     117.190     2.50000     2.48000     98.1999     95.7800     94.6698
     76.6000     125.240     117.350     2.49000     2.48000     100.000     99.3503     90.9001
     76.7000     114.570     117.830     2.48000     2.48000     100.400     89.6298     89.7300
     76.8000     114.521     119.230     2.49000     2.49000     100.800     85.5004     89.5309
     76.9000     119.160     120.600     2.53000     2.52000     99.2000     84.3001     96.9198
     77.0000     117.810     121.160     2.56000     2.62000     98.7000     95.1802     100.230
     77.1000     111.930     120.530     2.60000     2.68000     99.6499     99.9499     102.050
     77.2000     115.820     119.680     2.57000     2.62999     102.750     103.480     103.050
     77.3000     119.750     119.350     2.54000     2.52000     105.400     105.230     104.130
     77.4000     122.700     119.350     2.50000     2.47000     106.000     106.380     105.080
     77.5000     117.760     119.330     2.51000     2.52000     105.550     106.250     105.650
     77.6000     112.630     119.220     2.52000     2.55000     104.610     105.770     105.370
     77.7000     107.789     119.220     2.52000     2.55000     103.900     105.060     103.950
     77.8000     101.361     119.220     2.51000     2.50001     103.450     103.150     101.970
     77.9000     109.580     119.240     2.54000     2.54000     100.950     100.650     100.050
     78.0000     111.780     119.510     2.57000     2.60000     96.3002     98.1299     99.2000
     78.1000     109.430     120.330     2.62000     2.69000     93.6500     97.0700     98.8500
     78.2000     120.500     121.150     2.61000     2.65999     95.5504     97.7999     99.1501
     78.3000     123.000     121.780     2.59000     2.60000     99.4000     100.580     100.050
     78.4000     124.890     121.700     2.56000     2.56000     102.200     103.250     101.880
     78.5000     113.020     121.780     2.55000     2.56000     103.450     105.050     103.470
     78.6000     112.130     121.700     2.55000     2.56000     104.310     105.500     104.330
     78.7000     117.011     121.810     2.56000     2.57000     103.860     105.400     104.570
     78.8000     126.338     121.780     2.57000     2.60000     103.360     105.130     104.560
     78.9000     118.711     121.670     2.57000     2.61000     103.350     104.680     104.370
     79.0000     126.490     121.650     2.54000     2.56000     103.500     104.630     102.200
     79.1000     108.090     121.480     2.54000     2.55000     103.750     101.630     102.380
     79.2000     117.060     121.080     2.52000     2.54000     104.400     101.900     103.020
     79.3000     111.531     120.020     2.52000     2.55999     105.550     102.780     105.680
     79.4000     116.760     118.580     2.50000     2.53000     107.150     106.650     106.120
     79.5000     115.621     117.600     2.48000     2.50000     107.800     106.980     104.120
     79.6000     105.350     117.940     2.47000     2.45000     107.000     103.400     102.680
     79.7000     111.629     119.250     2.48000     2.47000     104.550     100.450     103.700
     79.8000     106.990     120.600     2.45000     2.51000     103.300     101.651     108.020
     79.9000     106.289     120.480     2.42000     2.56999     106.900     108.530     113.300
     80.0000     98.9600     119.280     2.29998     2.45001     114.750     117.679     118.130
     80.1000     99.0602     118.570     2.13001     2.14999     124.610     125.551     123.990
     80.2000     105.551     119.740     1.93999     1.82997     132.650     132.530     129.540
     80.3000     109.240     121.470     1.83001     1.67002     137.650     136.930     133.740
     80.4000     106.790     121.620     1.80000     1.78001     138.450     138.300     135.700
     80.5000     95.6206     120.640     1.83000     1.90000     136.300     137.220     135.500
     80.6000     80.4203     119.840     1.80000     1.92000     132.850     134.420     134.770
     80.7000     60.2301     120.300     1.72999     1.75998     131.000     132.920     132.070
     80.8000     60.8701     121.010     1.66001     1.54001     131.400     129.950     130.200
     80.9000     62.2700     121.780     1.70000     1.49000     131.750     128.880     127.630
     81.0000     79.4207     122.360     1.84999     1.73999     129.200     125.950     127.120
     81.1000     87.7493     122.980     2.04001     2.15001     124.360     124.970     126.230
     81.2000     112.680     123.280     2.20001     2.37000     121.560     123.470     125.420
     81.3000     117.159     122.850     2.27999     2.35000     122.510     123.520     124.890
     81.4000     114.569     121.270     2.26000     2.33000     125.050     125.150     125.690
     81.5000     91.0901     119.960     2.15999     2.34000     126.500     127.750     127.940
     81.6000     71.4398     119.080     1.99001     2.06998     128.900     130.650     130.520
     81.7000     60.4798     119.030     1.81000     1.66998     132.400     133.250     132.280
     81.8000     58.7805     118.860     1.68001     1.51002     135.450     135.180     133.300
     81.9000     63.8700     119.260     1.66000     1.63000     135.450     135.500     133.230
     82.0000     63.0200     120.320     1.72000     1.69000     133.550     133.650     132.400
     82.1000     63.0698     121.830     1.82000     1.69999     130.500     130.880     131.050
     82.2000     76.9816     123.340     1.97002     1.91007     126.900     128.850     129.400
     82.3000     90.5912     124.740     2.13001     2.25001     124.810     127.320     128.420
     82.4000     107.240     125.300     2.25000     2.42000     124.610     127.370     128.050
     82.5000     107.640     124.260     2.27000     2.36001     126.210     128.620     127.840
     82.6000     107.441     122.840     2.19000     2.23001     128.300     129.360     129.490
     82.7000     90.3380     121.510     2.04999     2.09998     131.050     131.930     131.070
     82.8000     76.6795     121.370     1.90001     1.87000     133.900     133.510     133.920
     82.9000     68.3001     121.290     1.79000     1.71000     134.850     136.730     134.980
