#------------------------------------------------------------
~VERSION INFORMATION
VERS.               2.0  :CWLS LOG ASCII STANDARD-VERSION 2.0
WRAP.                NO  :ONE LINE PER DEPTH STEP
#------------------------------------------------------------
~WELL INFORMATION
STRT.M              0.0  :START DEPTH
STOP.M            185.2  :STOP DEPTH
STEP.M              0.1  :STEP
NULL.           -999.25  :NULL VALUE
COMP.               N/A  :COMPANY
WELL.               N/A  :WELL
 FLD.               N/A  :FIELD
 LOC.               N/A  :LOCATION
PROV.               N/A  :PROVINCE
SRVC.               N/A  :SERVICE COMPANY
DATE.               N/A  :DATE
 UWI.               N/A  :UNIQUE WELL ID
#------------------------------------------------------------
~CURVE INFORMATION
DEPT.M                   :DEPTH
MC2F.USFT                :MC2F
MC4F.MS/F                :MC4F
MC6F.MS/F                :MC6F
GRDE.API                 :GRDE
ADEN.GM/CC               :ADEN
DENL.G/CC                :DENL
CADE.MM                  :CADE
#------------------------------------------------------------
~OTHER
#------------------------------------------------------------
~A   DEPT[M]    MC2F[uSF    MC4F[MS/    MC6F[MS/    GRDE[API    ADEN[GM/    DENL[G/C    CADE[mm]
# ...
     66.4000     103.000     100.500     98.5000     99.1299     2.51929     2.51200     125.578
     66.5000     102.700     97.8999     97.9998     96.1023     2.48037     2.49400     125.425
     66.6000     98.4000     95.5001     95.7000     85.5391     2.48594     2.49000     125.324
     66.7000     93.9998     91.5999     94.6000     93.9775     2.54218     2.52200     125.451
     66.8000     90.4001     90.3001     94.4000     102.545     2.53572     2.51899     125.501
     66.9000     92.2004     92.5001     94.9000     114.460     2.44362     2.46601     125.578
     67.0000     99.1004     95.1002     95.5001     107.182     2.54143     2.54100     125.451
     67.1000     103.400     98.0000     97.5000     101.965     2.51555     2.49900     125.400
     67.2000     102.500     99.5000     99.7001     95.2660     2.49448     2.53699     125.146
     67.3000     102.220     99.6000     100.900     94.6220     2.53546     2.48600     125.146
     67.4000     102.800     99.2000     100.600     94.4278     2.41958     2.46100     125.146
     67.5000     103.200     99.1000     100.020     92.4964     2.46551     2.44701     125.095
     67.6000     102.400     99.0200     100.200     95.9104     2.51949     2.53600     124.765
     67.7000     101.500     98.5999     99.6000     114.911     2.48341     2.47601     124.333
     67.8000     100.300     97.8000     99.1999     109.114     2.58812     2.58400     124.054
     67.9000     99.8000     97.5999     98.0000     105.634     2.50799     2.49600     123.952
     68.0000     99.5999     96.2000     98.1000     89.6623     2.50224     2.51900     124.054
     68.1000     97.4000     96.3000     97.8000     93.3979     2.55641     2.54100     123.901
     68.2000     98.5002     96.1000     98.0999     100.613     2.52251     2.55200     123.749
     68.3000     100.200     96.6000     97.1000     109.371     2.57872     2.54100     123.622
     68.4000     99.9999     96.9999     97.0000     97.5844     2.57307     2.57399     123.622
     68.5000     98.5000     96.3000     97.0000     90.8207     2.43945     2.46401     123.495
     68.6000     98.8000     95.7000     96.6000     83.4142     2.53404     2.54600     122.834
     68.7000     97.5999     94.8000     96.3000     92.8176     2.51344     2.47099     121.996
     68.8000     96.7201     95.2000     96.2000     88.3729     2.40253     2.42500     121.564
     68.9000     98.8000     95.0000     96.7997     76.5223     2.55135     2.49500     121.336
     69.0000     99.5000     95.7998     92.9194     81.0948     2.37828     2.50801     121.412
     69.1000     99.1000     92.3203     82.8999     79.1630     2.58818     2.58800     121.158
     69.2000     92.6041     85.8995     86.7999     85.2168     2.66336     2.56700     121.183
     69.3000     141.601     81.1998     85.4009     83.1557     2.62664     2.60800     121.310
     69.4000     151.098     78.4002     94.0020     78.7129     2.55725     2.62400     121.336
     69.5000     126.196     80.5007     114.999     91.0800     2.70388     2.58500     121.412
     69.6000     89.4001     87.9999     103.600     102.609     2.45238     2.56800     121.183
     69.7000     95.8000     92.0001     91.9001     116.586     2.52842     2.51599     121.310
     69.8000     96.7999     93.1001     93.0002     112.913     2.50231     2.45200     121.310
     69.9000     94.0002     94.7000     95.8000     96.5539     2.38010     2.42600     121.285
     70.0000     96.8004     95.6000     96.1001     95.5869     2.37291     2.41400     121.031
     70.1000     101.300     95.3999     97.6000     86.1840     2.51839     2.39800     120.548
     70.2000     97.8003     99.1999     97.6994     91.2717     2.35099     2.47301     120.828
     70.3000     101.700     97.8987     90.8000     86.4413     2.50211     2.56500     121.691
     70.4000     104.917     85.4001     90.4003     90.9502     2.75598     2.53900     122.961
     70.5000     80.6998     86.2002     93.1002     98.8732     2.49684     2.56901     123.469
     70.6000     78.9020     88.7000     97.2200     103.510     2.59606     2.64100     123.419
     70.7000     106.300     93.7209     96.3000     116.264     2.44049     2.50100     123.368
     70.8000     113.799     103.600     95.9004     117.746     2.64825     2.57100     123.622
     70.9000     104.099     103.000     102.100     114.847     2.55895     2.53700     123.622
     71.0000     94.8003     99.1998     102.300     120.966     2.52482     2.56300     123.596
     71.1000     97.9999     96.2000     99.5001     119.807     2.57232     2.56100     123.419
     71.2000     100.300     97.5001     97.8000     128.437     2.54062     2.52600     123.368
     71.3000     101.600     99.2000     98.7002     112.979     2.50486     2.52400     123.571
     71.4000     103.400     99.2002     101.700     114.138     2.53668     2.51700     123.520
     71.5000     103.300     102.100     101.500     117.553     2.51790     2.53100     123.749
     71.6000     103.100     101.700     101.400     129.919     2.51016     2.54400     123.673
     71.7000     103.700     99.9999     101.000     124.639     2.62368     2.60400     123.876
     71.8000     100.900     98.9000     100.600     136.618     2.56663     2.53500     123.622
     71.9000     99.1404     98.9002     101.900     132.497     2.52706     2.53400     123.622
     72.0000     102.300     100.800     101.900     140.806     2.55050     2.55199     123.647
     72.1000     106.300     102.300     102.440     152.142     2.45905     2.47300     123.774
     72.2000     108.100     103.540     103.400     146.087     2.52637     2.54000     123.749
     72.3000     107.400     103.600     104.500     150.529     2.49799     2.50200     123.622
     72.4000     105.800     103.000     104.800     135.330     2.57701     2.53100     123.622
     72.5000     106.100     102.800     104.200     135.782     2.55209     2.56900     123.596
     72.6000     105.900     102.200     103.600     144.348     2.49064     2.53000     123.495
     72.7000     106.900     102.000     103.400     144.091     2.59210     2.55100     123.546
     72.8000     105.400     101.800     103.700     159.162     2.55816     2.56500     123.317
     72.9000     104.600     102.100     102.300     148.662     2.53390     2.55400     123.342
     73.0000     105.000     99.8000     102.300     140.354     2.62299     2.55400     123.520
     73.1000     103.200     100.500     102.300     147.053     2.52516     2.58000     123.774
     73.2000     104.100     101.200     103.100     144.863     2.52336     2.50700     123.774
     73.3000     107.700     102.000     103.800     143.381     2.47868     2.47900     123.749
     73.4000     107.500     103.600     103.200     113.494     2.42885     2.45400     123.596
     73.5000     106.840     102.400     103.400     115.878     2.52008     2.52200     123.393
     73.6000     106.100     101.600     102.800     121.675     2.49286     2.47300     123.190
     73.7000     104.300     100.500     102.040     128.760     2.51628     2.49700     123.368
     73.8000     103.200     99.2399     99.5998     124.960     2.45435     2.53900     123.622
     73.9000     102.700     96.3999     98.2000     121.675     2.56224     2.52000     123.622
     74.0000     98.8999     95.4000     98.0000     123.543     2.59338     2.56000     123.596
     74.1000     97.9001     95.1000     97.9000     127.407     2.57772     2.57100     123.495
     74.2000     100.400     95.0000     96.2000     123.415     2.52468     2.59300     123.622
     74.3000     102.900     95.1000     96.3002     133.655     2.61059     2.53000     123.647
     74.4000     98.7999     95.4001     98.2001     137.650     2.52006     2.52700     123.698
     74.5000     97.2004     96.7002     99.8001     160.386     2.48068     2.53900     123.495
     74.6000     102.100     98.4001     101.100     156.393     2.50701     2.47000     123.571
