#------------------------------------------------------------
~VERSION INFORMATION
VERS.               2.0  :CWLS LOG ASCII STANDARD-VERSION 2.0
WRAP.                NO  :ONE LINE PER DEPTH STEP
#------------------------------------------------------------
~WELL INFORMATION
STRT.M              0.0  :START DEPTH
STOP.M            234.0  :STOP DEPTH
STEP.M              0.1  :STEP
NULL.           -999.25  :NULL VALUE
COMP.               N/A  :COMPANY
WELL.               N/A  :WELL
 FLD.               N/A  :FIELD
 LOC.               N/A  :LOCATION
PROV.               N/A  :PROVINCE
SRVC.               N/A  :SERVICE COMPANY
DATE.               N/A  :LOG DATE
 UWI.               N/A  :UNIQUE WELL ID
#------------------------------------------------------------
~CURVE INFORMATION
DEPT.M                   :DEPTH
GRDE.API                 :GRDE
DENL.G/CC                :DENL
MC2F.USFT                :MC2F
MC4F.MS/F                :MC4F
MC6F.MS/F                :MC6F
CADE.MM                  :CADE
#------------------------------------------------------------
~OTHER
#------------------------------------------------------------
~A   DEPT[M]    GRDE[API    DENL[G/C    MC2F[uSF    MC4F[MS/    MC6F[MS/    CADE[mm]
# ...
     142.500     90.5603     2.28800     86.8995     85.6000     90.6000     133.121
     142.600     100.751     2.20100     77.1992     88.6000     91.8001     133.680
     142.700     95.4601     2.18100     93.2998     88.7000     90.8001     136.017
     142.800     99.7490     2.17601     104.001     92.7999     90.6996     137.744
     142.900     111.504     2.26603     96.4995     97.2992     94.2007     139.141
     143.000     119.632     2.38000     94.4999     94.7002     96.0001     139.878
     143.100     122.194     2.40900     98.0001     91.4000     94.4000     140.386
     143.200     115.510     2.39700     91.1002     92.9999     92.4999     140.360
     143.300     114.842     2.43700     91.9001     91.8998     93.1000     140.564
     143.400     112.391     2.46997     94.5993     90.2008     92.6999     140.640
     143.500     113.002     2.41399     90.7000     93.0000     92.2999     140.868
     143.600     120.411     2.47100     93.2002     92.7000     93.6000     140.843
     143.700     125.703     2.43500     94.8202     93.1000     94.4999     140.716
     143.800     131.884     2.42200     93.6996     96.3998     96.8002     140.614
     143.900     126.816     2.47699     98.7009     98.6011     98.8204     140.310
     144.000     123.976     2.37000     106.500     100.820     100.000     140.437
     144.100     118.518     2.41000     105.000     102.800     100.200     140.564
     144.200     126.259     2.40700     102.200     101.000     99.8998     141.275
     144.300     120.744     2.44300     99.4002     96.1997     97.0003     142.113
     144.400     107.599     2.43900     92.6985     92.9996     95.2999     142.291
     144.500     98.8020     2.48600     87.8996     91.6999     94.6000     142.037
     144.600     102.866     2.46101     91.2999     92.5000     92.8000     141.427
     144.700     110.384     2.51800     98.7999     92.9000     92.8001     140.691
     144.800     102.868     2.46300     95.3999     94.9000     95.6998     139.929
     144.900     107.773     2.41600     93.0222     97.7000     97.9998     139.116
     145.000     118.351     2.44300     100.200     97.6000     97.4000     138.430
     145.100     122.751     2.40300     104.701     98.2000     97.7200     137.592
     145.200     122.472     2.36300     97.3004     99.6198     97.1001     137.262
     145.300     106.821     2.42600     96.8000     95.2999     99.0001     137.058
     145.400     99.8604     2.43998     96.5396     96.0000     96.9999     137.719
     145.500     103.202     2.40800     93.9999     96.3000     96.5998     138.684
     145.600     109.105     2.49100     97.7000     95.9998     97.5400     139.954
     145.700     113.283     2.43000     98.7999     97.7393     99.0001     140.640
     145.800     110.164     2.42300     95.4999     101.400     101.000     140.513
     145.900     114.178     2.49197     103.002     102.400     102.100     140.767
     146.000     132.720     2.42701     110.700     104.000     104.800     140.843
     146.100     145.974     2.33600     106.400     109.500     106.900     140.767
     146.200     159.509     2.34001     110.400     108.400     111.800     140.792
     146.300     144.414     2.17698     113.900     112.299     116.400     140.437
     146.400     113.551     2.00798     116.903     121.202     121.702     139.674
     146.500     68.2745     1.74798     127.500     127.500     129.300     138.405
     146.600     42.1043     1.44900     140.899     136.900     134.500     137.516
     146.700     36.8716     1.39000     147.199     143.100     138.100     137.465
     146.800     53.1314     1.42200     148.640     143.500     141.300     137.465
     146.900     73.2402     1.47903     145.376     141.299     141.600     137.795
     147.000     88.0527     1.57000     138.600     138.700     139.940     137.846
     147.100     82.6521     1.56700     136.440     135.640     137.880     138.201
     147.200     73.1830     1.55000     137.820     134.380     136.100     139.217
     147.300     63.4924     1.52200     137.200     134.800     135.440     140.310
     147.400     54.5790     1.49100     137.600     135.040     135.820     141.351
     147.500     41.3250     1.47600     136.600     134.920     135.700     141.427
     147.600     29.3505     1.43300     137.200     135.000     136.000     141.275
     147.700     23.9490     1.39400     138.100     135.000     135.500     141.199
     147.800     21.9990     1.36900     138.600     135.000     136.000     141.224
     147.900     21.7789     1.34400     138.600     135.000     136.000     140.945
     148.000     26.3988     1.32900     138.100     135.000     135.900     140.614
     148.100     25.5639     1.33000     138.500     134.300     135.600     140.310
     148.200     28.1264     1.39900     138.100     134.000     134.600     140.437
     148.300     39.5435     1.61605     138.400     132.900     131.100     140.437
     148.400     65.1709     1.88808     136.197     126.898     125.098     140.615
     148.500     89.5022     2.17599     123.100     118.700     119.700     141.275
     148.600     104.539     2.35700     109.000     110.500     116.800     141.554
     148.700     94.0129     2.39400     103.720     106.900     112.600     141.173
     148.800     96.2407     2.36200     108.000     107.600     108.800     139.954
     148.900     99.9836     2.29700     112.800     108.400     107.020     138.735
     149.000     123.084     2.31099     112.400     108.220     107.800     137.414
     149.100     110.666     2.22600     106.400     107.600     110.100     135.229
     149.200     103.480     2.19900     106.300     108.500     110.100     133.451
     149.300     88.6088     2.21299     113.700     109.000     107.000     131.166
     149.400     95.2376     2.13100     112.596     107.400     105.400     129.540
     149.500     97.5770     2.15200     97.2001     104.900     106.700     128.854
     149.600     97.7977     2.15800     93.8005     103.100     107.900     129.667
     149.700     105.315     2.13600     100.600     105.400     107.200     131.267
     149.800     90.0582     2.23601     106.100     112.300     105.500     132.207
     149.900     91.5574     2.27700     109.098     110.900     104.900     133.198
     150.000     76.3577     2.28900     103.300     107.101     103.200     133.325
     150.100     70.4522     2.30400     95.5001     101.700     101.100     132.740
     150.200     66.8325     2.27700     91.3001     97.1002     92.6006     131.775
     150.300     61.4311     2.33600     94.0984     87.4000     90.6005     131.978
     150.400     65.6051     2.29501     82.8090     88.0988     86.9972     133.426
     150.500     55.0823     2.32201     79.1103     85.1012     78.2002     134.823
     150.600     53.3550     2.41000     87.6999     70.3994     77.2100     136.398
     150.700     54.3579     2.45500     69.3001     73.8095     75.9103     137.262
     150.800     55.7497     2.33598     63.2972     74.5100     80.4999     137.871
     150.900     57.5880     2.38699     86.3025     76.6017     79.6002     137.719
     151.000     57.5328     2.34598     96.4001     84.4002     80.4004     138.049
     151.100     64.0494     2.29400     85.9000     88.7003     86.5000     138.735
     151.200     68.2263     2.32300     83.8998     86.2002     89.8000     139.954
     151.300     72.3472     2.35100     89.7999     86.2998     89.2000     140.360
     151.400     76.1336     2.33503     88.6012     90.6988     85.0004     140.792
     151.500     74.7420     2.48300     92.1000     85.5000     86.6000     141.478
     151.600     74.2412     2.49099     85.0000     85.0999     87.1999     141.453
     151.700     70.2847     2.45000     79.8000     86.6999     89.1001     140.437
     151.800     81.3693     2.39200     87.6998     87.0998     89.9001     138.202
     151.900     93.2332     2.35798     95.2005     91.9000     87.8005     136.169
