#------------------------------------------------------------
~VERSION INFORMATION
VERS.               2.0  :CWLS LOG ASCII STANDARD-VERSION 2.0
WRAP.                NO  :ONE LINE PER DEPTH STEP
#------------------------------------------------------------
~WELL INFORMATION
STRT.M              0.0  :START DEPTH
STOP.M            204.0  :STOP DEPTH
STEP.M              0.1  :STEP
NULL.           -999.25  :NULL VALUE
COMP.               N/A  :COMPANY
WELL.               N/A  :WELL
 FLD.               N/A  :FIELD
 LOC.               N/A  :LOCATION
PROV.               N/A  :PROVINCE
SRVC.               N/A  :SERVICE COMPANY
DATE.               N/A  :DATE
 UWI.               N/A  :UNIQUE WELL ID
#------------------------------------------------------------
~CURVE INFORMATION
DEPT.M                   :DEPTH
MC4F.MS/F                :MC4F
MC6F.MS/F                :MC6F
GRDE.API                 :GRDE
DENL.G/CC                :DENL
ADEN.GM/CC               :ADEN
CADE.MM                  :CADE
#------------------------------------------------------------
~OTHER
#------------------------------------------------------------
~A   DEPT[M]    MC4F[MS/    MC6F[MS/    GRDE[API    DENL[G/C    ADEN[GM/    CADE[mm]
# ...
     114.000     88.5000     93.4001     142.811     2.39300     2.40188     122.834
     114.100     87.8000     90.8001     124.738     2.43300     2.45154     123.038
     114.200     90.7000     89.4001     129.731     2.51099     2.49369     122.961
     114.300     91.6000     91.2001     129.543     2.42600     2.43273     123.165
     114.400     92.2000     92.3000     137.441     2.46300     2.45168     122.911
     114.500     91.9000     92.1000     136.494     2.49300     2.49085     122.860
     114.600     91.7000     91.9000     122.845     2.42900     2.44337     122.631
     114.700     91.6999     91.9000     128.216     2.40601     2.39733     122.784
     114.800     90.6000     92.3000     136.557     2.51200     2.52319     122.936
     114.900     90.7000     92.6000     141.864     2.51300     2.49813     123.038
     115.000     91.1000     92.3000     138.135     2.44000     2.44297     122.911
     115.100     91.3000     91.5000     126.888     2.42200     2.41708     122.885
     115.200     90.4000     91.2200     130.740     2.42900     2.44284     122.784
     115.300     90.2200     91.1000     114.755     2.45600     2.44717     122.885
     115.400     90.3000     90.9000     109.700     2.47200     2.48819     122.784
     115.500     89.4000     90.6000     108.057     2.48900     2.46922     122.860
     115.600     90.1000     91.4000     108.752     2.46500     2.47863     122.682
     115.700     91.6001     92.5001     123.349     2.47400     2.45365     122.860
     115.800     93.0001     93.7999     126.130     2.47300     2.48853     122.682
     115.900     94.8000     92.3999     137.125     2.46600     2.46526     122.860
     116.000     92.5997     89.1000     131.943     2.42400     2.41976     122.631
     116.100     85.5997     89.4000     122.528     2.49400     2.56723     122.733
     116.200     85.6000     89.0000     117.155     2.52600     2.42297     122.606
     116.300     84.9002     89.0000     108.120     2.52300     2.51511     122.555
     116.400     86.7999     88.8000     111.215     2.50600     2.54915     122.352
     116.500     93.6000     89.2999     103.570     2.43200     2.42275     122.453
     116.600     93.4000     92.4999     115.071     2.47500     2.49462     122.453
     116.700     91.3000     93.0000     112.859     2.49100     2.49636     122.428
     116.800     92.0000     92.7200     128.784     2.45600     2.39245     122.301
     116.900     91.6200     92.1000     130.300     2.41300     2.46276     122.352
     117.000     91.2000     91.7000     139.400     2.48200     2.50480     122.428
     117.100     92.7000     93.0000     137.378     2.46700     2.43244     122.276
     117.200     92.8000     93.1000     129.983     2.42900     2.44329     122.098
     117.300     92.5000     93.0000     118.547     2.47400     2.47119     121.895
     117.400     92.9000     93.0000     113.490     2.49000     2.49223     122.047
     117.500     93.0000     93.9000     121.706     2.40400     2.38707     122.174
     117.600     93.0000     93.9000     128.657     2.45800     2.46634     122.199
     117.700     92.9000     93.1000     136.111     2.44701     2.44957     122.301
     117.800     92.5999     92.7000     118.357     2.49800     2.53025     122.352
     117.900     91.8000     92.8000     122.275     2.48300     2.42852     122.428
     118.000     91.4000     91.9000     101.863     2.50800     2.52432     122.276
     118.100     90.7000     91.4000     108.435     2.47300     2.48341     122.174
     118.200     90.9001     92.1001     107.109     2.43900     2.46175     122.123
     118.300     92.3000     92.8999     126.635     2.49400     2.43243     121.996
     118.400     92.8000     92.1200     128.215     2.47100     2.48467     121.895
     118.500     92.4200     92.0000     124.297     2.51500     2.56422     122.072
     118.600     92.8000     93.2000     124.107     2.50000     2.47526     122.352
     118.700     92.1000     94.0000     125.814     2.47800     2.44785     122.453
     118.800     92.1001     93.4999     128.404     2.45200     2.47703     122.403
     118.900     93.6000     92.2000     122.591     2.40200     2.39816     122.174
     119.000     92.3000     92.9000     122.844     2.49100     2.52594     122.174
     119.100     91.9000     93.0000     116.840     2.43200     2.40685     122.174
     119.200     91.4000     92.6000     118.547     2.44201     2.40310     122.174
     119.300     91.2000     91.9999     102.433     2.49200     2.55013     122.123
     119.400     92.1000     91.3000     111.406     2.39700     2.37503     122.047
     119.500     90.9000     92.3000     110.079     2.46000     2.46099     122.174
     119.600     90.7000     92.7000     117.915     2.43100     2.42485     122.174
     119.700     91.7000     92.5001     110.079     2.46500     2.44514     122.098
     119.800     92.5001     93.3999     117.536     2.44800     2.47505     121.869
     119.900     94.0001     92.2000     132.133     2.45700     2.44932     121.869
     120.000     92.0999     92.0400     128.217     2.47500     2.51816     121.869
     120.100     90.5399     92.8000     113.872     2.47000     2.46050     121.869
     120.200     90.0000     92.7000     100.918     2.44500     2.34891     121.844
     120.300     90.0001     92.8999     116.904     2.45300     2.52023     121.717
     120.400     92.5000     92.1000     117.030     2.48900     2.48359     121.666
     120.500     94.0000     93.0000     124.929     2.47700     2.49368     121.387
     120.600     93.0000     93.7000     117.978     2.43400     2.42078     121.234
     120.700     92.6997     91.8998     132.954     2.48400     2.46613     121.133
     120.800     89.5999     90.5001     132.133     2.50200     2.57612     121.260
     120.900     88.3999     91.7000     118.610     2.52100     2.45761     121.260
     121.000     90.5999     92.8000     120.821     2.42600     2.38958     121.260
     121.100     92.6999     92.4000     128.594     2.45300     2.48620     121.310
     121.200     94.4000     93.1001     134.659     2.47600     2.54052     121.615
     121.300     95.6998     94.1999     120.441     2.45300     2.36113     121.869
     121.400     92.5000     93.0999     112.986     2.44400     2.49496     121.844
     121.500     89.5000     90.6001     118.104     2.45300     2.43880     121.691
     121.600     87.7000     87.9101     113.428     2.53900     2.57786     121.564
     121.700     84.4100     87.9999     108.372     2.53000     2.51026     121.590
     121.800     84.6002     87.2000     95.2928     2.50100     2.47573     121.742
     121.900     87.0001     88.1000     101.232     2.50600     2.45953     121.945
     122.000     89.7001     89.4999     112.796     2.52100     2.58410     122.377
     122.100     92.0001     91.3999     125.434     2.50600     2.48353     122.733
     122.200     93.0001     93.3001     126.003     2.50499     2.50723     123.241
     122.300     93.6002     95.3001     126.761     2.44100     2.46644     123.393
     122.400     95.3999     96.7999     129.731     2.46400     2.44468     123.495
     122.500     97.8000     98.7000     139.273     2.49800     2.51369     123.393
     122.600     100.900     100.200     146.224     2.48700     2.46363     123.495
     122.700     102.000     101.300     140.157     2.45600     2.47834     123.393
     122.800     101.700     103.600     136.492     2.45900     2.44025     123.495
     122.900     103.400     105.000     129.225     2.41000     2.42458     123.444
     123.000     105.100     106.000     136.493     2.42600     2.41138     123.800
     123.100     107.500     109.000     131.627     2.43000     2.49352     123.723
     123.200     112.401     114.020     122.022     2.24998     2.11879     123.952
     123.300     117.120     118.500     107.106     2.13300     1.98484     123.825
     123.400     121.800     121.900     79.6205     1.95200     2.19743     123.825
