#------------------------------------------------------------
~VERSION INFORMATION
VERS.               2.0  :CWLS LOG ASCII STANDARD-VERSION 2.0
WRAP.                NO  :ONE LINE PER DEPTH STEP
#------------------------------------------------------------
~WELL INFORMATION
STRT.M              0.0  :START DEPTH
STOP.M            204.0  :STOP DEPTH
STEP.M              0.1  :STEP
NULL.           -999.25  :NULL VALUE
COMP.               N/A  :COMPANY
WELL.               N/A  :WELL
 FLD.               N/A  :FIELD
 LOC.               N/A  :LOCATION
PROV.               N/A  :PROVINCE
SRVC.               N/A  :SERVICE COMPANY
DATE.               N/A  :DATE
 UWI.               N/A  :UNIQUE WELL ID
#------------------------------------------------------------
~CURVE INFORMATION
DEPT.M                   :DEPTH
MC4F.MS/F                :MC4F
MC6F.MS/F                :MC6F
GRDE.API                 :GRDE
DENL.G/CC                :DENL
ADEN.GM/CC               :ADEN
CADE.MM                  :CADE
#------------------------------------------------------------
~OTHER
#------------------------------------------------------------
~A   DEPT[M]    MC4F[MS/    MC6F[MS/    GRDE[API    DENL[G/C    ADEN[GM/    CADE[mm]
# ...
     28.5000     103.000     102.100     116.777     2.45200     2.43420     133.629
     28.6000     100.600     101.100     123.097     2.42401     2.44812     133.020
     28.7000     99.3000     101.000     135.546     2.55300     2.52231     132.969
     28.8000     99.0000     100.600     152.923     2.50900     2.50057     132.232
     28.9000     99.6000     100.020     143.444     2.46000     2.47078     131.826
     29.0000     99.6200     99.7000     129.099     2.43100     2.44409     131.166
     29.1000     98.9000     100.000     109.131     2.46600     2.46488     130.556
     29.2000     98.9000     99.8000     106.603     2.45700     2.43561     130.073
     29.3000     98.5000     100.200     101.486     2.46300     2.46969     129.794
     29.4000     99.4000     98.6400     117.915     2.48700     2.49737     129.591
     29.5000     98.2399     97.1000     118.547     2.53400     2.57711     129.286
     29.6000     95.5999     96.3999     122.906     2.49800     2.47487     129.184
     29.7000     92.8999     94.4999     104.834     2.48100     2.41914     129.362
     29.8000     90.3000     92.9000     111.596     2.49100     2.51760     129.413
     29.9000     89.4000     92.2000     108.183     2.52100     2.51406     129.083
     30.0000     91.0000     92.3000     126.130     2.51800     2.52114     128.854
     30.1000     92.5000     93.2000     113.555     2.46400     2.47333     129.032
     30.2000     93.4001     94.6001     114.439     2.39000     2.38695     129.184
     30.3000     95.9001     96.4001     104.897     2.45000     2.45818     129.261
     30.4000     97.3000     98.5000     114.439     2.42700     2.42688     128.956
     30.5000     98.5000     99.1000     131.438     2.43900     2.43958     128.829
     30.6000     99.8000     100.000     129.795     2.45400     2.46854     128.829
     30.7000     99.6000     100.700     126.825     2.44800     2.43318     128.803
     30.8000     99.0000     100.400     114.250     2.54500     2.53938     128.549
     30.9000     98.9000     100.400     121.959     2.42900     2.43705     128.067
     31.0000     99.0000     100.000     125.624     2.48500     2.48459     127.660
     31.1000     98.9000     98.7199     115.639     2.39400     2.38190     127.635
     31.2000     97.2198     96.4999     105.213     2.44000     2.46912     127.457
     31.3000     93.2999     93.9999     97.0624     2.48600     2.49913     127.305
     31.4000     89.3000     92.2000     106.288     2.50000     2.46927     127.102
     31.5000     87.0000     91.0000     99.0840     2.53300     2.51731     126.873
     31.6000     87.5002     91.2201     112.796     2.52400     2.52346     126.797
     31.7000     91.2201     92.5001     112.228     2.49200     2.50005     126.568
     31.8000     94.7001     95.3001     131.817     2.53400     2.53070     126.644
     31.9000     97.7000     97.9001     123.286     2.47300     2.47944     126.390
     32.0000     99.3000     100.500     136.430     2.43600     2.44583     126.416
     32.1000     100.300     101.000     138.262     2.44300     2.44073     126.568
     32.2000     100.000     102.000     135.861     2.45000     2.45508     126.644
     32.3000     100.700     102.000     128.784     2.49300     2.47966     126.340
     32.4000     100.800     102.000     118.420     2.47900     2.50543     126.009
     32.5000     100.500     102.000     121.517     2.44700     2.40389     125.603
     32.6000     100.600     102.000     111.785     2.48900     2.50139     125.400
     32.7000     100.200     100.500     118.357     2.48200     2.49852     124.968
     32.8000     98.3001     97.2400     112.733     2.48500     2.52626     124.663
     32.9000     94.1396     93.1998     115.577     2.49300     2.49383     124.384
     33.0000     87.8997     88.7999     113.934     2.53300     2.45338     124.130
     33.1000     81.1998     84.0998     114.691     2.59200     2.61909     124.079
     33.2000     75.8999     79.2999     100.916     2.64100     2.63270     123.825
     33.3000     73.2000     76.3000     97.0620     2.62200     2.66123     123.825
     33.4000     74.0001     77.4002     86.5098     2.61700     2.56046     123.850
     33.5000     77.1004     81.8002     105.087     2.57000     2.58478     124.003
     33.6000     84.7002     86.8001     105.087     2.53300     2.50616     124.155
     33.7000     92.4002     91.7002     112.291     2.49600     2.53470     124.409
     33.8000     98.4000     96.2999     110.458     2.52100     2.50820     125.120
     33.9000     101.800     101.500     113.113     2.48200     2.49947     125.628
     34.0000     102.000     103.700     124.867     2.44300     2.44019     126.263
     34.1000     102.000     103.400     143.633     2.43100     2.44198     126.441
     34.2000     101.900     103.000     136.240     2.44600     2.42159     126.670
     34.3000     102.000     102.700     127.583     2.46300     2.49360     126.619
     34.4000     101.200     101.800     103.570     2.37800     2.35728     126.898
     34.5000     98.7997     96.9398     110.521     2.46900     2.47198     127.051
     34.6000     92.7395     90.8001     99.9678     2.51600     2.54041     127.178
     34.7000     84.0001     93.2000     94.5971     2.49300     2.51674     127.229
     34.8000     86.6999     94.7000     97.9459     2.51600     2.46330     127.559
     34.9000     91.1001     94.0000     102.496     2.58900     2.55617     127.864
     35.0000     93.8001     94.5001     109.700     2.55500     2.56953     127.991
     35.1000     97.3000     96.6001     102.054     2.50000     2.51578     127.965
     35.2000     98.2000     98.5000     96.6820     2.48900     2.51014     127.838
     35.3000     98.8000     100.000     97.6300     2.53100     2.52158     127.838
     35.4000     99.4000     100.900     96.0510     2.49500     2.48703     127.838
     35.5000     99.8000     101.000     96.4299     2.51700     2.51027     127.864
     35.6000     100.100     101.000     94.2806     2.46200     2.48050     127.965
     35.7000     100.300     100.000     86.3822     2.51800     2.51635     127.864
     35.8000     98.6000     100.300     93.7760     2.48100     2.53448     127.940
     35.9000     98.2000     100.300     93.2704     2.53500     2.44890     127.686
     36.0000     98.4000     100.020     104.329     2.51400     2.49856     127.762
     36.1000     98.6200     100.000     114.692     2.50000     2.52420     127.457
     36.2000     99.0000     100.040     124.613     2.51300     2.52960     127.254
     36.3000     99.0400     100.300     118.420     2.47300     2.50484     127.025
     36.4000     98.8000     100.000     115.703     2.43600     2.39933     127.102
     36.5000     98.2000     100.100     107.994     2.51300     2.52216     126.898
     36.6000     98.6000     100.000     118.926     2.46300     2.44685     126.975
     36.7000     98.8999     99.2000     110.586     2.46500     2.47281     126.746
     36.8000     97.4000     97.8000     119.494     2.49600     2.51496     126.822
     36.9000     95.9998     96.1000     105.719     2.49100     2.48419     126.695
     37.0000     92.7999     95.4999     106.351     2.50500     2.49398     126.644
     37.1000     91.2000     93.3999     105.024     2.54600     2.55769     126.340
     37.2000     90.4000     91.9000     100.349     2.55700     2.55795     126.009
     37.3000     90.0000     91.1000     118.231     2.48800     2.47511     125.578
     37.4000     90.0000     92.0000     106.541     2.57300     2.57225     125.273
     37.5000     90.3000     92.3000     121.895     2.52700     2.52890     124.968
     37.6000     91.5000     91.8000     104.581     2.50400     2.48220     124.663
     37.7000     91.2000     92.9000     121.327     2.50100     2.52623     124.333
     37.8000     93.2000     93.8000     113.997     2.51700     2.51485     123.952
     37.9000     93.0000     93.7400     118.294     2.43500     2.41650     123.723
