#------------------------------------------------------------
~VERSION INFORMATION
VERS.               2.0  :CWLS LOG ASCII STANDARD-VERSION 2.0
WRAP.                NO  :ONE LINE PER DEPTH STEP
#------------------------------------------------------------
~WELL INFORMATION
STRT.M              0.0  :START DEPTH
STOP.M            185.2  :STOP DEPTH
STEP.M              0.1  :STEP
NULL.           -999.25  :NULL VALUE
COMP.               N/A  :COMPANY
WELL.               N/A  :WELL
 FLD.               N/A  :FIELD
 LOC.               N/A  :LOCATION
PROV.               N/A  :PROVINCE
SRVC.               N/A  :SERVICE COMPANY
DATE.               N/A  :DATE
 UWI.               N/A  :UNIQUE WELL ID
#------------------------------------------------------------
~CURVE INFORMATION
DEPT.M                   :DEPTH
MC2F.USFT                :MC2F
MC4F.MS/F                :MC4F
MC6F.MS/F                :MC6F
GRDE.API                 :GRDE
ADEN.GM/CC               :ADEN
DENL.G/CC                :DENL
CADE.MM                  :CADE
#------------------------------------------------------------
~OTHER
#------------------------------------------------------------
~A   DEPT[M]    MC2F[uSF    MC4F[MS/    MC6F[MS/    GRDE[API    ADEN[GM/    DENL[G/C    CADE[mm]
# ...
     49.8000     149.200     141.500     141.100     150.531     1.96954     2.13300     119.507
     49.9000     146.900     138.400     139.440     153.558     2.26020     2.18800     120.726
     50.0000     141.200     136.340     139.900     145.378     2.24209     2.20901     121.717
     50.1000     138.700     135.200     137.300     146.538     2.26225     2.31199     122.072
     50.2000     141.800     132.300     135.900     141.900     2.30894     2.13299     121.234
     50.3000     137.400     132.900     136.200     135.588     1.92909     2.04299     120.879
     50.4000     134.600     134.900     138.400     139.647     1.87296     1.90000     120.548
     50.5000     141.300     136.400     139.000     146.151     1.95285     1.90301     121.564
     50.6000     146.600     139.400     137.100     143.188     1.88498     2.08501     122.911
     50.7000     145.899     138.200     134.800     140.742     2.34692     2.19800     124.028
     50.8000     139.200     131.500     131.600     148.921     2.29574     2.29401     124.485
     50.9000     129.099     123.899     126.399     153.430     2.40385     2.44800     124.181
     51.0000     119.300     117.000     120.700     148.083     2.49162     2.46500     123.901
     51.1000     113.400     111.600     117.400     128.825     2.56199     2.53199     123.774
     51.2000     112.300     110.700     114.900     142.802     2.45282     2.43200     123.774
     51.3000     116.940     112.600     114.000     141.965     2.45046     2.46000     123.800
     51.4000     120.400     114.100     113.200     152.076     2.41793     2.39000     123.927
     51.5000     118.800     113.900     113.040     141.579     2.30785     2.35500     123.952
     51.6000     115.200     111.340     113.700     156.330     2.39478     2.41200     123.952
     51.7000     114.200     110.200     112.900     166.698     2.40531     2.43000     123.342
     51.8000     113.700     110.100     111.500     159.419     2.42978     2.39000     122.784
     51.9000     116.600     109.900     111.600     149.886     2.41964     2.42800     122.479
     52.0000     114.800     110.200     113.100     142.480     2.42899     2.41700     122.072
     52.1000     112.201     112.500     117.200     145.442     2.36220     2.34999     121.056
     52.2000     118.401     117.500     119.200     134.299     2.32021     2.24498     119.761
     52.3000     128.600     120.800     122.100     110.596     2.03429     1.98999     118.948
     52.4000     131.800     126.600     125.800     113.432     1.72294     1.77099     118.796
     52.5000     131.700     128.900     129.700     138.293     1.50078     1.70201     119.583
     52.6000     135.100     130.100     134.900     189.631     1.87818     1.90101     121.056
     52.7000     137.001     136.500     137.400     201.995     2.21423     2.09001     122.174
     52.8000     144.600     139.800     140.700     179.902     2.25514     2.21500     122.657
     52.9000     150.360     143.300     142.200     161.931     2.18994     2.21300     122.428
     53.0000     148.800     144.100     141.800     153.752     2.22645     2.26300     121.844
     53.1000     145.900     140.500     142.140     156.391     2.21105     2.22200     121.336
     53.2000     144.000     137.740     140.500     135.266     2.35983     2.19100     120.879
     53.3000     138.900     136.200     139.900     130.242     2.05991     2.22300     121.056
     53.4000     139.600     136.800     140.400     129.919     2.19927     2.17500     121.336
     53.5000     141.600     139.000     139.900     135.846     2.15934     2.05700     121.463
     53.6000     144.200     140.700     139.600     148.922     1.96835     1.98099     121.412
     53.7000     145.400     139.800     139.900     166.055     1.74994     1.85199     121.133
     53.8000     144.000     138.500     141.400     167.729     1.77635     1.70600     121.031
     53.9000     142.700     140.000     143.400     156.005     1.67144     1.72901     121.183
     54.0000     144.200     142.100     144.600     143.962     1.81209     1.88500     121.310
     54.1000     149.800     144.600     141.900     158.968     2.05671     1.98500     121.260
     54.2000     153.199     141.000     140.400     152.078     2.14393     2.03100     121.006
     54.3000     143.400     138.200     140.200     162.898     1.94455     2.05500     121.031
     54.4000     135.000     135.300     138.700     146.347     2.00737     2.04701     121.183
     54.5000     137.820     131.400     135.400     167.343     2.13956     2.12500     121.260
     54.6000     141.320     131.400     133.800     159.808     2.18367     2.21901     121.031
     54.7000     137.900     133.100     134.320     183.639     2.41246     2.31500     121.183
     54.8000     133.900     132.020     134.420     179.968     2.28608     2.31600     121.361
     54.9000     136.800     131.120     132.400     189.564     2.36060     2.35000     121.590
     55.0000     137.300     129.100     131.100     178.486     2.31861     2.32900     121.463
     55.1000     130.600     129.600     131.000     178.034     2.31623     2.32900     121.387
     55.2000     130.900     128.000     130.100     169.147     2.33668     2.29900     120.904
     55.3000     133.800     126.500     127.200     167.213     2.33527     2.32100     120.447
     55.4000     129.500     125.800     125.500     154.718     2.28491     2.32800     120.015
     55.5000     124.500     122.800     125.900     161.031     2.36556     2.33300     119.685
     55.6000     124.800     121.500     125.100     166.635     2.25138     2.25800     119.101
     55.7000     126.900     122.600     124.100     177.134     2.20073     2.21201     117.754
     55.8000     130.100     123.400     123.500     180.032     2.26695     2.29100     116.078
     55.9000     129.200     122.600     122.800     173.721     2.28987     2.32300     115.850
     56.0000     125.800     120.700     121.100     184.155     2.34786     2.29900     118.466
     56.1000     120.500     116.500     118.600     173.849     2.38664     2.44300     121.742
     56.2000     115.940     113.200     116.600     178.228     2.49767     2.48500     123.927
     56.3000     114.600     112.000     114.600     170.113     2.56982     2.51900     123.901
     56.4000     117.400     111.200     112.540     169.468     2.55810     2.56699     123.749
     56.5000     117.300     111.140     112.300     162.061     2.47798     2.46300     123.647
     56.6000     114.600     110.800     111.900     152.593     2.44236     2.44300     123.800
     56.7000     112.000     108.600     111.300     154.267     2.45504     2.45600     123.927
     56.8000     112.700     108.100     110.700     151.884     2.48843     2.48000     123.927
     56.9000     113.000     108.500     109.900     154.204     2.40933     2.44900     123.952
     57.0000     113.000     108.200     109.700     166.119     2.48559     2.44100     124.054
     57.1000     112.100     108.200     109.500     158.003     2.47772     2.50800     123.927
     57.2000     111.100     107.600     109.400     156.972     2.48019     2.47300     123.901
     57.3000     110.900     107.900     109.100     134.816     2.46429     2.45600     123.800
     57.4000     111.800     107.800     109.000     151.498     2.46043     2.48000     123.901
     57.5000     112.600     108.000     109.300     145.829     2.54641     2.53200     123.673
     57.6000     112.300     108.100     108.700     154.589     2.47018     2.45900     123.165
     57.7000     111.400     107.000     108.700     156.071     2.48676     2.48900     122.504
     57.8000     109.240     106.500     107.800     157.681     2.49891     2.52200     122.453
     57.9000     109.800     105.500     107.700     153.880     2.50215     2.51300     123.012
     58.0000     110.700     105.200     107.240     142.222     2.50912     2.47400     123.825
