#------------------------------------------------------------
~VERSION INFORMATION
VERS.               2.0  :CWLS LOG ASCII STANDARD-VERSION 2.0
WRAP.                NO  :ONE LINE PER DEPTH STEP
#------------------------------------------------------------
~WELL INFORMATION
STRT.M              0.0  :START DEPTH
STOP.M            204.0  :STOP DEPTH
STEP.M              0.1  :STEP
NULL.           -999.25  :NULL VALUE
COMP.               N/A  :COMPANY
WELL.               N/A  :WELL
 FLD.               N/A  :FIELD
 LOC.               N/A  :LOCATION
PROV.               N/A  :PROVINCE
SRVC.               N/A  :SERVICE COMPANY
DATE.               N/A  :DATE
 UWI.               N/A  :UNIQUE WELL ID
#------------------------------------------------------------
~CURVE INFORMATION
DEPT.M                   :DEPTH
MC4F.MS/F                :MC4F
MC6F.MS/F                :MC6F
GRDE.API                 :GRDE
DENL.G/CC                :DENL
ADEN.GM/CC               :ADEN
CADE.MM                  :CADE
#------------------------------------------------------------
~OTHER
#------------------------------------------------------------
~A   DEPT[M]    MC4F[MS/    MC6F[MS/    GRDE[API    DENL[G/C    ADEN[GM/    CADE[mm]
# ...
     9.50000    -999.250    -999.250     76.2719     1.97400     1.97032     135.255
     9.60000    -999.250    -999.250     72.9859     1.99800     1.95514     135.179
     9.70000    -999.250    -999.250     69.1938     1.99700     2.04457     135.306
     9.80000    -999.250    -999.250     62.3699     1.97900     1.95559     135.306
     9.90000    -999.250    -999.250     60.7902     2.03901     2.03459     135.255
     10.0000    -999.250    -999.250     66.4139     2.24100     2.25310     135.179
     10.1000    -999.250    -999.250     63.8231     2.35000     2.33530     135.255
     10.2000    -999.250    -999.250     67.1716     2.40400     2.39558     135.179
     10.3000    -999.250    -999.250     55.5450     2.43700     2.44794     135.255
     10.4000    -999.250    -999.250     55.0392     2.46800     2.46940     135.204
     10.5000    -999.250    -999.250     61.6111     2.52900     2.52020     135.458
     10.6000    -999.250    -999.250     65.1502     2.47900     2.47479     135.433
     10.7000    -999.250    -999.250     73.9969     2.46400     2.47321     135.306
     10.8000    -999.250    -999.250     70.7740     2.52800     2.52899     135.255
     10.9000    -999.250    -999.250     69.7625     2.47000     2.46282     135.179
     11.0000    -999.250    -999.250     56.9976     2.54800     2.54821     135.255
     11.1000    -999.250    -999.250     44.5503     2.54600     2.56058     135.128
     11.2000    -999.250    -999.250     54.4081     2.61400     2.60574     135.128
     11.3000    -999.250    -999.250     56.7460     2.56800     2.58018     135.179
     11.4000    -999.250    -999.250     56.3666     2.59200     2.57759     135.306
     11.5000    -999.250    -999.250     46.2560     2.59700     2.59683     135.306
     11.6000    -999.250    -999.250     46.1932     2.51100     2.50646     135.306
     11.7000    -999.250    -999.250     51.4380     2.50800     2.49177     135.331
     11.8000    -999.250    -999.250     52.3219     2.52200     2.55103     135.458
     11.9000    -999.250    -999.250     50.0470     2.52300     2.52672     135.458
     12.0000    -999.250    -999.250     49.9842     2.51800     2.50284     135.382
     12.1000    -999.250    -999.250     57.1251     2.53600     2.53579     135.103
     12.2000    -999.250    -999.250     59.9050     2.51400     2.49818     134.925
     12.3000    -999.250    -999.250     61.4219     2.50600     2.52892     134.874
     12.4000    -999.250    -999.250     58.5782     2.47100     2.46439     135.179
     12.5000    -999.250    -999.250     63.6970     2.43500     2.42356     135.331
     12.6000    -999.250    -999.250     61.6111     2.41400     2.44105     135.433
     12.7000    -999.250    -999.250     64.6448     2.48400     2.45650     135.255
     12.8000    -999.250    -999.250     59.4002     2.47600     2.51201     135.179
     12.9000    -999.250    -999.250     67.9295     2.46500     2.43440     135.331
     13.0000    -999.250    -999.250     56.4298     2.48500     2.49074     135.509
     13.1000    -999.250    -999.250     50.6156     2.47300     2.48031     135.585
     13.2000    -999.250    -999.250     36.5242     2.53500     2.53397     135.458
     13.3000    -999.250    -999.250     41.0743     2.51000     2.50909     135.433
     13.4000    -999.250    -999.250     50.4900     2.46200     2.45477     135.255
     13.5000    -999.250    -999.250     50.6791     2.43900     2.43570     135.103
     13.6000    -999.250    -999.250     54.7870     2.39100     2.39951     135.001
     13.7000    -999.250    -999.250     54.3442     2.39000     2.39487     135.179
     13.8000    -999.250    -999.250     60.9157     2.44500     2.43620     135.331
     13.9000    -999.250    -999.250     48.5938     2.43300     2.44146     135.458
     14.0000    -999.250    -999.250     40.4417     2.37500     2.36571     135.433
     14.1000    -999.250    -999.250     31.4690     2.40900     2.40920     135.331
     14.2000    -999.250    -999.250     32.9862     2.37400     2.37338     135.433
     14.3000    -999.250    -999.250     39.2422     2.38600     2.39067     135.331
     14.4000    -999.250    -999.250     47.5829     2.36300     2.34636     135.382
     14.5000    -999.250    -999.250     43.9807     2.41200     2.40200     135.179
     14.6000    -999.250    -999.250     34.3758     2.33100     2.36804     135.306
     14.7000    -999.250    -999.250     27.8670     2.34300     2.31888     135.331
     14.8000    -999.250    -999.250     29.1943     2.37200     2.40029     135.458
     14.9000    -999.250    -999.250     38.9260     2.39500     2.37766     135.458
     15.0000    -999.250    -999.250     38.1672     2.40500     2.41863     135.433
     15.1000    -999.250    -999.250     43.6019     2.44700     2.43275     135.255
     15.2000    -999.250    -999.250     39.9372     2.43900     2.44874     135.179
     15.3000    -999.250    -999.250     46.3190     2.38900     2.35902     135.306
     15.4000    -999.250    -999.250     45.4981     2.38600     2.40648     135.331
     15.5000    -999.250    -999.250     49.6679     2.39300     2.40415     135.433
     15.6000    -999.250    -999.250     45.6242     2.40400     2.39215     135.331
     15.7000    -999.250    -999.250     52.8280     2.34800     2.35845     135.433
     15.8000    -999.250    -999.250     53.4601     2.36200     2.36089     135.331
     15.9000    -999.250    -999.250     58.1991     2.38700     2.37969     135.458
     16.0000    -999.250    -999.250     61.8640     2.44000     2.43550     135.458
     16.1000    -999.250    -999.250     61.9913     2.34900     2.34467     135.433
     16.2000    -999.250    -999.250     70.0156     2.39200     2.41496     135.306
     16.3000    -999.250    -999.250     61.1692     2.34900     2.32513     135.331
     16.4000    -999.250    -999.250     65.2759     2.34300     2.35890     135.458
     16.5000    -999.250    -999.250     60.6642     2.40600     2.40043     135.433
     16.6000    -999.250    -999.250     68.5618     2.47200     2.47960     135.255
     16.7000    -999.250    -999.250     63.4439     2.42400     2.43242     135.128
     16.8000    -999.250    -999.250     62.2428     2.44500     2.42551     135.204
     16.9000    -999.250    -999.250     57.2510     2.45900     2.46999     135.458
     17.0000    -999.250    -999.250     59.0840     2.45700     2.45840     135.458
     17.1000    -999.250    -999.250     56.4935     2.45600     2.43515     135.382
     17.2000    -999.250    -999.250     69.3209     2.48200     2.51521     135.179
     17.3000    -999.250    -999.250     67.1091     2.56900     2.55838     135.331
     17.4000    -999.250    -999.250     70.2049     2.47900     2.46888     135.534
     17.5000    -999.250    -999.250     63.8231     2.47300     2.46462     135.788
     17.6000    -999.250    -999.250     69.0680     2.51800     2.53588     135.712
     17.7000    -999.250    -999.250     68.1830     2.51700     2.50544     135.433
     17.8000    -999.250    -999.250     67.8039     2.44400     2.45140     135.306
     17.9000    -999.250    -999.250     66.2881     2.52900     2.52904     135.331
     18.0000    -999.250    -999.250     69.4469     2.50700     2.51034     135.458
     18.1000    -999.250    -999.250     64.8340     2.48900     2.47071     135.509
     18.2000    -999.250    -999.250     64.1388     2.51700     2.53038     135.585
     18.3000    -999.250    -999.250     58.6409     2.57100     2.57286     135.458
     18.4000    -999.250    -999.250     55.2290     2.56500     2.57223     135.433
     18.5000    -999.250    -999.250     54.0280     2.51500     2.50538     135.306
     18.6000    -999.250    -999.250     55.2919     2.58500     2.58252     135.306
     18.7000    -999.250    -999.250     51.1847     2.52300     2.51544     135.331
     18.8000    -999.250    -999.250     45.0549     2.51000     2.52061     135.509
     18.9000    -999.250    -999.250     42.7172     2.53000     2.51513     135.585
