#------------------------------------------------------------
~VERSION INFORMATION
VERS.               2.0  :CWLS LOG ASCII STANDARD-VERSION 2.0
WRAP.                NO  :ONE LINE PER DEPTH STEP
#------------------------------------------------------------
~WELL INFORMATION
STRT.M              0.0  :START DEPTH
STOP.M            225.0  :STOP DEPTH
STEP.M              0.1  :STEP
NULL.           -999.25  :NULL VALUE
COMP.               N/A  :COMPANY
WELL.               N/A  :WELL
 FLD.               N/A  :FIELD
 LOC.               N/A  :LOCATION
PROV.               N/A  :PROVINCE
SRVC.               N/A  :SERVICE COMPANY
DATE.               N/A  :DATE
 UWI.               N/A  :UNIQUE WELL ID
#------------------------------------------------------------
~CURVE INFORMATION
DEPT.M                   :DEPTH
GRDE.API                 :GRDE
CADE.MM                  :CADE
DENL.G/CC                :DENL
ADEN.G/C3                :ADEN
MC2F.USFT                :MC2F
MC4F.MS/F                :MC4F
MC6F.MS/F                :MC6F
#------------------------------------------------------------
~OTHER
#------------------------------------------------------------
~A   DEPT[M]    GRDE[API    CADE[mm]    DENL[G/C    ADEN[G/C    MC2F[uSF    MC4F[MS/    MC6F[MS/
# ...
     190.900     64.7624     112.800     2.58000     2.66999     81.4114     82.0503     84.2300
     191.000     72.2402     112.800     2.59001     2.64000     86.4103     85.1501     85.3198
     191.100     74.4394     112.820     2.53999     2.54000     90.3499     88.2001     86.7101
     191.200     67.1100     112.980     2.51000     2.48000     91.3500     89.3601     87.6200
     191.300     61.7707     113.250     2.49000     2.48999     90.4006     88.2297     87.7700
     191.400     69.6513     113.500     2.53000     2.54001     87.7496     86.4698     87.4297
     191.500     74.0401     113.620     2.55000     2.57000     85.3500     85.4702     86.2801
     191.600     75.3298     113.620     2.56000     2.59999     85.4998     84.2200     85.7200
     191.700     73.7900     113.570     2.54000     2.57000     86.9499     84.7000     85.3200
     191.800     75.8791     113.340     2.52000     2.54000     87.1500     85.3001     86.3799
     191.900     71.2413     113.370     2.53000     2.55000     86.2101     86.8301     87.2000
     192.000     75.1807     113.570     2.54000     2.56000     86.5601     87.3300     87.1500
     192.100     79.2701     114.070     2.55000     2.56000     87.8099     87.1500     86.8400
     192.200     80.6699     114.320     2.54000     2.54000     87.0000     87.1500     86.5200
     192.300     70.9503     114.460     2.53000     2.55999     85.5500     86.5000     87.0500
     192.400     79.4713     114.570     2.54000     2.59999     85.6502     86.6801     87.2700
     192.500     83.4608     114.600     2.53000     2.57000     87.4500     87.4000     87.2500
     192.600     90.2385     114.710     2.51000     2.51000     88.7499     88.1000     87.3000
     192.700     82.5590     114.730     2.50000     2.48000     86.3499     88.1299     87.4800
     192.800     82.1100     114.850     2.51000     2.50000     85.4000     87.5000     87.5700
     192.900     81.9100     114.800     2.52000     2.54000     84.7003     86.9702     87.8200
     193.000     82.4099     114.570     2.52000     2.55000     86.6000     88.5500     87.4700
     193.100     80.6688     114.550     2.53000     2.54000     86.7500     88.5000     87.1800
     193.200     69.7999     114.440     2.54000     2.55000     87.0000     88.4299     86.6200
     193.300     67.4596     114.370     2.56000     2.58000     87.1100     86.6300     86.6500
     193.400     69.3498     114.030     2.56000     2.57000     86.6499     86.6000     86.6200
     193.500     68.5003     114.050     2.57000     2.58000     86.2000     86.4301     86.4701
     193.600     65.8603     114.190     2.55000     2.56000     85.9500     86.1500     85.9999
     193.700     69.8009     114.250     2.56000     2.56000     86.1000     85.6799     85.5200
     193.800     77.1800     113.980     2.56000     2.56000     85.5501     85.1800     84.9700
     193.900     77.9803     113.750     2.58001     2.59001     84.3998     84.4798     84.3199
     194.000     65.9100     113.750     2.60000     2.63000     83.0000     83.4298     83.2299
     194.100     66.2599     113.750     2.60000     2.61000     81.9000     82.0699     82.0501
     194.200     64.2598     113.780     2.59000     2.59000     80.5101     80.8701     81.4500
     194.300     60.7700     113.870     2.58000     2.57001     79.5100     80.6699     81.8299
     194.400     61.3200     113.710     2.58000     2.60000     80.4609     81.8000     82.5901
     194.500     61.9207     113.410     2.57000     2.59000     83.7000     83.6299     83.4901
     194.600     77.7295     113.070     2.56000     2.55000     86.3500     85.4799     84.5702
     194.700     73.8398     113.070     2.54000     2.52000     87.3500     86.6299     85.8300
     194.800     75.6796     113.050     2.54000     2.56000     87.2000     86.9000     86.8201
     194.900     72.3406     112.910     2.54000     2.56000     87.8002     87.0500     87.4998
     195.000     78.5201     112.800     2.54000     2.56000     88.7500     87.5700     86.9202
     195.100     87.1000     112.820     2.52000     2.51000     89.3500     86.7799     84.8800
     195.200     87.0995     113.000     2.53000     2.48001     86.7098     83.4194     82.5698
     195.300     82.3599     113.440     2.58001     2.53000     78.8108     79.4700     81.3301
     195.400     74.4906     113.980     2.61001     2.64001     73.3102     77.3307     81.7001
     195.500     78.5699     114.480     2.66000     2.73000     76.1493     79.1998     82.1198
     195.600     80.6697     114.710     2.64000     2.69000     85.4002     83.7802     83.4100
     195.700     89.7888     114.710     2.62000     2.60001     91.5500     88.4502     86.0398
     195.800     82.0111     114.710     2.56000     2.53000     91.6000     90.9800     89.0498
     195.900     87.7986     114.730     2.55000     2.55000     90.5000     90.8798     90.4499
     196.000     76.6794     114.850     2.55000     2.56000     90.6000     89.9001     90.1200
     196.100     81.6606     114.850     2.56000     2.56000     89.6501     89.3800     89.7699
     196.200     74.7323     114.820     2.55000     2.56000     88.2001     89.4000     90.3800
     196.300     89.3902     114.730     2.56000     2.59000     88.2998     90.2800     90.3000
     196.400     91.0446     114.890     2.56000     2.59999     91.1505     90.6300     90.1001
     196.500     104.350     115.140     2.56000     2.56999     93.8600     91.0501     90.7801
     196.600     97.0702     115.230     2.54000     2.54000     94.3100     92.0300     91.9902
     196.700     102.260     115.070     2.53000     2.53000     94.0499     92.4000     92.8500
     196.800     88.7400     114.820     2.54000     2.54000     92.0499     92.3501     92.2700
     196.900     90.6887     114.690     2.57000     2.59000     90.4000     91.2500     91.9998
     197.000     86.5995     114.600     2.57000     2.59000     90.1499     90.9700     91.5701
     197.100     89.5395     114.710     2.57000     2.59000     91.2499     91.3200     91.1500
     197.200     83.9607     114.730     2.56000     2.56000     92.2000     91.5300     91.5300
     197.300     73.2892     114.820     2.57000     2.58000     91.7999     92.2200     92.1500
     197.400     79.3712     114.730     2.58000     2.61000     92.3502     92.6001     93.0001
     197.500     82.9610     114.870     2.57000     2.59000     93.2005     93.4001     93.2200
     197.600     96.4191     114.960     2.56000     2.57000     86.7000     93.9300     93.4000
     197.700     89.9893     114.850     2.55000     2.55000     86.7499     93.9200     93.6800
     197.800     92.0804     114.820     2.56000     2.57000     85.9993     93.9199     93.8500
     197.900     84.0602     114.730     2.56000     2.58000     93.2002     97.4300     93.9700
     198.000     86.4516     114.820     2.55000     2.56999     94.0500     97.5799     94.0400
     198.100     99.3108     114.710     2.54000     2.54000     94.9500     98.0498     94.3300
     198.200     104.601     114.710     2.53000     2.53000     95.1000     94.9000     95.1000
     198.300     113.168     114.710     2.52000     2.53000     95.2999     95.6300     95.5500
     198.400     93.6800     114.690     2.53000     2.53000     95.9500     95.8499     95.4199
     198.500     93.8825     114.570     2.55000     2.55001     95.8001     95.5800     94.9800
     198.600     82.0109     114.600     2.56000     2.58000     94.3999     94.8302     94.5300
     198.700     88.7913     114.730     2.59000     2.62000     93.4000     93.8301     93.6700
     198.800     96.5211     114.850     2.58000     2.60000     93.2002     92.6000     92.8999
     198.900     103.950     114.820     2.58000     2.59000     92.1999     92.1500     92.4700
     199.000     106.191     114.690     2.58000     2.61000     91.5500     92.0000     92.6500
     199.100     101.909     114.600     2.57000     2.60000     92.2001     92.3800     92.5200
