#------------------------------------------------------------
~VERSION INFORMATION
VERS.               2.0  :CWLS LOG ASCII STANDARD-VERSION 2.0
WRAP.                NO  :ONE LINE PER DEPTH STEP
#------------------------------------------------------------
~WELL INFORMATION
STRT.M              0.0  :START DEPTH
STOP.M            234.0  :STOP DEPTH
STEP.M              0.1  :STEP
NULL.           -999.25  :NULL VALUE
COMP.               N/A  :COMPANY
WELL.               N/A  :WELL
 FLD.               N/A  :FIELD
 LOC.               N/A  :LOCATION
PROV.               N/A  :PROVINCE
SRVC.               N/A  :SERVICE COMPANY
DATE.               N/A  :LOG DATE
 UWI.               N/A  :UNIQUE WELL ID
#------------------------------------------------------------
~CURVE INFORMATION
DEPT.M                   :DEPTH
GRDE.API                 :GRDE
DENL.G/CC                :DENL
MC2F.USFT                :MC2F
MC4F.MS/F                :MC4F
MC6F.MS/F                :MC6F
CADE.MM                  :CADE
#------------------------------------------------------------
~OTHER
#------------------------------------------------------------
~A   DEPT[M]    GRDE[API    DENL[G/C    MC2F[uSF    MC4F[MS/    MC6F[MS/    CADE[mm]
# ...
     28.5000     72.8477     1.77100     156.002     165.000     176.660     144.628
     28.6000     64.4940     1.81900     155.400     161.960     177.498     145.034
     28.7000     61.8776     1.79600     154.000     161.200     161.000     145.212
     28.8000     69.2851     1.74900     154.200     163.000     161.000     145.186
     28.9000     83.4303     1.78700     156.300     164.000     160.000     145.364
     29.0000     96.7407     1.82100     156.800     163.000     159.600     145.288
     29.1000     96.4067     1.85800     154.800     162.000     158.900     145.237
     29.2000     92.6761     1.88500     153.900     160.100     158.200     144.780
     29.3000     92.1740     1.90100     153.600     159.000     157.500     144.704
     29.4000     93.3438     1.87700     155.200     158.800     157.000     144.780
     29.5000     82.0928     1.83400     158.500     158.500     157.800     144.704
     29.6000     64.7177     1.85900     161.102     159.800     159.700     144.704
     29.7000     65.1639     1.87100     185.899     161.900     161.000     144.399
     29.8000     75.0198     1.89400     187.600     162.000     163.601     144.475
     29.9000     77.8049     1.85600     195.000     164.800     174.400     144.399
     30.0000     77.4709     1.84800     185.200     168.600     174.800     144.526
     30.1000     75.6893     1.84500     181.700     168.500     174.100     144.551
     30.2000     77.7479     1.79500     182.730     163.900     171.300     144.704
     30.3000     65.3847     1.76900     174.699     164.500     169.400     144.729
     30.4000     56.4182     1.73600     160.401     162.900     168.430     144.551
     30.5000     54.6931     1.76600     158.600     161.430     165.900     144.653
     30.6000     65.7197     1.81100     162.700     161.800     163.200     144.780
     30.7000     80.2011     1.87400     169.300     164.200     162.300     145.034
     30.8000     94.7357     1.85900     173.200     164.600     164.500     144.856
     30.9000     95.4053     1.87200     173.700     165.300     166.200     144.958
     31.0000     102.198     1.84300     164.400     164.600     165.800     144.958
     31.1000     95.7389     1.86000     158.700     161.800     165.000     144.983
     31.2000     92.4527     1.89900     147.902     160.400     164.100     145.110
     31.3000     86.8272     1.92200     164.500     163.900     164.700     145.110
     31.4000     80.1441     1.85100     170.400     167.300     164.700     145.034
     31.5000     80.1996     1.85900     171.960     172.900     172.500     144.729
     31.6000     72.2919     1.81600     172.370     176.300     176.000     144.475
     31.7000     76.9145     1.78800     183.900     179.000     176.860     144.247
     31.8000     86.2144     1.78400     195.529     179.160     176.070     143.891
     31.9000     82.5949     1.81900     182.300     177.770     176.000     143.739
     32.0000     78.4724     1.80900     174.860     172.300     174.830     143.713
     32.1000     70.5657     1.80300     164.900     164.330     168.300     143.891
     32.2000     79.9775     1.86200     164.700     161.200     168.260     143.739
     32.3000     90.2808     1.83600     168.600     164.960     167.400     143.485
     32.4000     93.9564     1.85800     171.000     169.000     167.500     143.027
     32.5000     88.3308     1.89300     172.500     169.000     166.600     142.875
     32.6000     83.4849     1.97200     171.730     165.100     166.300     142.850
     32.7000     71.3454     1.99600     165.100     163.900     166.900     143.104
     32.8000     70.3971     2.07200     165.200     163.800     168.330     143.231
     32.9000     60.3188     2.14400     168.500     166.630     169.000     143.307
     33.0000     73.6286     2.10600     169.200     171.000     172.200     143.231
     33.1000     84.2676     2.07400     171.000     175.700     174.200     143.459
     33.2000     97.6316     2.07800     173.901     176.900     175.500     143.891
     33.3000     97.5198     2.02000     199.499     178.200     177.000     144.424
     33.4000     78.4184     1.97300     193.600     180.000     178.000     144.983
     33.5000     71.4003     1.89700     186.100     180.002     179.000     145.136
     33.6000     67.6692     1.89100     186.599     200.000     179.200     145.161
     33.7000     70.2854     1.83900     175.600     199.998     178.000     144.907
     33.8000     64.9402     1.83900     166.730     174.001     178.200     144.805
     33.9000     65.1076     1.83300     167.700     173.800     172.700     144.932
     34.0000     73.0143     1.76200     169.900     171.400     167.730     145.288
     34.1000     70.1174     1.73900     163.800     168.130     166.100     145.390
     34.2000     51.9631     1.70300     159.400     165.100     165.000     145.288
     34.3000     44.7781     1.73200     162.000     162.500     163.400     144.882
     34.4000     42.7193     1.77900     164.100     163.300     163.200     144.704
     34.5000     60.6512     1.82100     163.600     164.900     163.200     144.780
     34.6000     72.3477     1.90501     164.800     164.000     167.200     144.780
     34.7000     84.7666     2.02200     163.200     168.500     169.100     145.110
     34.8000     87.8294     2.04700     161.600     171.800     169.700     145.059
     34.9000     80.0332     2.09700     166.300     171.900     170.500     144.983
     35.0000     79.0856     2.10500     165.100     173.800     170.200     145.110
     35.1000     73.8515     2.02500     169.603     174.100     171.100     145.212
     35.2000     78.4729     1.92500     199.899     173.400     171.100     145.542
     35.3000     76.9146     1.86300     195.200     174.100     172.900     145.466
     35.4000     83.0390     1.80700     182.700     174.600     175.300     145.313
     35.5000     77.1379     1.80300     168.701     166.100     177.000     145.491
     35.6000     83.3752     1.82800     177.260     167.401     178.700     145.517
     35.7000     85.3246     1.85000     168.500     177.100     184.500     145.745
     35.8000     95.1806     1.85500     165.700     192.099     175.460     145.618
     35.9000     84.7109     1.82600     162.300     190.058     168.100     145.821
     36.0000     78.0278     1.79700     161.600     167.901     165.100     145.821
     36.1000     74.0749     1.79000     163.500     164.800     163.500     145.821
     36.2000     85.7135     1.84600     164.400     164.200     164.100     145.872
     36.3000     82.4280     1.86700     163.600     165.000     164.300     146.025
     36.4000     80.3103     1.84700     163.000     164.600     162.800     146.075
     36.5000     72.6810     1.87000     161.300     162.100     162.200     145.974
     36.6000     69.8969     1.79700     158.600     161.600     161.300     145.974
     36.7000     66.6654     1.75000     158.500     160.300     160.900     145.948
     36.8000     59.3705     1.78500     161.600     160.300     160.800     145.745
     36.9000     66.3872     1.79800     162.500     161.900     162.700     145.542
     37.0000     62.2663     1.81300     160.900     164.800     163.900     145.567
     37.1000     65.7762     1.81100     165.100     165.000     164.900     145.923
     37.2000     74.3522     1.84900     166.400     165.500     165.300     146.558
     37.3000     78.4733     1.83100     165.300     167.600     165.300     146.482
     37.4000     87.3280     1.83900     167.030     165.100     164.000     146.025
     37.5000     81.7589     1.85000     165.500     162.000     162.800     145.390
     37.6000     79.5313     1.79500     160.800     161.800     162.830     145.440
     37.7000     67.7241     1.84200     159.900     161.030     163.000     145.491
     37.8000     63.8822     1.79201     160.600     161.800     162.500     145.364
     37.9000     64.8853     1.85800     163.000     163.000     163.800     145.212
