#------------------------------------------------------------
~VERSION INFORMATION
VERS.               2.0  :CWLS LOG ASCII STANDARD-VERSION 2.0
WRAP.                NO  :ONE LINE PER DEPTH STEP
#------------------------------------------------------------
~WELL INFORMATION
STRT.M              0.0  :START DEPTH
STOP.M            225.0  :STOP DEPTH
STEP.M              0.1  :STEP
NULL.           -999.25  :NULL VALUE
COMP.               N/A  :COMPANY
WELL.               N/A  :WELL
 FLD.               N/A  :FIELD
 LOC.               N/A  :LOCATION
PROV.               N/A  :PROVINCE
SRVC.               N/A  :SERVICE COMPANY
DATE.               N/A  :DATE
 UWI.               N/A  :UNIQUE WELL ID
#------------------------------------------------------------
~CURVE INFORMATION
DEPT.M                   :DEPTH
GRDE.API                 :GRDE
CADE.MM                  :CADE
DENL.G/CC                :DENL
ADEN.G/C3                :ADEN
MC2F.USFT                :MC2F
MC4F.MS/F                :MC4F
MC6F.MS/F                :MC6F
#------------------------------------------------------------
~OTHER
#------------------------------------------------------------
~A   DEPT[M]    GRDE[API    CADE[mm]    DENL[G/C    ADEN[G/C    MC2F[uSF    MC4F[MS/    MC6F[MS/
# ...
     199.200     104.700     114.710     2.57000     2.59000     93.7001     92.6800     92.3800
     199.300     103.749     114.730     2.56000     2.56000     93.6502     92.8000     92.7200
     199.400     96.3700     114.820     2.57000     2.59000     92.6000     92.9699     92.7797
     199.500     94.2803     114.710     2.57000     2.60000     92.7000     92.3200     91.5700
     199.600     91.4925     114.730     2.58000     2.59000     92.5500     90.5200     91.2000
     199.700     109.191     114.820     2.56000     2.59000     92.1500     90.5000     91.2200
     199.800     105.001     114.730     2.56000     2.58000     92.0000     90.4698     92.3700
     199.900     109.138     114.800     2.55000     2.56999     92.5001     92.2700     92.1800
     200.000     95.4696     114.620     2.55000     2.54000     93.0000     92.2000     92.2000
     200.100     101.211     114.820     2.55000     2.55000     92.6500     92.3001     91.4300
     200.200     111.329     114.710     2.54000     2.54000     92.0502     90.9000     90.8500
     200.300     113.521     114.500     2.56000     2.59001     89.0503     89.7798     90.4200
     200.400     98.7191     113.290     2.54999     2.62999     86.0001     89.3001     90.8201
     200.500     94.3800     112.290     2.53000     2.59000     86.9494     90.1999     91.3600
     200.600     94.1316     111.910     2.50000     2.50999     91.6992     92.5197     91.8001
     200.700     111.781     112.300     2.47000     2.45000     96.1496     94.6995     93.0299
     200.800     107.991     112.520     2.48000     2.49001     96.4498     96.0700     94.5500
     200.900     112.479     112.500     2.50000     2.55000     95.1599     95.9700     95.6801
     201.000     108.990     112.430     2.51000     2.57000     94.8599     95.4500     96.0000
     201.100     114.221     112.640     2.52000     2.57000     95.8601     95.7800     95.7499
     201.200     108.691     112.570     2.51000     2.54000     96.8501     96.0501     94.8899
     201.300     115.020     112.770     2.52000     2.52000     96.7502     94.9001     93.9400
     201.400     112.180     112.680     2.51000     2.49001     93.3498     92.9802     92.7800
     201.500     111.980     112.800     2.52000     2.53000     89.9002     90.7500     92.1997
     201.600     110.279     112.820     2.54000     2.57001     88.8500     89.9300     91.2200
     201.700     116.560     112.960     2.56000     2.60000     90.3000     90.1500     90.4300
     201.800     128.430     113.070     2.58000     2.59000     91.5001     90.7001     90.7800
     201.900     128.428     113.050     2.57000     2.58000     91.0002     91.7500     91.4000
     202.000     109.681     112.910     2.57000     2.60000     92.0098     91.9501     92.3201
     202.100     114.970     112.770     2.56000     2.57000     93.3100     92.7300     92.0298
     202.200     116.709     112.640     2.55000     2.57000     94.2600     92.5500     92.8499
     202.300     127.079     112.480     2.55000     2.57001     94.2000     93.2800     93.5200
     202.400     120.652     112.250     2.55000     2.59999     94.5501     93.6301     94.0897
     202.500     125.140     112.300     2.55000     2.58000     95.3499     94.0000     93.2800
     202.600     124.340     112.550     2.55000     2.55000     94.7500     92.8202     92.4301
     202.700     113.321     112.730     2.56000     2.54001     91.7998     91.3702     91.9701
     202.800     101.510     113.120     2.57000     2.60000     89.0000     90.2700     91.6799
     202.900     99.5598     113.390     2.57000     2.60999     89.4003     90.1500     90.7498
     203.000     96.9706     113.590     2.58000     2.57000     91.4500     90.2200     89.9200
     203.100     93.8812     113.390     2.58000     2.54999     91.1901     90.3800     90.0300
     203.200     100.611     112.960     2.59000     2.62000     89.0902     90.3500     91.1300
     203.300     102.801     113.020     2.59000     2.64000     89.2396     90.9800     91.8500
     203.400     111.929     112.800     2.58000     2.60999     92.1503     92.1702     91.9501
     203.500     107.540     112.750     2.57000     2.54000     94.4500     93.3700     92.4001
     203.600     108.239     112.550     2.55000     2.55000     93.7000     93.9700     92.8300
     203.700     102.999     112.660     2.54000     2.58000     92.6500     93.1801     92.6000
     203.800     91.8896     112.640     2.54000     2.56000     92.1000     91.6701     91.8000
     203.900     88.3000     112.500     2.53999     2.55999     92.2500     90.8499     91.1700
     204.000     87.3491     112.500     2.52000     2.54000     91.9500     90.4201     91.4300
     204.100     99.8603     113.210     2.52000     2.55000     91.4500     91.1000     91.4500
     204.200     111.679     114.030     2.52000     2.53000     91.7000     91.0500     91.2800
     204.300     111.880     114.730     2.53000     2.53000     92.1600     90.9501     90.5800
     204.400     112.328     114.870     2.53000     2.54000     91.8095     90.1498     89.1699
     204.500     105.600     114.860     2.54000     2.55000     90.2497     87.9001     86.8699
     204.600     99.2609     114.180     2.55000     2.55000     86.8006     84.2302     83.8999
     204.700     83.0104     113.450     2.57000     2.58000     80.8001     79.9505     81.2298
     204.800     70.1999     112.640     2.59000     2.63000     74.6000     76.7204     78.9801
     204.900     67.1115     112.500     2.59000     2.64000     73.1599     75.0800     77.1700
     205.000     76.9300     112.410     2.57000     2.57000     76.0498     75.3504     76.3501
     205.100     76.0812     112.520     2.58000     2.56000     78.6499     77.2198     77.4101
     205.200     83.1609     112.550     2.59000     2.60000     79.4901     79.5299     80.2201
     205.300     82.1603     112.660     2.61000     2.67000     81.0996     82.3005     82.8299
     205.400     90.4903     112.620     2.60000     2.66998     85.1101     84.9202     84.4802
     205.500     92.1806     112.410     2.58999     2.60999     88.5100     86.9700     85.4799
     205.600     100.010     112.500     2.56000     2.55000     88.3598     87.6700     86.6701
     205.700     92.7796     112.430     2.55000     2.55000     86.3998     87.4500     88.0000
     205.800     93.2303     112.640     2.53000     2.56000     85.9500     87.7499     88.5500
     205.900     91.5908     112.550     2.54000     2.54999     88.6004     88.6502     88.3000
     206.000     96.7720     112.640     2.54000     2.50000     91.2501     89.2500     88.2200
     206.100     86.4002     112.520     2.55000     2.51000     89.9500     89.3500     88.5500
     206.200     80.5684     112.520     2.57000     2.62000     87.6499     88.5200     88.9799
     206.300     73.6904     112.550     2.60000     2.66999     87.5500     87.8500     88.5500
     206.400     84.4595     112.660     2.60000     2.64000     89.0000     87.8499     87.2699
     206.500     82.5099     112.640     2.58000     2.55000     89.3598     87.0804     85.9801
     206.600     83.0587     112.550     2.56000     2.53001     86.5499     85.2003     84.5299
     206.700     69.2996     112.680     2.57000     2.56000     82.4000     82.3001     83.4898
     206.800     68.8520     112.800     2.59000     2.63001     78.8000     80.5500     82.8500
     206.900     80.7687     112.800     2.61000     2.68999     78.7506     81.0003     83.1001
     207.000     90.2399     112.750     2.59999     2.67000     82.4491     83.4497     84.2800
     207.100     91.2880     112.520     2.56000     2.56999     87.3499     87.0299     85.7303
     207.200     82.2093     112.500     2.53000     2.50999     90.4501     89.2200     87.6001
     207.300     82.8598     112.430     2.51000     2.49000     90.5501     90.1700     88.9301
     207.400     75.1808     112.680     2.52000     2.53001     89.6499     89.7200     89.6497
