#------------------------------------------------------------
~VERSION INFORMATION
VERS.               2.0  :CWLS LOG ASCII STANDARD-VERSION 2.0
WRAP.                NO  :ONE LINE PER DEPTH STEP
#------------------------------------------------------------
~WELL INFORMATION
STRT.M              0.0  :START DEPTH
STOP.M            234.0  :STOP DEPTH
STEP.M              0.1  :STEP
NULL.           -999.25  :NULL VALUE
COMP.               N/A  :COMPANY
WELL.               N/A  :WELL
 FLD.               N/A  :FIELD
 LOC.               N/A  :LOCATION
PROV.               N/A  :PROVINCE
SRVC.               N/A  :SERVICE COMPANY
DATE.               N/A  :LOG DATE
 UWI.               N/A  :UNIQUE WELL ID
#------------------------------------------------------------
~CURVE INFORMATION
DEPT.M                   :DEPTH
GRDE.API                 :GRDE
DENL.G/CC                :DENL
MC2F.USFT                :MC2F
MC4F.MS/F                :MC4F
MC6F.MS/F                :MC6F
CADE.MM                  :CADE
#------------------------------------------------------------
~OTHER
#------------------------------------------------------------
~A   DEPT[M]    GRDE[API    DENL[G/C    MC2F[uSF    MC4F[MS/    MC6F[MS/    CADE[mm]
# ...
     85.5000     133.945     2.45200     103.740     102.200     102.900     129.997
     85.6000     130.938     2.44500     100.300     102.000     102.700     130.937
     85.7000     132.441     2.43601     100.100     100.700     102.940     131.521
     85.8000     132.221     2.52697     103.100     102.040     101.100     131.547
     85.9000     147.200     2.46399     104.200     101.400     101.900     131.699
     86.0000     148.535     2.52200     98.7000     102.700     103.800     131.902
     86.1000     162.071     2.54601     99.7001     104.100     105.000     132.182
     86.2000     157.727     2.48800     107.400     105.400     105.000     132.004
     86.3000     163.961     2.49399     111.699     107.500     104.700     132.105
     86.4000     143.970     2.43500     107.500     107.200     106.200     132.131
     86.5000     141.297     2.46600     105.500     105.600     106.700     132.232
     86.6000     128.543     2.46600     105.400     104.300     105.600     132.105
     86.7000     139.793     2.46600     104.200     104.600     105.700     132.182
     86.8000     140.517     2.46100     105.920     105.300     106.300     132.359
     86.9000     141.131     2.46700     108.400     106.900     107.400     132.309
     87.0000     125.311     2.40500     109.400     108.400     105.220     132.537
     87.1000     104.650     2.32400     107.700     104.720     107.500     132.588
     87.2000     98.0201     2.20298     99.5006     106.900     111.800     132.639
     87.3000     91.3954     2.06799     104.623     112.702     116.400     132.156
     87.4000     91.9522     1.84100     127.001     123.300     122.300     131.039
     87.5000     96.7966     1.81100     138.000     133.700     127.020     130.353
     87.6000     104.149     1.84400     141.400     138.020     134.300     130.505
     87.7000     109.769     1.86800     141.000     138.100     137.300     131.293
     87.8000     88.2192     1.83498     138.400     137.100     137.000     132.131
     87.9000     66.9453     1.72300     138.400     135.100     136.000     132.359
     88.0000     61.0402     1.61900     136.500     133.400     135.300     132.791
     88.1000     73.7403     1.65900     135.500     133.500     134.800     133.299
     88.2000     93.0090     1.84701     136.600     132.900     132.700     134.010
     88.3000     85.6577     1.89499     136.500     130.400     132.000     134.696
     88.4000     74.6865     1.84900     131.500     130.000     132.500     135.103
     88.5000     61.3746     1.79800     130.000     130.400     133.200     135.230
     88.6000     66.1090     1.74900     136.900     131.200     132.100     134.849
     88.7000     70.7876     1.75900     138.300     132.000     131.100     134.772
     88.8000     68.1710     1.80300     132.700     131.900     131.800     135.001
     88.9000     73.0710     1.84500     128.900     129.500     131.300     135.534
     89.0000     77.4691     1.93002     128.940     128.300     128.800     135.865
     89.1000     94.5120     2.04299     129.800     125.900     124.900     136.296
     89.2000     104.988     2.21102     124.999     122.800     122.640     136.830
     89.3000     131.161     2.31300     118.400     119.440     120.900     137.566
     89.4000     142.689     2.33100     114.500     115.900     119.100     137.871
     89.5000     152.603     2.32300     116.000     115.600     117.800     138.125
     89.6000     164.744     2.33500     117.400     117.800     117.700     138.252
     89.7000     163.238     2.33400     120.700     119.500     118.400     138.252
     89.8000     153.210     2.34598     123.600     119.800     119.400     138.201
     89.9000     124.366     2.25800     120.220     120.000     120.400     138.024
     90.0000     114.229     2.20901     119.500     120.000     122.000     137.693
     90.1000     113.451     2.12999     122.000     121.000     124.020     137.236
     90.2000     104.035     2.02098     127.201     126.220     126.100     136.677
     90.3000     90.8935     1.92198     134.900     129.100     129.000     136.271
     90.4000     85.7139     1.80100     136.100     131.700     131.200     136.017
     90.5000     84.1540     1.77800     134.800     132.700     133.400     135.865
     90.6000     96.8550     1.81302     136.000     132.900     133.400     135.687
     90.7000     114.235     1.93702     138.200     132.400     132.800     135.357
     90.8000     145.472     1.99200     135.740     131.700     132.500     135.026
     90.9000     150.097     2.02500     132.500     130.900     131.900     134.798
     91.0000     150.429     2.08200     132.200     128.700     126.941     133.782
     91.1000     135.170     2.23800     129.499     122.940     117.500     132.766
     91.2000     127.483     2.42701     119.496     110.398     109.600     132.131
     91.3000     115.231     2.49400     93.1001     98.5003     107.100     132.944
     91.4000     103.202     2.61603     77.7001     95.6000     102.500     134.112
     91.5000     101.030     2.46800     102.100     93.1994     102.000     134.950
     91.6000     98.4685     2.19300     106.600     107.699     105.499     134.544
     91.7000     102.311     2.20000     107.403     131.100     115.101     133.655
     91.8000     112.559     2.17100     128.999     131.000     122.199     132.944
     91.9000     135.507     2.15400     134.500     131.100     123.500     133.198
     92.0000     147.535     2.29100     130.600     130.600     127.600     134.900
     92.1000     151.434     2.23700     126.700     126.800     127.800     137.059
     92.2000     140.127     2.20398     124.100     124.100     126.900     139.167
     92.3000     143.356     2.15300     125.200     124.900     125.400     139.929
     92.4000     140.740     2.18600     127.500     124.500     124.100     140.132
     92.5000     138.011     2.22800     128.000     124.300     125.100     140.310
     92.6000     135.226     2.19000     126.320     125.300     125.900     141.122
     92.7000     134.892     2.20800     126.100     124.900     124.900     142.215
     92.8000     133.055     2.20701     128.799     123.300     120.720     143.358
     92.9000     138.178     2.31303     124.400     118.120     116.400     143.866
     93.0000     131.662     2.42200     111.400     111.600     111.600     143.916
     93.1000     132.330     2.53600     101.400     104.500     107.600     143.307
     93.2000     123.530     2.51200     101.600     98.3998     102.500     142.469
     93.3000     122.861     2.49100     100.800     97.0000     98.4000     141.529
     93.4000     113.895     2.47400     99.0000     96.4000     97.2000     141.224
     93.5000     112.224     2.50400     98.2001     94.7000     95.4001     141.046
     93.6000     108.214     2.56500     96.5000     92.5999     93.5000     141.122
     93.7000     121.804     2.55700     93.3997     90.5001     93.5001     140.970
     93.8000     118.742     2.55098     91.7009     90.9005     94.7000     140.792
     93.9000     124.980     2.46600     96.7001     93.6999     95.5999     140.462
     94.0000     102.034     2.51100     99.3000     96.8000     92.3996     140.005
     94.1000     88.7210     2.51700     100.521     92.5992     88.0999     139.421
     94.2000     92.5097     2.57102     86.8978     83.6991     84.0000     138.836
     94.3000     102.646     2.68798     69.0221     76.5074     83.1099     138.278
     94.4000     113.171     2.64000     70.9994     103.720     82.5000     137.820
     94.5000     112.224     2.60799     88.9999     120.000     81.9199     137.287
     94.6000     109.495     2.55300     96.2000     120.140     85.4000     136.982
     94.7000     124.590     2.51500     97.0002     108.298     91.6008     136.677
     94.8000     132.221     2.45600     98.2001     96.0013     96.6994     136.703
     94.9000     139.125     2.43100     99.9001     96.8000     96.4000     136.550
