#------------------------------------------------------------
~VERSION INFORMATION
VERS.               2.0  :CWLS LOG ASCII STANDARD-VERSION 2.0
WRAP.                NO  :ONE LINE PER DEPTH STEP
#------------------------------------------------------------
~WELL INFORMATION
STRT.M              0.0  :START DEPTH
STOP.M            204.0  :STOP DEPTH
STEP.M              0.1  :STEP
NULL.           -999.25  :NULL VALUE
COMP.               N/A  :COMPANY
WELL.               N/A  :WELL
 FLD.               N/A  :FIELD
 LOC.               N/A  :LOCATION
PROV.               N/A  :PROVINCE
SRVC.               N/A  :SERVICE COMPANY
DATE.               N/A  :DATE
 UWI.               N/A  :UNIQUE WELL ID
#------------------------------------------------------------
~CURVE INFORMATION
DEPT.M                   :DEPTH
MC4F.MS/F                :MC4F
MC6F.MS/F                :MC6F
GRDE.API                 :GRDE
DENL.G/CC                :DENL
ADEN.GM/CC               :ADEN
CADE.MM                  :CADE
#------------------------------------------------------------
~OTHER
#------------------------------------------------------------
~A   DEPT[M]    MC4F[MS/    MC6F[MS/    GRDE[API    DENL[G/C    ADEN[GM/    CADE[mm]
# ...
     161.500     111.700     110.600     124.743     2.11200     2.35761     118.872
     161.600     116.300     110.700     169.601     2.14999     2.05798     119.685
     161.700     112.600     111.800     218.132     2.29299     2.21857     119.304
     161.800     107.800     108.400     227.551     2.43100     2.41386     118.491
     161.900     101.999     101.699     215.917     2.43700     2.44501     117.678
     162.000     94.6999     97.3001     180.158     2.41600     2.42707     117.932
     162.100     91.0000     94.9997     183.823     2.40200     2.38453     117.932
     162.200     90.6000     98.1997     179.968     2.44900     2.43487     118.135
     162.300     97.9003     99.8000     207.710     2.34500     2.28003     119.253
     162.400     104.100     100.120     213.966     2.31700     2.33444     119.939
     162.500     106.220     101.100     218.201     2.36300     2.51233     120.066
     162.600     104.400     101.200     197.346     2.34100     2.30222     119.355
     162.700     95.8000     102.900     181.043     2.34900     2.32794     119.050
     162.800     95.3000     97.9001     190.016     2.37400     2.32093     119.253
     162.900     94.5999     94.1001     189.129     2.40300     2.44066     119.075
     163.000     93.7999     95.1003     179.144     2.40000     2.39620     118.720
     163.100     96.4001     100.600     134.027     2.31399     2.29806     118.008
     163.200     101.300     103.800     98.4513     2.15099     1.98548     117.627
     163.300     105.600     103.100     92.7016     2.15300     2.36887     117.704
     163.400     109.400     105.201     104.267     2.16101     2.26311     118.161
     163.500     109.700     107.900     122.907     2.21999     2.06413     118.542
     163.600     104.100     108.500     121.074     2.31000     2.35217     118.466
     163.700     102.200     105.700     137.694     2.35300     2.33632     118.034
     163.800     103.900     105.100     136.240     2.38900     2.40445     117.754
     163.900     105.600     106.200     141.229     2.37600     2.31402     117.653
     164.000     107.400     107.140     125.435     2.38200     2.41921     117.831
     164.100     108.340     106.700     134.724     2.38700     2.41264     118.085
     164.200     106.500     105.700     150.585     2.36000     2.33968     118.085
     164.300     102.400     100.500     147.551     2.48200     2.50694     118.008
     164.400     95.5997     98.2000     147.299     2.49300     2.62873     117.653
     164.500     94.3001     98.5000     150.774     2.48200     2.18405     117.754
     164.600     95.7002     98.9001     166.193     2.52200     2.58720     117.653
     164.700     99.5002     98.3001     166.066     2.56000     2.64048     117.805
     164.800     104.600     98.8998     146.856     2.46400     2.49480     117.958
     164.900     104.700     102.500     143.318     2.42100     2.34849     118.059
     165.000     103.100     103.700     140.032     2.46600     2.46637     117.881
     165.100     103.200     103.500     139.525     2.43200     2.45546     117.602
     165.200     105.600     104.400     147.803     2.42000     2.43086     117.526
     165.300     105.800     104.600     146.414     2.42500     2.42479     117.805
     165.400     103.800     103.600     157.851     2.41000     2.38816     117.958
     165.500     101.800     101.220     150.964     2.39900     2.43179     118.059
     165.600     98.4199     99.8001     146.098     2.43600     2.45397     117.932
     165.700     95.7999     98.3001     136.872     2.42500     2.36524     117.983
     165.800     94.9000     96.9000     136.430     2.42800     2.45414     118.237
     165.900     95.3000     96.7001     137.444     2.50199     2.50223     118.313
     166.000     95.9999     97.1000     156.019     2.44200     2.44947     118.643
     166.100     96.7000     97.1000     154.060     2.45200     2.43565     118.440
     166.200     97.1000     97.1000     154.376     2.46700     2.47113     118.643
     166.300     97.2001     97.5000     147.299     2.48300     2.49482     118.415
     166.400     96.1000     97.4999     137.883     2.44900     2.43888     118.567
     166.500     96.0000     96.7000     141.169     2.44700     2.45196     118.694
     166.600     95.7000     95.7000     129.036     2.40000     2.38526     118.720
     166.700     94.6000     95.6000     140.916     2.44500     2.44352     118.821
     166.800     93.2000     95.1001     140.474     2.40200     2.43050     118.694
     166.900     92.9999     94.1000     142.242     2.42700     2.38819     118.669
     167.000     92.1000     94.0000     138.768     2.41900     2.45328     118.542
     167.100     92.5999     94.2200     144.518     2.45100     2.44476     118.542
     167.200     93.0199     94.2000     146.983     2.43600     2.43398     118.567
     167.300     93.0000     92.5999     142.941     2.44600     2.44129     118.669
     167.400     91.5996     91.3000     121.831     2.47399     2.49299     118.593
     167.500     89.3999     90.9000     112.732     2.44400     2.45602     118.847
     167.600     87.1000     90.7000     105.529     2.48000     2.43891     118.847
     167.700     87.1000     90.5000     115.134     2.44700     2.42606     118.796
     167.800     89.3001     89.5001     108.499     2.47600     2.50982     118.542
     167.900     90.6006     91.1006     123.727     2.50898     2.49888     118.567
     168.000     93.3000     93.8000     116.336     2.40100     2.40947     118.720
     168.100     94.1000     95.0001     138.894     2.44400     2.42381     118.847
     168.200     94.4000     93.6001     137.062     2.42500     2.43524     118.847
     168.300     93.3999     91.6000     143.252     2.41600     2.45189     118.872
     168.400     89.9997     91.8000     122.275     2.43900     2.43202     118.999
     168.500     88.2000     92.0000     121.707     2.45700     2.44304     118.999
     168.600     88.5999     91.3200     132.448     2.43900     2.39431     118.897
     168.700     90.3099     91.4000     144.517     2.45600     2.48862     118.542
     168.800     93.8000     92.5000     153.744     2.44200     2.45162     118.567
     168.900     94.6996     93.2998     145.403     2.42599     2.43409     118.720
     169.000     91.9000     92.4000     148.121     2.37600     2.36653     118.821
     169.100     90.3000     92.3000     125.498     2.42700     2.44835     118.669
     169.200     90.4000     92.1000     124.171     2.43100     2.38648     118.567
     169.300     89.9000     91.1000     104.456     2.45300     2.47567     118.720
     169.400     90.8001     90.9001     114.375     2.42000     2.42202     118.847
     169.500     91.8000     91.8000     108.056     2.40700     2.40105     118.821
     169.600     91.0001     93.0000     117.915     2.40900     2.40243     118.720
     169.700     90.4001     93.1000     113.175     2.46400     2.48596     118.847
     169.800     92.3000     93.0000     127.267     2.40200     2.37078     118.847
     169.900     92.6998     92.2000     135.736     2.46600     2.49379     118.847
     170.000     90.8000     92.1000     144.834     2.45400     2.48077     118.821
     170.100     90.5000     91.7400     138.389     2.43000     2.38994     118.694
     170.200     90.2300     92.0000     136.240     2.45100     2.42837     118.669
     170.300     89.9999     91.6000     130.616     2.44100     2.48696     118.567
     170.400     91.1001     92.1001     125.371     2.42200     2.40417     118.720
     170.500     92.2000     92.6001     124.044     2.44200     2.42746     118.821
     170.600     92.1001     91.3000     129.731     2.36300     2.37452     118.694
     170.700     90.2001     92.0000     128.404     2.38700     2.40554     118.669
     170.800     90.2000     92.2000     128.530     2.41900     2.41157     118.593
     170.900     90.9001     92.5000     121.329     2.42000     2.39709     118.847
