#------------------------------------------------------------
~VERSION INFORMATION
VERS.               2.0  :CWLS LOG ASCII STANDARD-VERSION 2.0
WRAP.                NO  :ONE LINE PER DEPTH STEP
#------------------------------------------------------------
~WELL INFORMATION
STRT.M              0.0  :START DEPTH
STOP.M            225.0  :STOP DEPTH
STEP.M              0.1  :STEP
NULL.           -999.25  :NULL VALUE
COMP.               N/A  :COMPANY
WELL.               N/A  :WELL
 FLD.               N/A  :FIELD
 LOC.               N/A  :LOCATION
PROV.               N/A  :PROVINCE
SRVC.               N/A  :SERVICE COMPANY
DATE.               N/A  :DATE
 UWI.               N/A  :UNIQUE WELL ID
#------------------------------------------------------------
~CURVE INFORMATION
DEPT.M                   :DEPTH
GRDE.API                 :GRDE
CADE.MM                  :CADE
DENL.G/CC                :DENL
ADEN.G/C3                :ADEN
MC2F.USFT                :MC2F
MC4F.MS/F                :MC4F
MC6F.MS/F                :MC6F
#------------------------------------------------------------
~OTHER
#------------------------------------------------------------
~A   DEPT[M]    GRDE[API    CADE[mm]    DENL[G/C    ADEN[G/C    MC2F[uSF    MC4F[MS/    MC6F[MS/
# ...
     132.800     107.090     117.010     2.54000     2.53000     94.4500     92.2700     93.6000
     132.900     112.380     116.920     2.55000     2.56000     94.0001     93.0496     92.5500
     133.000     111.079     117.010     2.55000     2.55000     94.7500     91.3500     92.4198
     133.100     104.250     116.920     2.56000     2.55000     95.6500     91.4001     90.5499
     133.200     93.4815     116.980     2.55000     2.52000     93.3998     88.8202     89.9199
     133.300     84.0598     116.640     2.58000     2.57999     87.6003     87.5000     89.5800
     133.400     86.5498     115.930     2.60000     2.65000     83.6505     86.5502     89.9001
     133.500     84.3101     115.160     2.59000     2.65000     86.7497     88.1497     90.1700
     133.600     89.8398     114.730     2.58000     2.60000     93.3496     91.4498     90.6500
     133.700     85.6500     114.820     2.55000     2.52000     97.4997     94.1500     92.3499
     133.800     91.5400     114.730     2.54000     2.53000     96.4000     95.1502     92.7200
     133.900     91.4904     114.820     2.53001     2.55000     94.7994     92.3991     91.0696
     134.000     101.959     114.760     2.56000     2.57000     90.8001     87.8498     88.0500
     134.100     95.0799     115.080     2.57000     2.59000     83.0502     83.8800     86.2500
     134.200     90.0894     115.670     2.59000     2.63000     78.6500     81.9801     86.2800
     134.300     83.6581     116.370     2.59000     2.63000     81.0985     84.0300     86.2298
     134.400     101.563     116.360     2.60000     2.62000     88.2606     87.8304     87.4305
     134.500     116.310     115.680     2.58000     2.58000     92.2600     91.8302     89.9000
     134.600     111.030     115.050     2.58000     2.61000     92.5000     94.3000     92.7401
     134.700     100.960     114.660     2.57000     2.61000     94.0499     94.9800     94.4401
     134.800     96.1720     114.300     2.56000     2.61000     95.8000     95.5300     94.9399
     134.900     109.531     113.500     2.52999     2.57999     96.1000     96.1502     96.2105
     135.000     113.270     112.860     2.50000     2.54000     96.2498     97.3003     97.9800
     135.100     119.410     112.500     2.49000     2.50000     98.5499     99.0701     98.5999
     135.200     124.440     112.410     2.47000     2.47000     102.000     99.8500     96.9198
     135.300     133.570     112.570     2.47000     2.47000     101.151     97.2496     94.3702
     135.400     124.537     112.940     2.47001     2.46001     92.9486     92.2793     92.1799
     135.500     106.840     113.730     2.50000     2.54000     85.3000     87.2800     91.8800
     135.600     109.040     114.390     2.52000     2.58000     86.2003     87.2502     92.1000
     135.700     115.320     114.820     2.51000     2.58000     93.3003     91.6701     93.1500
     135.800     120.500     114.710     2.48000     2.46999     100.400     97.0700     94.9001
     135.900     112.028     114.710     2.47000     2.41000     102.000     99.2500     96.7202
     136.000     103.649     114.730     2.47000     2.44002     100.100     98.4303     97.8000
     136.100     100.210     114.730     2.51000     2.56001     97.0000     96.5002     96.9000
     136.200     100.961     114.020     2.53000     2.59000     94.9500     94.3501     95.3500
     136.300     108.990     113.320     2.53000     2.55000     93.2501     92.9800     94.0300
     136.400     116.961     113.320     2.52000     2.51000     91.9501     92.5501     94.0200
     136.500     123.050     114.050     2.51000     2.52000     92.4996     93.5499     94.2300
     136.600     120.749     114.890     2.51000     2.52000     95.7001     94.7200     94.0501
     136.700     106.491     115.120     2.51000     2.49000     98.2000     95.1001     93.2301
     136.800     88.3501     115.120     2.53000     2.51000     96.0006     93.6002     92.7699
     136.900     76.9801     115.100     2.57000     2.59001     90.9494     91.2994     92.0798
     137.000     78.5199     115.010     2.59000     2.63000     87.7000     89.0300     91.0800
     137.100     77.9795     115.120     2.59000     2.63000     88.3500     88.6299     90.1300
     137.200     82.3100     115.140     2.58000     2.58000     90.8499     89.7300     90.3500
     137.300     88.0496     115.260     2.57000     2.56000     92.4499     91.6800     91.4000
     137.400     96.6200     115.230     2.56000     2.56000     93.0000     92.9298     90.7302
     137.500     96.4200     115.100     2.56000     2.57000     92.9500     90.6799     91.8299
     137.600     97.1701     115.010     2.56000     2.58000     93.6500     91.5299     92.8700
     137.700     91.3398     115.100     2.57000     2.59000     94.9999     92.8000     95.6700
     137.800     100.261     115.030     2.56000     2.57000     97.4501     97.0300     96.3300
     137.900     103.850     115.230     2.55000     2.55000     98.4499     97.6700     96.8200
     138.000     103.200     115.140     2.56000     2.56000     97.7500     97.7199     96.6700
     138.100     102.310     115.230     2.56000     2.57000     96.3499     96.2798     94.9800
     138.200     100.611     115.120     2.57000     2.59000     94.4000     93.2498     94.1801
     138.300     108.990     115.100     2.56000     2.59000     92.8500     92.4000     93.8701
     138.400     113.069     114.980     2.57000     2.59000     93.2003     92.6302     94.7199
     138.500     104.550     115.010     2.56000     2.57000     95.3500     94.8800     93.6999
     138.600     99.5066     115.140     2.55000     2.53000     96.3500     94.1301     92.3200
     138.700     85.7482     115.280     2.55000     2.53000     93.2501     91.8803     91.0801
     138.800     85.3502     115.440     2.56000     2.57000     88.4001     88.9502     90.3800
     138.900     74.2906     115.740     2.57000     2.61001     86.6502     87.4000     89.9300
     139.000     82.0585     116.120     2.59000     2.65000     88.3002     88.2696     89.8000
     139.100     92.1808     116.400     2.59000     2.61000     91.1101     90.4997     90.8500
     139.200     117.010     116.620     2.57000     2.57000     92.9600     92.9499     92.0500
     139.300     123.941     116.670     2.55000     2.53000     94.7000     93.9201     93.3400
     139.400     119.608     116.870     2.54000     2.53001     95.0000     94.4501     94.1902
     139.500     111.929     116.810     2.54000     2.57000     94.6500     94.8000     95.7699
     139.600     103.250     116.980     2.56000     2.61000     95.3498     96.3000     96.8200
     139.700     112.330     116.780     2.55000     2.58000     98.8499     97.7199     97.2700
     139.800     110.280     116.770     2.54000     2.52000     101.150     98.5699     97.0300
     139.900     112.628     116.160     2.51000     2.49001     99.3993     97.8794     95.8000
     140.000     103.200     115.820     2.53000     2.54001     95.8002     94.2800     95.5701
     140.100     112.731     115.280     2.56000     2.60000     93.9000     92.7802     93.1800
     140.200     119.660     115.370     2.58000     2.62000     94.1500     90.0802     92.6500
     140.300     128.879     115.230     2.58000     2.60000     93.7499     91.0800     91.4700
     140.400     116.756     115.100     2.57000     2.58000     91.9500     90.2501     92.0000
     140.500     102.900     115.010     2.59000     2.60000     91.1000     90.9300     91.9000
     140.600     97.1697     115.140     2.58000     2.60000     91.4000     90.9800     91.6000
     140.700     99.9598     115.230     2.57000     2.60000     92.4000     91.4299     91.9700
     140.800     105.700     115.120     2.55000     2.56000     93.1000     92.4000     92.6000
     140.900     103.650     115.120     2.56000     2.54999     94.0502     93.2001     93.3501
     141.000     106.340     115.140     2.55000     2.51999     95.1000     93.8201     94.1000
