#------------------------------------------------------------
~VERSION INFORMATION
VERS.               2.0  :CWLS LOG ASCII STANDARD-VERSION 2.0
WRAP.                NO  :ONE LINE PER DEPTH STEP
#------------------------------------------------------------
~WELL INFORMATION
STRT.M              0.0  :START DEPTH
STOP.M            204.0  :STOP DEPTH
STEP.M              0.1  :STEP
NULL.           -999.25  :NULL VALUE
COMP.               N/A  :COMPANY
WELL.               N/A  :WELL
 FLD.               N/A  :FIELD
 LOC.               N/A  :LOCATION
PROV.               N/A  :PROVINCE
SRVC.               N/A  :SERVICE COMPANY
DATE.               N/A  :DATE
 UWI.               N/A  :UNIQUE WELL ID
#------------------------------------------------------------
~CURVE INFORMATION
DEPT.M                   :DEPTH
MC4F.MS/F                :MC4F
MC6F.MS/F                :MC6F
GRDE.API                 :GRDE
DENL.G/CC                :DENL
ADEN.GM/CC               :ADEN
CADE.MM                  :CADE
#------------------------------------------------------------
~OTHER
#------------------------------------------------------------
~A   DEPT[M]    MC4F[MS/    MC6F[MS/    GRDE[API    DENL[G/C    ADEN[GM/    CADE[mm]
# ...
     47.5000     85.1999     88.5999     89.2892     2.49700     2.49271     125.222
     47.6000     81.6000     85.0000     93.7761     2.54400     2.53975     125.400
     47.7000     80.4000     85.0000     94.8507     2.51800     2.51515     125.730
     47.8000     81.1000     85.0000     114.060     2.56100     2.53312     126.086
     47.9000     83.7001     85.5002     121.833     2.54100     2.55570     126.238
     48.0000     87.0002     88.2101     112.923     2.52100     2.53417     126.873
     48.1000     91.7201     90.8000     110.079     2.42900     2.43057     126.975
     48.2000     93.9000     92.5000     103.823     2.49500     2.48175     127.254
     48.3000     94.0000     93.7000     118.483     2.49400     2.52303     127.025
     48.4000     93.3999     93.0000     113.491     2.49100     2.50190     127.127
     48.5000     91.2000     92.1000     112.607     2.50700     2.50708     127.051
     48.6000     89.3000     90.6000     95.5452     2.53100     2.49069     127.152
     48.7000     89.0000     89.9000     101.295     2.49600     2.48241     127.051
     48.8000     89.6000     90.0000     95.1029     2.50100     2.51599     127.127
     48.9000     90.0000     90.7000     107.741     2.54100     2.56454     127.000
     49.0000     90.2000     91.6000     101.801     2.48000     2.47554     127.025
     49.1000     91.0000     92.3000     108.247     2.49900     2.46836     127.127
     49.2000     91.8000     92.6000     124.423     2.49600     2.52577     127.051
     49.3000     92.6000     93.6000     118.231     2.51400     2.50306     127.178
     49.4000     93.4001     94.9000     122.590     2.49800     2.52389     127.203
     49.5000     94.9000     95.1000     97.6941     2.44800     2.39717     127.279
     49.6000     95.5000     95.0200     101.738     2.48000     2.51250     127.051
     49.7000     94.9199     95.0200     96.1144     2.48200     2.49100     127.178
     49.8000     93.9200     95.1000     104.455     2.52200     2.51230     127.254
     49.9000     93.0000     95.0999     108.311     2.47400     2.48275     127.432
     50.0000     93.1000     94.0000     117.536     2.45600     2.42561     127.178
     50.1000     93.2000     93.8000     124.929     2.47200     2.50826     127.127
     50.2000     93.0000     93.9000     123.412     2.47400     2.44976     127.000
     50.3000     93.0000     93.0000     115.703     2.45600     2.48305     127.000
     50.4000     92.5000     92.8000     115.324     2.49500     2.47257     127.025
     50.5000     91.3000     92.9000     114.628     2.47101     2.47749     127.178
     50.6000     91.4000     92.1000     100.158     2.55000     2.54244     127.178
     50.7000     91.2000     92.8000     88.4042     2.44300     2.44019     127.127
     50.8000     92.2000     92.5000     94.2810     2.50400     2.50392     126.975
     50.9000     92.3999     92.0000     100.348     2.45500     2.47007     126.822
     51.0000     90.5000     91.5000     109.131     2.50800     2.51188     126.670
     51.1000     90.2000     91.3000     102.812     2.56000     2.55364     126.492
     51.2000     89.8000     91.0000     106.351     2.48100     2.46568     126.213
     51.3000     89.2000     90.2200     104.708     2.50800     2.51998     126.035
     51.4000     89.6200     90.2000     108.626     2.47600     2.47245     125.730
     51.5000     88.5000     89.8000     109.573     2.53500     2.52881     125.451
     51.6000     88.7000     90.0000     116.840     2.51800     2.52341     125.273
     51.7000     89.4000     90.0000     124.487     2.46900     2.47714     125.044
     51.8000     89.2000     90.0000     128.784     2.52900     2.52054     124.917
     51.9000     89.8000     90.2000     121.769     2.54999     2.55639     124.333
     52.0000     90.0000     90.5000     103.254     2.44800     2.44110     123.901
     52.1000     89.2999     89.9999     106.983     2.45000     2.44947     123.469
     52.2000     88.0999     88.8999     103.254     2.51500     2.52065     123.165
     52.3000     86.9000     87.0999     110.205     2.44000     2.44789     122.834
     52.4000     84.2999     84.5999     95.9871     2.50800     2.52493     122.403
     52.5000     80.9998     81.8999     97.3773     2.53800     2.53486     122.123
     52.6000     77.6999     78.9998     85.2450     2.56000     2.54526     121.945
     52.7000     73.4999     76.3000     89.4788     2.58000     2.57009     121.590
     52.8000     72.2000     75.8000     79.8740     2.57700     2.58439     121.006
     52.9000     74.6001     76.3002     87.5834     2.56900     2.51610     120.472
     53.0000     77.1003     81.6200     100.096     2.55900     2.62718     120.345
     53.1000     85.6201     86.0004     113.049     2.52800     2.45342     120.345
     53.2000     91.9999     103.699     114.312     2.47800     2.50394     120.345
     53.3000     89.0001     87.2000     91.8800     2.60800     2.74101     120.320
     53.4000     86.2001     91.1002     93.7125     2.57000     2.51833     120.218
     53.5000     88.0001     96.2001     107.489     2.56400     2.41434     120.371
     53.6000     91.6004     97.7000     136.556     2.56700     2.67019     120.650
     53.7000     102.701     99.4004     149.700     2.59900     2.54928     121.539
     53.8000     113.300     107.200     151.280     2.54800     2.58579     122.326
     53.9000     113.400     113.300     158.041     2.51000     2.53151     123.088
     54.0000     112.800     109.900     154.946     2.50300     2.49252     123.190
     54.1000     106.400     106.000     164.487     2.55500     2.61806     122.987
     54.2000     100.200     106.900     155.387     2.52300     2.50374     122.733
     54.3000     102.300     108.800     162.970     2.54900     2.37337     123.342
     54.4000     105.100     109.400     164.739     2.63900     2.74653     123.952
     54.5000     113.800     111.700     173.397     2.54000     2.57505     124.612
     54.6000     117.000     113.620     176.051     2.50200     2.46240     124.765
     54.7000     115.620     116.300     176.051     2.48600     2.50624     124.866
     54.8000     114.100     114.200     177.757     2.52800     2.53097     124.739
     54.9000     112.200     108.700     178.073     2.50200     2.50865     124.485
     55.0000     104.400     106.300     161.264     2.54000     2.56032     123.114
     55.1000     102.000     106.800     159.052     2.51800     2.54715     121.869
     55.2000     102.400     105.500     152.480     2.50800     2.36799     121.437
     55.3000     102.500     105.300     165.877     2.60200     2.70181     122.504
     55.4000     110.500     105.300     163.728     2.47900     2.46017     123.419
     55.5000     111.300     110.900     154.123     2.53700     2.53869     123.622
     55.6000     110.600     111.900     151.027     2.50400     2.53414     123.368
     55.7000     110.100     110.900     147.615     2.51200     2.43536     123.317
     55.8000     110.300     111.400     156.272     2.51600     2.56886     123.012
     55.9000     111.000     110.600     156.461     2.48000     2.46063     122.657
     56.0000     111.700     105.700     164.171     2.43000     2.43442     122.047
     56.1000     102.899     100.600     160.505     2.46000     2.50935     121.514
     56.2000     93.4000     99.0000     140.284     2.55000     2.55128     121.310
     56.3000     90.8000     98.1200     141.360     2.51800     2.42995     121.615
     56.4000     89.9203     97.4000     156.335     2.56700     2.58022     121.971
     56.5000     97.9002     96.8003     178.073     2.56200     2.60821     122.453
     56.6000     106.700     102.600     171.564     2.55000     2.55015     122.403
     56.7000     108.200     107.900     163.286     2.40400     2.36692     122.047
     56.8000     107.700     108.920     168.215     2.46300     2.49562     121.437
     56.9000     108.420     110.200     171.501     2.48500     2.51721     120.879
