#------------------------------------------------------------
~VERSION INFORMATION
VERS.               2.0  :CWLS LOG ASCII STANDARD-VERSION 2.0
WRAP.                NO  :ONE LINE PER DEPTH STEP
#------------------------------------------------------------
~WELL INFORMATION
STRT.M              0.0  :START DEPTH
STOP.M            204.0  :STOP DEPTH
STEP.M              0.1  :STEP
NULL.           -999.25  :NULL VALUE
COMP.               N/A  :COMPANY
WELL.               N/A  :WELL
 FLD.               N/A  :FIELD
 LOC.               N/A  :LOCATION
PROV.               N/A  :PROVINCE
SRVC.               N/A  :SERVICE COMPANY
DATE.               N/A  :DATE
 UWI.               N/A  :UNIQUE WELL ID
#------------------------------------------------------------
~CURVE INFORMATION
DEPT.M                   :DEPTH
MC4F.MS/F                :MC4F
MC6F.MS/F                :MC6F
GRDE.API                 :GRDE
DENL.G/CC                :DENL
ADEN.GM/CC               :ADEN
CADE.MM                  :CADE
#------------------------------------------------------------
~OTHER
#------------------------------------------------------------
~A   DEPT[M]    MC4F[MS/    MC6F[MS/    GRDE[API    DENL[G/C    ADEN[GM/    CADE[mm]
# ...
     142.500     116.500     117.200     135.103     2.14500     2.01602     123.495
     142.600     120.000     120.000     117.472     2.02000     2.14269     123.368
     142.700     122.800     120.800     104.076     1.95400     2.03709     123.368
     142.800     123.000     120.500     116.211     2.03801     2.07277     123.368
     142.900     119.699     119.600     144.205     2.17902     2.13978     123.342
     143.000     115.300     117.900     160.758     2.29800     2.27252     123.215
     143.100     112.700     114.500     169.984     2.33000     2.30703     123.241
     143.200     110.300     111.000     171.058     2.38800     2.39551     123.368
     143.300     107.300     108.300     147.615     2.42100     2.45933     123.368
     143.400     105.000     106.800     139.082     2.40002     2.39811     123.368
     143.500     103.200     105.600     125.498     2.50100     2.45834     123.393
     143.600     102.000     104.800     144.392     2.50100     2.47466     123.520
     143.700     103.100     105.500     144.897     2.52100     2.53562     123.495
     143.800     106.600     107.420     142.559     2.47500     2.46050     123.368
     143.900     109.620     109.300     132.513     2.47199     2.47534     123.393
     144.000     111.000     108.400     137.693     2.42100     2.46560     123.495
     144.100     109.000     108.000     144.581     2.45600     2.50093     123.368
     144.200     105.800     108.800     146.035     2.50700     2.47479     123.368
     144.300     105.400     111.000     133.397     2.49701     2.40945     123.393
     144.400     108.802     113.200     134.283     2.43199     2.43002     123.571
     144.500     116.600     116.600     143.570     2.37700     2.41505     123.774
     144.600     124.700     123.400     151.153     2.26800     2.26570     123.546
     144.700     130.700     128.400     143.444     2.17000     2.16229     123.647
     144.800     132.100     130.400     137.757     2.10900     2.09078     123.571
     144.900     131.800     130.600     140.350     2.15400     2.21595     123.825
     145.000     129.700     129.800     154.693     2.15700     2.22201     123.800
     145.100     126.000     128.100     145.719     2.07200     1.89243     123.723
     145.200     122.800     126.700     139.463     2.10000     2.17454     123.977
     145.300     123.000     123.700     131.944     2.16500     2.32750     124.054
     145.400     121.900     122.220     149.064     2.17000     2.05985     124.435
     145.500     120.720     123.500     128.213     2.14501     1.98361     124.460
     145.600     122.600     125.900     94.9126     1.98700     2.01587     124.612
     145.700     125.100     126.300     60.4736     1.72200     1.74579     124.739
     145.800     126.400     123.200     58.5793     1.55999     1.62858     124.739
     145.900     124.499     120.400     76.4645     1.73107     1.96118     124.587
     146.000     118.100     119.000     113.490     1.96400     1.86665     123.901
     146.100     110.100     115.800     154.629     2.16602     2.02152     123.317
     146.200     106.600     111.000     176.556     2.32102     2.33832     122.352
     146.300     107.700     107.800     174.155     2.38200     2.38122     121.691
     146.400     108.000     108.000     168.470     2.34001     2.35495     120.904
     146.500     107.600     108.500     179.589     2.38600     2.37716     120.650
     146.600     107.400     109.200     186.857     2.33500     2.34541     120.650
     146.700     107.600     108.500     179.464     2.35200     2.31781     120.650
     146.800     106.500     107.100     161.834     2.35800     2.40128     120.625
     146.900     105.300     105.800     147.550     2.36600     2.35936     120.472
     147.000     105.000     105.240     139.337     2.40299     2.38983     120.345
     147.100     102.940     103.300     123.918     2.31399     2.32280     120.345
     147.200     99.6001     100.300     123.033     2.40099     2.40918     120.345
     147.300     97.3000     98.6000     127.077     2.44700     2.42994     120.371
     147.400     96.0000     98.7999     137.380     2.43799     2.42272     120.472
     147.500     95.9999     98.3000     147.740     2.39800     2.42385     120.371
     147.600     97.6000     98.6999     154.313     2.41100     2.39836     120.447
     147.700     99.6000     100.100     160.063     2.41000     2.42123     120.193
     147.800     101.200     100.700     150.837     2.39600     2.38440     120.167
     147.900     100.700     101.000     151.404     2.40000     2.41148     120.066
     148.000     99.5001     100.600     139.462     2.39000     2.38228     120.218
     148.100     98.6000     100.300     125.750     2.37100     2.37852     120.371
     148.200     98.4000     100.700     112.354     2.39400     2.38380     120.472
     148.300     99.2999     100.500     113.997     2.37300     2.36784     120.345
     148.400     100.900     101.400     130.049     2.38600     2.40977     120.294
     148.500     101.900     102.400     147.994     2.38099     2.35771     120.066
     148.600     102.300     102.820     157.030     2.48600     2.51128     120.142
     148.700     101.620     98.6001     143.697     2.44200     2.43061     119.888
     148.800     95.0002     92.3998     116.778     2.41900     2.47000     119.888
     148.900     85.9994     89.6999     93.5223     2.49600     2.46254     119.913
     149.000     80.9000     89.0000     89.4791     2.46700     2.43041     120.015
     149.100     80.7001     88.0001     94.7243     2.47800     2.42002     119.863
     149.200     87.0001     86.3001     106.414     2.46900     2.54396     119.710
     149.300     93.1999     88.9000     104.013     2.41200     2.41580     119.609
     149.400     95.3994     92.1998     102.242     2.43001     2.42493     119.736
     149.500     91.9005     90.2001     94.1554     2.48200     2.49707     119.736
     149.600     84.5000     86.9000     82.0861     2.48700     2.53834     119.736
     149.700     81.8000     84.9000     70.3331     2.49600     2.37347     119.710
     149.800     80.7000     83.9001     82.3364     2.51400     2.53362     119.634
     149.900     81.8004     82.9000     105.024     2.48500     2.52468     119.888
     150.000     84.5000     83.0000     104.771     2.51200     2.51088     119.939
     150.100     84.3000     84.0100     105.530     2.44600     2.43357     120.193
     150.200     82.5100     82.6100     88.3420     2.45600     2.45988     120.218
     150.300     80.0099     81.0001     97.8823     2.48300     2.50592     120.345
     150.400     78.0999     79.9999     75.0719     2.51400     2.51928     120.320
     150.500     77.3000     79.4001     82.9700     2.51100     2.48614     120.193
     150.600     77.6000     78.7000     75.3237     2.48800     2.49114     120.218
     150.700     78.3000     79.2000     86.6977     2.49000     2.55104     120.320
     150.800     80.2999     80.8001     77.5356     2.47100     2.37006     120.218
     150.900     81.2003     83.3002     82.2119     2.46800     2.46236     120.294
     151.000     83.8999     84.3000     81.5178     2.48300     2.53822     120.091
     151.100     86.6000     85.0999     100.095     2.48300     2.46462     120.320
     151.200     86.8000     86.6999     98.8309     2.44900     2.48555     120.193
     151.300     86.1999     86.1000     115.514     2.47300     2.39861     120.193
     151.400     84.1000     85.9998     104.203     2.47999     2.52269     120.167
     151.500     84.0000     85.2000     107.236     2.45000     2.45855     120.066
     151.600     84.2000     85.4000     96.2400     2.46200     2.47431     120.167
     151.700     84.0000     85.8200     105.087     2.43200     2.38793     120.091
     151.800     85.6200     85.3999     110.775     2.43000     2.46184     120.320
     151.900     85.3003     86.3001     118.736     2.44799     2.44403     120.167
