#------------------------------------------------------------
~VERSION INFORMATION
VERS.               2.0  :CWLS LOG ASCII STANDARD-VERSION 2.0
WRAP.                NO  :ONE LINE PER DEPTH STEP
#------------------------------------------------------------
~WELL INFORMATION
STRT.M              0.0  :START DEPTH
STOP.M            204.0  :STOP DEPTH
STEP.M              0.1  :STEP
NULL.           -999.25  :NULL VALUE
COMP.               N/A  :COMPANY
WELL.               N/A  :WELL
 FLD.               N/A  :FIELD
 LOC.               N/A  :LOCATION
PROV.               N/A  :PROVINCE
SRVC.               N/A  :SERVICE COMPANY
DATE.               N/A  :DATE
 UWI.               N/A  :UNIQUE WELL ID
#------------------------------------------------------------
~CURVE INFORMATION
DEPT.M                   :DEPTH
MC4F.MS/F                :MC4F
MC6F.MS/F                :MC6F
GRDE.API                 :GRDE
DENL.G/CC                :DENL
ADEN.GM/CC               :ADEN
CADE.MM                  :CADE
#------------------------------------------------------------
~OTHER
#------------------------------------------------------------
~A   DEPT[M]    MC4F[MS/    MC6F[MS/    GRDE[API    DENL[G/C    ADEN[GM/    CADE[mm]
# ...
     76.0000     103.500     102.300     122.338     2.44600     2.47982     122.911
     76.1000     100.200     100.200     107.046     2.53600     2.53369     122.885
     76.2000     95.5000     99.1999     117.284     2.53500     2.53161     122.784
     76.3000     95.0000     98.5000     128.090     2.54600     2.50941     122.860
     76.4000     95.6000     98.8000     145.213     2.54400     2.57258     122.631
     76.5000     98.2002     99.6400     140.790     2.54300     2.52549     122.707
     76.6000     102.440     100.300     148.626     2.49800     2.50155     122.479
     76.7000     102.000     103.400     140.349     2.49500     2.50958     122.580
     76.8000     102.200     103.720     150.457     2.49600     2.48807     122.453
     76.9000     102.220     103.600     140.853     2.50400     2.52068     122.428
     77.0000     102.000     103.800     144.013     2.57900     2.56331     122.301
     77.1000     102.900     104.000     146.603     2.48500     2.48372     122.301
     77.2000     102.700     104.200     154.185     2.51000     2.51227     122.403
     77.3000     103.000     104.100     146.982     2.50400     2.50544     122.784
     77.4000     103.500     104.700     133.333     2.50400     2.49438     122.961
     77.5000     104.000     105.200     140.664     2.54500     2.53464     123.215
     77.6000     104.800     105.900     145.719     2.50800     2.54855     123.215
     77.7000     105.300     103.100     155.574     2.50600     2.47313     123.190
     77.8000     101.199     97.5998     120.377     2.54800     2.61333     122.885
     77.9000     92.6000     92.3998     100.601     2.55100     2.54956     121.793
     78.0000     84.0998     86.0000     79.1790     2.57000     2.49633     120.599
     78.1000     74.5000     82.5100     78.9259     2.59100     2.60079     119.710
     78.2000     74.2102     78.6007     76.9674     2.66800     2.63934     119.583
     78.3000     77.2000     89.4999     80.8839     2.63699     2.64741     119.583
     78.4000     76.9000     87.4000     70.4580     2.56900     2.63785     119.609
     78.5000     77.6000     82.0000     71.4059     2.64000     2.58734     119.812
     78.6000     76.9000     82.0000     72.8595     2.59400     2.60086     120.294
     78.7000     77.9005     82.3002     86.1304     2.58800     2.60269     120.904
     78.8000     83.2003     84.0002     90.6792     2.54200     2.49042     121.539
     78.9000     87.4000     86.5000     92.7650     2.49600     2.53482     122.199
     79.0000     90.1000     89.7000     98.1360     2.50100     2.51318     122.199
     79.1000     91.3000     90.8000     101.043     2.52700     2.51713     121.564
     79.2000     89.9999     89.9996     92.2584     2.48900     2.49045     120.879
     79.3000     87.5998     85.0000     80.0624     2.52401     2.59532     120.599
     79.4000     81.3000     85.4000     72.2270     2.61200     2.62794     121.183
     79.5000     81.5001     86.9000     76.3976     2.70800     2.59080     121.691
     79.6000     84.0000     85.5999     90.8059     2.69600     2.60539     122.123
     79.7000     85.4001     82.9999     95.7355     2.62299     2.70724     121.005
     79.8000     86.3998     82.4201     103.444     2.49800     2.54379     119.609
     79.9000     82.7199     83.7997     101.169     2.48600     2.47262     118.237
     80.0000     78.0000     91.2200     111.027     2.46300     2.45242     118.313
     80.1000     78.2100     92.0005     100.474     2.48100     2.51858     118.694
     80.2000     80.0000     113.000     92.1313     2.46900     2.42164     118.720
     80.3000     80.1002     115.101     74.6293     2.47200     2.49265     118.847
     80.4000     81.6999     124.800     79.8739     2.49100     2.51446     118.999
     80.5000     85.8001     118.000     83.2861     2.47700     2.45581     119.837
     80.6000     89.7001     110.000     104.834     2.51000     2.51603     120.472
     80.7000     94.2001     97.0000     94.2811     2.48400     2.47437     121.107
     80.8000     96.0000     97.0000     99.5882     2.42601     2.42646     121.082
     80.9000     95.9000     96.7000     92.4481     2.48800     2.50146     120.955
     81.0000     94.9000     96.3000     106.098     2.46200     2.44218     120.955
     81.1000     94.4000     95.4000     107.615     2.41300     2.43584     121.006
     81.2000     94.0000     95.0000     116.714     2.44400     2.40858     121.234
     81.3000     93.7000     94.8999     115.008     2.44700     2.49148     121.133
     81.4000     93.5000     94.2999     108.436     2.51700     2.49412     121.209
     81.5000     92.9999     93.3400     96.3033     2.47100     2.47951     120.980
     81.6000     91.6401     91.4000     89.0360     2.50900     2.52486     121.082
     81.7000     88.5999     90.3000     88.5937     2.50100     2.54531     120.955
     81.8000     87.2000     90.0000     85.2453     2.51100     2.46747     120.929
     81.9000     88.0000     90.6000     88.9099     2.47300     2.36377     120.828
     82.0000     89.2000     90.7000     93.0168     2.50400     2.56999     120.980
     82.1000     91.4000     91.3000     99.0207     2.46300     2.47828     121.107
     82.2000     92.9000     92.6001     110.964     2.53699     2.53559     121.133
     82.3000     92.9000     93.8000     107.299     2.48400     2.52352     121.310
     82.4000     92.9000     92.8000     106.730     2.48000     2.44824     121.691
     82.5000     91.7000     92.4000     102.496     2.51900     2.52643     122.403
     82.6000     90.9000     91.8000     109.573     2.50200     2.49242     122.860
     82.7000     89.7000     92.0000     121.453     2.46700     2.46386     123.139
     82.8000     90.0002     92.2000     121.263     2.50100     2.50744     122.758
     82.9000     92.0000     91.9000     107.047     2.50700     2.49106     122.682
     83.0000     91.3000     91.3000     85.3709     2.53600     2.57028     122.225
     83.1000     90.6000     90.5200     87.0767     2.51900     2.47659     121.742
     83.2000     89.5197     90.0000     97.0620     2.48700     2.51306     121.158
     83.3000     86.8000     88.7999     100.347     2.50900     2.49934     120.574
     83.4000     86.9000     87.5001     90.8689     2.50600     2.50080     119.990
     83.5000     84.7000     84.7000     71.0270     2.55800     2.57522     118.872
     83.6000     81.0000     85.0000     69.6374     2.51700     2.62004     118.339
     83.7000     81.8000     85.3002     62.6224     2.53800     2.40445     118.135
     83.8000     82.3003     86.9000     71.0271     2.55100     2.48266     118.339
     83.9000     85.4998     87.1998     73.3023     2.53300     2.58058     118.059
     84.0000     91.4999     101.000     81.3899     2.49500     2.49694     117.932
     84.1000     86.5999     111.000     69.0683     2.47900     2.57704     117.983
     84.2000     80.5999     111.000     53.4599     2.48200     2.54352     118.262
     84.3000     79.2999     112.001     51.9442     2.46700     2.28836     118.389
     84.4000     77.9001     118.500     60.5366     2.51600     2.50861     118.389
     84.5000     81.0000     113.900     67.1091     2.48700     2.55808     118.440
     84.6000     83.6000     119.000     71.7851     2.44100     2.41523     118.796
     84.7000     85.5002     100.239     86.8893     2.46800     2.49637     119.431
     84.8000     87.6200     91.0000     101.359     2.48300     2.46194     120.142
     84.9000     90.2001     91.0000     93.4598     2.44900     2.48890     120.726
     85.0000     94.3000     91.0000     96.8718     2.44900     2.44941     121.209
     85.1000     93.9000     91.0000     106.224     2.46200     2.46791     121.742
     85.2000     93.3999     91.0000     104.708     2.52300     2.49996     121.920
     85.3000     92.2999     91.0000     102.936     2.50400     2.51478     122.174
     85.4000     90.1000     91.0000     85.7502     2.49000     2.47075     122.250
