#------------------------------------------------------------
~VERSION INFORMATION
VERS.               2.0  :CWLS LOG ASCII STANDARD-VERSION 2.0
WRAP.                NO  :ONE LINE PER DEPTH STEP
#------------------------------------------------------------
~WELL INFORMATION
STRT.M              0.0  :START DEPTH
STOP.M            204.0  :STOP DEPTH
STEP.M              0.1  :STEP
NULL.           -999.25  :NULL VALUE
COMP.               N/A  :COMPANY
WELL.               N/A  :WELL
 FLD.               N/A  :FIELD
 LOC.               N/A  :LOCATION
PROV.               N/A  :PROVINCE
SRVC.               N/A  :SERVICE COMPANY
DATE.               N/A  :DATE
 UWI.               N/A  :UNIQUE WELL ID
#------------------------------------------------------------
~CURVE INFORMATION
DEPT.M                   :DEPTH
MC4F.MS/F                :MC4F
MC6F.MS/F                :MC6F
GRDE.API                 :GRDE
DENL.G/CC                :DENL
ADEN.GM/CC               :ADEN
CADE.MM                  :CADE
#------------------------------------------------------------
~OTHER
#------------------------------------------------------------
~A   DEPT[M]    MC4F[MS/    MC6F[MS/    GRDE[API    DENL[G/C    ADEN[GM/    CADE[mm]
# ...
     123.500     126.700     124.000     54.4715     1.64600     1.58270     123.825
     123.600     128.400     127.600     45.1185     1.48000     1.46621     123.825
     123.700     127.300     130.200     48.5943     1.43600     1.49138     123.825
     123.800     129.900     130.700     61.3601     1.40600     1.42459     123.825
     123.900     130.900     131.900     69.6369     1.45100     1.52199     123.850
     124.000     132.000     132.000     71.3432     1.50000     1.38283     123.952
     124.100     133.500     133.500     66.2882     1.52700     1.50899     123.825
     124.200     133.000     134.500     56.4295     1.54600     1.58181     123.850
     124.300     133.000     134.100     51.1850     1.51400     1.58858     124.079
     124.400     133.300     133.600     50.8058     1.50700     1.42643     124.638
     124.500     132.500     132.100     47.1410     1.49200     1.45809     124.765
     124.600     129.300     132.100     46.0030     1.46600     1.52381     124.155
     124.700     128.900     131.000     32.5424     1.40500     1.39728     123.520
     124.800     127.900     130.940     28.8778     1.38500     1.39673     122.961
     124.900     128.740     130.100     25.9720     1.39700     1.42855     123.190
     125.000     131.400     130.100     26.9191     1.38400     1.28010     123.088
     125.100     130.800     131.400     25.2131     1.38700     1.42855     123.190
     125.200     129.900     131.800     31.9756     1.44401     1.48430     123.063
     125.300     129.300     129.900     47.6482     1.60401     1.81882     123.038
     125.400     128.100     129.300     65.5915     1.85200     1.59405     122.911
     125.500     126.900     125.600     87.2042     2.02100     2.03099     122.860
     125.600     121.800     121.700     110.079     2.19900     2.25099     122.555
     125.700     115.400     118.400     118.736     2.28400     2.30551     122.250
     125.800     111.400     112.900     115.324     2.32901     2.24841     121.895
     125.900     105.100     108.600     106.098     2.39200     2.46006     121.412
     126.000     102.300     104.700     108.373     2.41300     2.36274     121.361
     126.100     100.900     103.000     109.700     2.42800     2.42602     121.107
     126.200     99.0000     101.400     114.818     2.40800     2.40503     121.031
     126.300     99.2998     97.4197     108.246     2.45200     2.45187     120.650
     126.400     96.1200     92.6001     108.753     2.41001     2.44527     120.650
     126.500     88.4998     90.4000     90.9321     2.54800     2.58410     120.675
     126.600     84.8998     90.0000     88.4041     2.53100     2.49586     120.752
     126.700     85.4002     89.0000     83.5413     2.48300     2.33658     120.498
     126.800     88.4004     88.5000     103.825     2.49200     2.60049     120.472
     126.900     93.6000     88.6999     122.085     2.50300     2.52852     120.396
     127.000     92.7002     90.8000     128.089     2.46700     2.51400     120.650
     127.100     89.5002     89.3000     105.783     2.48100     2.35174     120.675
     127.200     84.5000     88.0999     84.2333     2.50300     2.60430     120.802
     127.300     85.1000     86.8000     70.9644     2.49800     2.43634     120.802
     127.400     86.4000     87.2001     80.0629     2.48100     2.52998     120.777
     127.500     88.0001     89.0000     88.8473     2.49500     2.47208     120.650
     127.600     92.3001     89.1000     103.507     2.46500     2.42585     120.650
     127.700     90.2001     91.7000     109.257     2.50700     2.58269     120.675
     127.800     91.7000     92.2000     112.922     2.47500     2.40406     120.802
     127.900     92.0999     92.2401     104.455     2.47600     2.48368     120.777
     128.000     90.6400     91.1000     95.3555     2.42200     2.49493     120.675
     128.100     91.1999     89.6000     87.7090     2.43500     2.40031     120.802
     128.200     88.2999     89.1000     82.9700     2.46800     2.44950     120.802
     128.300     85.3000     86.7000     84.8657     2.51500     2.53069     120.777
     128.400     83.0000     85.1000     97.1255     2.51601     2.52368     120.650
     128.500     82.9000     85.0000     100.537     2.54400     2.50898     120.675
     128.600     83.9001     85.5000     108.119     2.50700     2.53351     120.802
     128.700     86.1001     86.5000     93.1432     2.47400     2.42287     120.777
     128.800     88.3000     87.7999     109.700     2.48900     2.56614     120.650
     128.900     89.6001     89.9002     112.988     2.44900     2.38975     120.625
     129.000     90.4999     91.5000     127.457     2.45500     2.47569     120.523
     129.100     92.3000     92.9001     116.019     2.43700     2.43006     120.625
     129.200     93.4000     90.2001     112.164     2.43800     2.45080     120.523
     129.300     89.6000     92.2999     111.848     2.42900     2.50294     120.650
     129.400     91.1003     94.2000     109.573     2.40600     2.29324     120.650
     129.500     93.0000     94.3200     110.898     2.40600     2.39654     120.675
     129.600     92.7201     95.0000     97.3141     2.37200     2.41227     120.904
     129.700     99.1001     96.5000     107.615     2.39200     2.39638     121.564
     129.800     100.200     102.600     106.477     2.32700     2.31358     122.453
     129.900     102.901     106.900     110.647     2.29299     2.27371     123.063
     130.000     110.200     111.100     105.529     2.23799     2.23370     122.936
     130.100     117.100     115.000     105.087     2.11700     2.09481     122.148
     130.200     120.400     117.400     112.417     2.12600     2.22663     121.259
     130.300     120.800     121.400     112.607     2.13300     2.15419     120.675
     130.400     123.100     121.900     116.273     2.15301     2.08922     120.828
     130.500     120.400     122.300     122.971     2.21200     2.22653     121.006
     130.600     121.400     123.000     142.433     2.11300     1.99352     121.260
     130.700     124.800     124.300     148.689     2.08100     2.18709     121.234
     130.800     126.600     126.900     148.436     2.02300     2.07122     121.082
     130.900     128.700     128.800     132.510     1.86400     1.68798     120.929
     131.000     129.600     129.700     120.569     1.86300     2.00354     120.802
     131.100     129.400     127.620     111.722     1.86800     1.96203     120.802
     131.200     126.520     123.700     117.283     2.02200     1.99693     120.828
     131.300     120.200     120.100     138.263     2.20500     2.21685     120.980
     131.400     112.799     116.999     156.209     2.31401     2.22253     121.107
     131.500     109.300     113.300     155.450     2.34800     2.29084     121.107
     131.600     107.800     109.600     155.008     2.32900     2.37128     121.082
     131.700     107.900     105.100     142.875     2.40400     2.46635     120.929
     131.800     103.800     104.100     144.265     2.48600     2.63154     120.777
     131.900     100.600     104.300     134.031     2.49100     2.27143     120.675
     132.000     100.600     103.900     149.384     2.47000     2.32748     120.828
     132.100     101.600     102.100     154.945     2.55400     2.71967     121.031
     132.200     103.700     101.000     152.859     2.49000     2.51530     121.437
     132.300     104.000     102.500     156.082     2.36600     2.32693     121.564
     132.400     103.400     102.900     149.510     2.41700     2.43501     121.539
     132.500     100.200     102.400     149.764     2.43900     2.45226     121.412
     132.600     100.500     103.100     129.036     2.43400     2.42801     121.463
     132.700     104.100     101.340     116.904     2.43500     2.39700     121.742
     132.800     100.940     101.200     102.054     2.40200     2.54964     121.920
     132.900     101.600     100.800     112.293     2.42601     2.22634     122.123
