#------------------------------------------------------------
~VERSION INFORMATION
VERS.               2.0  :CWLS LOG ASCII STANDARD-VERSION 2.0
WRAP.                NO  :ONE LINE PER DEPTH STEP
#------------------------------------------------------------
~WELL INFORMATION
STRT.M              0.0  :START DEPTH
STOP.M            234.0  :STOP DEPTH
STEP.M              0.1  :STEP
NULL.           -999.25  :NULL VALUE
COMP.               N/A  :COMPANY
WELL.               N/A  :WELL
 FLD.               N/A  :FIELD
 LOC.               N/A  :LOCATION
PROV.               N/A  :PROVINCE
SRVC.               N/A  :SERVICE COMPANY
DATE.               N/A  :LOG DATE
 UWI.               N/A  :UNIQUE WELL ID
#------------------------------------------------------------
~CURVE INFORMATION
DEPT.M                   :DEPTH
GRDE.API                 :GRDE
DENL.G/CC                :DENL
MC2F.USFT                :MC2F
MC4F.MS/F                :MC4F
MC6F.MS/F                :MC6F
CADE.MM                  :CADE
#------------------------------------------------------------
~OTHER
#------------------------------------------------------------
~A   DEPT[M]    GRDE[API    DENL[G/C    MC2F[uSF    MC4F[MS/    MC6F[MS/    CADE[mm]
# ...
     66.5000     97.0740     2.01200     138.300     134.500     132.600     128.270
     66.6000     134.837     2.09200     133.300     128.700     128.700     129.388
     66.7000     161.737     2.19801     124.798     123.400     126.100     130.480
     66.8000     163.517     2.26001     113.501     120.100     122.600     131.521
     66.9000     156.166     2.32900     116.300     117.000     119.500     131.521
     67.0000     142.578     2.36700     119.400     116.900     116.300     131.343
     67.1000     148.092     2.37700     116.000     117.200     116.400     130.124
     67.2000     142.579     2.34200     116.000     116.900     117.200     127.279
     67.3000     155.499     2.35000     116.400     116.400     116.000     123.266
     67.4000     164.242     2.35298     116.500     116.400     116.000     119.964
     67.5000     164.576     2.24200     114.500     116.400     114.200     118.669
     67.6000     151.715     2.29400     110.500     113.300     99.9003     119.024
     67.7000     123.861     2.43501     107.493     91.4974     87.9991     122.124
     67.8000     91.9504     2.57600     71.8003     74.7036     82.0989     126.137
     67.9000     62.9357     2.62801     61.0204     90.9967     72.1990     129.134
     68.0000     51.4620     2.71000     61.0000     79.0000     60.5001     128.626
     68.1000     51.9630     2.63200     65.8000     79.0000     57.4204     126.949
     68.2000     52.7463     2.54297     67.0998     79.0200     72.3007     126.365
     68.3000     68.3982     2.37501     65.7018     79.0001     76.0003     126.390
     68.4000     96.9072     2.40501     73.7003     80.0007     79.5997     126.416
     68.5000     121.246     2.45600     79.0003     85.8000     79.9000     126.086
     68.6000     135.171     2.37799     85.3003     86.5000     80.2003     126.390
     68.7000     127.150     2.44300     92.7985     83.5015     92.2006     127.330
     68.8000     121.022     2.40401     83.2970     95.3003     98.3977     128.626
     68.9000     103.702     2.46600     61.3989     104.796     87.6964     131.090
     69.0000     88.9442     2.47200     40.5000     87.3997     62.0000     133.883
     69.1000     84.2094     2.58200     40.5997     61.0006     61.1000     136.322
     69.2000     98.8607     2.58100     61.1031     80.2029     60.3006     137.312
     69.3000     113.729     2.61600     81.3999     99.3994     64.3011     137.693
     69.4000     128.374     2.60698     91.7991     112.100     72.2001     137.846
     69.5000     122.694     2.46100     91.2000     116.599     76.3999     137.922
     69.6000     129.768     2.55300     93.8998     76.9999     82.5001     137.744
     69.7000     128.654     2.49200     99.9602     78.7010     87.6010     137.414
     69.8000     131.550     2.46600     102.200     85.7002     94.6998     136.779
     69.9000     131.439     2.47301     102.300     94.8996     98.9599     135.433
     70.0000     132.163     2.53500     104.400     98.2600     101.500     134.036
     70.1000     136.508     2.51800     105.900     101.300     102.300     132.994
     70.2000     127.485     2.49401     106.500     102.200     101.100     132.664
     70.3000     125.424     2.54900     104.598     99.0996     98.5002     133.350
     70.4000     126.987     2.53602     96.4992     94.7003     98.1000     134.341
     70.5000     143.692     2.63600     85.7995     93.9000     97.8000     135.103
     70.6000     151.155     2.57000     91.8006     94.0000     96.8000     135.331
     70.7000     149.036     2.48700     101.500     96.5009     96.3003     135.357
     70.8000     136.450     2.50799     100.800     101.899     98.0003     135.509
     70.9000     122.974     2.47700     101.000     101.300     100.900     135.509
     71.0000     116.513     2.45300     101.800     101.000     101.000     135.001
     71.1000     98.8025     2.47200     102.200     101.000     101.000     134.214
     71.2000     108.438     2.43300     103.400     101.200     101.000     133.223
     71.3000     114.175     2.48300     103.800     100.310     100.200     132.741
     71.4000     123.028     2.49802     102.540     166.393     98.3003     133.807
     71.5000     121.302     2.57101     94.8200     166.400     99.3001     135.636
     71.6000     121.749     2.64700     94.8998     184.002     97.9400     137.414
     71.7000     131.940     2.63098     99.9998     127.320     97.2202     138.176
     71.8000     130.047     2.54900     98.7997     127.318     98.0001     138.532
     71.9000     132.997     2.50502     96.0013     103.003     98.7005     139.065
     72.0000     127.429     2.59800     103.300     103.000     101.800     139.370
     72.1000     119.743     2.52200     105.100     103.000     101.400     139.192
     72.2000     113.340     2.51900     102.700     103.000     102.700     138.862
     72.3000     128.709     2.55999     102.500     102.300     103.200     138.430
     72.4000     136.005     2.51800     104.000     102.000     101.500     138.024
     72.5000     132.274     2.50800     104.000     100.800     99.5000     137.795
     72.6000     124.923     2.52900     100.400     97.8000     99.0000     137.795
     72.7000     125.758     2.57100     95.6000     96.2000     98.7998     137.668
     72.8000     123.196     2.51500     95.9011     96.0000     98.1000     137.058
     72.9000     124.310     2.52000     101.040     96.4002     97.8002     136.500
     73.0000     129.379     2.48100     101.980     98.8000     99.1000     136.601
     73.1000     152.436     2.48300     101.000     100.300     100.540     137.084
     73.2000     149.037     2.46200     102.640     100.340     100.980     137.693
     73.3000     144.134     2.46800     103.600     100.980     101.000     137.795
     73.4000     127.374     2.50899     102.400     100.700     100.540     137.770
     73.5000     122.195     2.48999     101.000     99.2401     100.000     137.592
     73.6000     114.731     2.60600     99.8000     98.2000     98.8000     137.262
     73.7000     114.563     2.48002     99.3999     96.7999     98.0000     136.779
     73.8000     113.953     2.62998     98.6999     96.2000     97.8000     136.347
     73.9000     120.023     2.60999     97.6001     96.0000     97.1001     136.296
     74.0000     132.720     2.49500     97.4000     96.0000     97.1000     136.373
     74.1000     133.889     2.56100     99.0000     96.3000     97.0999     136.982
     74.2000     137.392     2.58300     98.2000     96.4995     95.0997     137.236
     74.3000     109.941     2.61498     98.1988     93.4996     92.8000     137.135
     74.4000     95.4056     2.50003     91.1993     89.7998     90.9004     136.042
     74.5000     87.7190     2.61200     83.2999     87.5000     91.8000     134.823
     74.6000     89.0000     2.56200     86.4000     88.2000     92.5000     134.087
     74.7000     111.612     2.50800     94.8008     92.9006     92.0003     134.036
     74.8000     108.607     2.52402     99.1994     95.9999     93.8001     134.747
     74.9000     125.979     2.63299     97.4393     97.1993     94.7001     135.509
     75.0000     120.690     2.58000     92.2003     94.3000     96.0000     136.220
     75.1000     119.242     2.53700     89.5202     94.0005     96.0400     136.398
     75.2000     111.667     2.56599     91.2809     99.5400     96.5000     136.627
     75.3000     111.280     2.47501     101.299     100.000     97.3400     136.703
     75.4000     123.755     2.44302     103.200     101.040     97.9804     136.931
     75.5000     139.960     2.49500     102.100     101.480     100.200     136.804
     75.6000     139.236     2.54700     102.800     99.8000     100.400     136.271
     75.7000     137.619     2.49501     102.200     99.0000     100.000     135.941
     75.8000     128.376     2.54100     99.5003     99.0000     100.600     135.636
     75.9000     129.042     2.56999     100.600     99.0000     100.600     135.788
